$[AGT],ipath,/data/misc/
$PMTK013,AgpsMachine,set,0,result,0*17
043451.703,HBD,IF1,BOT,UInitCf,1,0,0,16,100,0,255,2000,26000000,115200,1000,0,-2147483456,ffff6753,2

043451.703,HBD,IF1,BOT,MNLVer,_u1MTKChipID=1
043451.703,HBD,IF1,GPS,NVFile,Opened
043451.703,HBD,IF1,GPS,NVFile,g_BMAP_NVfile_Operation_load,0
$[AGT],GSET=0
$[AGT],rm,6,rt,4
$[AGT],SAP,Eidle
$[AGT],e=1,b=1,s=1,aosp=1
043451.703,HBD,IF1,ALO,AlcInit,
043451.703,HBD,IF1,ALO,AlSCIni,
043451.703,HBD,IF1,ALO,PMCmod4,0
043451.703,HBD,IF1,ALO,EdInitD,
043451.703,HBD,IF1,ALO,PmcInit,
043451.703,HBD,IF1,ALO,VtCfgDb,20,20,4294967295
043451.703,HBD,IF1,BOT,InitCfg,1,115200,115200,26000000,255,0,0,0.000000,0.000000
043451.703,HBD,IF1,BOT,BotUrV2,BINFO(): x,-2147483456,y,ffff6753,
043451.703,HBD,IF1,BOT,BotUrV2,BINFO(): MT6753_ DSP
043451.703,HBD,IF1,BOT,BotUrV2,_BINFO(): B,-149904296,L,61448
043451.707,HBD,IF1,BOT,BotUrV2,RFG,3,0,3
043452.199,HBD,IF1,BOT,ClkType,255
$PMTK015,43452200,1,GPS_INIT_DONE*73
$[AGT],GSET=1
$[AGT],rm,1,rt,11
$[AGT],inco
$[AGT],rm,0
$[AGT],remd == 0
043452.199,HBD,IF1,MSG,MNLInit,OK

#MZYQ.D@1C3&19

$PMTK010,001*2E

$PMTK010,002*2D
$PMTK013,INF,0,128,4,128*59
$PMTK015,43452203,4,43452200,PMTK764,0,0,0,2,0,128,4,128*30
$$PMTK764,0,0,0,2,0,128,4,128*15
043452.203,HBD,IF1,GPS,FrstDtt,00,00
$PMTK015,43452204,2,FIRST_DBTT*29
043452.203,HBD,IF1,GPS,TkDltIn,0,0,0

#MZYQ.@@1B3D5&64
$SELF_ATOW,0,0*4E
043452.203,HBD,IF1,TIM,HALTIME,0,
043452.203,HBD,IF1,TIM,HALTSTA,0,
043452.203,HBD,IF1,TIM,IdbtsDa,RTCstatusA,0,fgSysTimeOK,1,UseSystime,0,LoadRTCUpdateOK,RTC_age,95
043452.203,HBD,IF1,TIM,IdbtsDa,RTCstatusB,0,fgSysTimeOK,1,UseSystime,0
043452.203,HBD,IF1,TIM,DtsAcRT,PRTC,Load,Wn,1881,Tow,153299.993874700,RtcD,-8.922,
$IRTC,i2RtcTimeLastWn,1881,dfRtcTimeLastTow,153282.984406,*2A
$IRTC,i2RtcTimeLastWn,1881,dfRtcTimeLastTow,153299.984912,*28
$IRTC,dfDltTow1,22.095642,*21
$IRTC,dfDltTow2,22.095839,*20
$IRTC,i2GpsWn2,1881,dfGpsTow2,153322.089714,*25
043452.203,HBD,IF1,TIM,DtsAcRT,PRTC,Load,GWn,1881,GTow,153322.089713937,RWn,1881,RTow,153299.984911645,RtcD,-8.922,
$IRTC,dfDltTow,22.095839,HTTFF_163,0,_fgEnableAccIGPST,1*7B

#MZYQ.D@1B3&18
043452.203,HBD,IF1,TIM,IdtsAcT,1,1881,153322.089000000,9,22.1,

#MZYQ.DD1B3&1C

#MZYQ.CB1D3&1B
$QEPO_Request*05
$[AGT],GSET=1
$[AGT],rm,1,rt,10
$[AGT],inco
$[AGT],rm,0
$[AGT],remd == 0

#MZYQ.DB1C3&1B
043452.203,HBD,IF1,TIM,NWloc,fgfirstUseNW,0,case,0,NWAID,0,NWUSE,0
$Boost, hotstart*5A
043452.207,HBD,IF1,AGP,BOOST,Posdiff:157624997773312.000000,0.000000,num:0,PosConverge,0,BoostRemT,20.000
$LOC_Cache_BIT,00000000*7F
$DBnm_NLP,[24.975739,121.327970,0,20.000000][2016/1/25,18:34:53][0][0]*39
$NLP_from_file,[24.975739,121.327970,0,20.000000][2016/1/25,18:34:53][1881,153310.000000]*72
$cache_pos,-3007957.236659,4941780.525593,2676680.883578,[1137782047]*6A
$Cache_age,75,NLP_age,13,NV_age,75*14
$NLP_Aid*41
#DBTP 11 1 9 2497573 12132797 100 1881 153322099 1137782107 &85

#MZYQ.C@1C3&18
043452.207,HBD,IF1,AGP,AGPSMGN,Posdiff:157624997773312.000000,0.000000,num:0,PosConverge,0,AGPSRemT,16.000

#MZYQ.AA1D3&18
043452.207,HBD,IF1,GPS,EpoLoad,HOST_EPO,BAD_Load,ffffffff,316043,45

#MZYQ.AE1I3&21

#XPda.@@BC3&42
043452.207,HBD,IF1,GPS,FTModeC,FT_Mode,1,Send_Comd
043452.207,HBD,IF1,AGP,AGPSMGN,AGPSMode:-1,AGPSTimer:0.000
$PMTK015,43452208,10,11,AMode,-1,ATimer,0.000,Remain,16.000*66
$PMTK015,43452208,6,11,NACQ,0,NBS,0,NSFS,0,NEXS,0*68
$HBD,INF,RTC,F,0,Y,16,M,1,D,25,H,18,M,35,Sec,5,Sub,2623,T,1,SM,7500*0F
$DBts1,TSOK,0,WNSet,1,TOWS,9,WN,1881,BAcc,1183216.000,TAcc,1220038.000,*68
$DBts2,TTK,11,TOW,153322.099000000,B,-0.000255714,D,0.000001156,*2A
043452.207,HBD,IF1,ALO,CdmPvtU,
$HBD,INF,RTC,F,0,Y,16,M,1,D,25,H,18,M,35,Sec,5,Sub,2623,T,1,SM,7500*0F
$PMTK013,11,set epo bitmap,R:0,F:1 *1E
$GNGGA,183505.099,2458.5444,N,12119.6782,E,0,0,,85.0,M,15.0,M,,*65
$GPGSA,A,1,,,,,,,,,,,,,99.99,99.99,1.00*01
$GLGSA,A,1,,,,,,,,,,,,,99.99,99.99,1.00*1D
$GPGSV,4,1,13,28,68,328,,193,65,115,,03,51,089,,17,37,321,*4A
$GPGSV,4,2,13,01,35,034,,19,34,314,,30,29,219,,06,27,246,*75
$GPGSV,4,3,13,11,25,050,,32,23,054,,07,13,190,,08,08,091,*7A
$GPGSV,4,4,13,23,02,135,*4F
$GLGSV,1,1,0*55
$GNRMC,183505.099,V,2458.5444,N,12119.6782,E,0.000,0.00,250116,,,N*58
$GNVTG,0.00,T,,M,0.000,N,0.000,K,N*2C
$GNACCURACY,47.3*26
$PMTKDGP,0*4D
$PMTKDBG,11,0,1,0,0,0,1,0,0,0,1,0,0,0,0,0,0,0,0,1,1,1,1,1,0,0,0,0,1,0,0,0,0,0026,0014,0002,0000,0000,0022,0001,0000,0.0000,1.1560,0.0000,0.0000,0.0000,0.0000,*43
$PMTKDB2,0000,0000,0000,0000,0000,0000,0000,0100,2235.51,0000.00,11560.86,1220038.00,0000.00,-255.71,00-0.02,0000.00,*18
$PMTKEPH,17,1,3,6,7,8,9,11,16,17,19,22,23,26,27,28,30,193*60
$PMTKALM,32,1,2,3,5,6,7,8,9,10,11,12,13,14,15,16,17,18,19,20,21,22,23,24,25,26,27,28,29,30,31,32,193*51

#WXM[.?0A2C4E6G8I:K<M>O@QBSDUFWHYJ[L]N_PaRcTeVgXiZk\m^o`qbsdufwhyj{l}npy&39

#NM^Z.BB1CD4F6G8I:K<M>&DD
#\XOU.AF1B3D5F7H9JKLM>O@QBSDUFWHYJ[L]^_`QbSdUfWhijk\m^o`qbstuvgxizk|m~oq&32
#\XOU.BG1B3D5F7H9JKLM>O@QBSDUFWHYJ[L]^_`QbSdUfWhijk\m^o`qbstuvgxizk|m~oq&34
#\XOU.CH1B3D5F7H9JKLM>O@QBSDUFWHYJ[L]^_`QbSdUfWhijk\m^o`qbstuvgxizk|m~oq&36

#NM`a.@A1C3D5F7H9J;L=NOPQRSTUFWHYJ&F1

#NMMN.@0>CKFF6KHRL;MN>PPSTTXEWYHYJdL^cbccdadnoWhY&E9
#KL_c.@0BBGLHOG8FNPSR>PUQBXUWFXHYJc\]_O&3F
#KL_c.B0BBHEMOH8FKRUN>PUQBXUWFXHYJc\]_O&3E
#KL_c.E0BBGJEHL8MMK<NSO@VSUDVFWHaZ[_M&D4
#KL_c.F0BBGFLKP8FNTMO>PUQBXUWFXHYJc\]aO&45
#KL_c.G0BBFMHJI8FMRON>PUQBXUWFXHYJc\]aO&3E
#KL_c.@A1CCHJOLJ9GOPOW?QVRCYVXGYIZKd]^bP&71
#KL_c.@G1CCHLKLP9GOLT>PUQBXUWFXHYJc\]_O&41
#KL_c.@I1CCHMGHI9GNPS>PUQBXUWFXHYJc\]_O&37
#KL_c.AC1CCGKOJI9GORP>PUQBXUWFXHYJc\]aO&3B
#KL_c.AH1CCIHLNK9GMLT>PUQBXUWFXHYJc\]_O&3C
#KL_c.B@1CCHKMKL9GOONV?QVRCYVXGYIZKd]^bP&6F
#KL_c.BB1CCHJLIL9GNTVS?QVRCYVXGXIZKd]^`P&73
#KL_c.@ID2LMLGPP9GMPOS?QVRCYVXGYIZKd]^`P&85
#KLbg.?0BE3FM6HQL:N<NU?QAS\DXVG^I[\LdNgPceSggV&37
#KLbg.@0BF3FEG7JIL;NMQ?RQVCVU[GZY`K^]eObajSfeoWjjj[nno_rrtcvvygzz~k&20

#NMO_.UVWXYZ[\7^_`abcde@ghijklmnIpqrstuvwRyz{|W~`e&3B

#NM`].@A1C3M5HKQPORO=OQQTTZ]\FXXYJ\de_OafeffgfpqYklotuwrrrzdrxxizk&BC
#NP\U.@0BCFKLNIHPO;`SSOPQBSDUFWHYJb^coqPiRdifigXpoon^qtw}ew~|kry˧ͽŵѼ&B2
#NP\U.B0BCFKLNIHPO;`SSOPQBSDUFWHYJ^d_dpsQxyxiV}|}l]qwpvrtdxxkrxġ˿ʴ޺&DD
#NP\U.E0BCFKLNIHKL;`SSOPQBVi\ihXIkb`]bcPwihwjoWyo}}lv^ttsxey}hz{~ov}ƻʦΪþ̶޽&7C
#NP\U.F0BCFKLNIHPO;`SSOPQBSDUFWHYJ]d_dpsQxyzhVj|~snl]pwprtdw{krx¿òɹ&47
#NLXZ.@0AB3EMNH8MKMUMO?TfRhUXFml]o[\Mo``tvvT{{z{{s[mprbyz|{hzz{|n&60
#NLXZ.A0AB3EMNH8MLR`^U?TfRSWVFml\o[\Mo``ufiT{zg|pq[}trxtbtyi~|}p&C6
#NLXZ.B0AB3EMNH8MMKNTS?TfRdiUFml^k[\Mo``uvtTgojk~p[sttqsbzzwwip&F0
#NLXZ.D0AB3EMNH8MOMQVQ?TfRU[gFml]m[\Mo``ugwTgnzpqs[mpwpxbz{~i|}p&A3
#NLXZ.E0AB3EMNH8MPKNOP?TfRgj^Fml]o[\Mo``tseT{{nlzk[}quosybvzuyi{||}p&9A
043452.207,HBD,IF1,COM,WtDtCnt,3
$[AGT],GSET=1
$[AGT],rm,1,rt,7
$[AGT],fgFirstReq:1
$[AGT],bitmap,old:   0,new: 308
$[AGT],inco
$[AGT],srm,1,dsm,4,tp,7,length,12
$[AGT],tp,776,wn,1881,tw,153322,si,12
$[AGT],rm,2
$[AGT],state:7
$[AGT],wn:1881, tw:153322
$[AGT],ergt
$[AGT],
$[AGT],Esgt 1137715200
$[AGT],epegt
$[AGT],gfisiz()
$[AGT],egtEf,1140307200
$Rdon
$[AGT],res,1137782122,sst,1137715200,egsn,1140307200
$[AGT],wk,epo
$[AGT],s,1,m,1
$[AGT],idle
$@#$^ [AGNT] pEd
$[AGT],opmode GLO(1),GEL(0),DB(0)
$[AGT],tw,153322,gs,1137782122
$[AGT],eextd
$[AGT]start verify
$[AGT],gfisiz()
$[AGT]FileType:GPS+GLO
$[AGT],
$[AGT],epegt
$[AGT],gfisiz()
$[AGT],Extract epo done
043452.211,HBD,IF1,MSG,AidEPO,$[AGT],GSET=0
$[AGT],rm,4,rt,8
$[AGT],inco
$[AGT],srm,4,dsm,4,tp,8,length,12
SV,1,ret,1
$[AGT],tp,776,wn,1881,tw,153322,si,12
$[AGT],rm,3
$[AGT],state:6
043452.211,HBD,IF1,MSG,AidEPO,SV,2,ret,1
$[AGT],wn:1881,tw:153322
043452.211,HBD,IF1,MSG,AidEPO,SV,3,ret,1
043452.211,HBD,IF1,MSG,AidEPO,SV,4,path_2NG,ValidEPO,1,u4CurrGpsSecs,1137782122,u4GpsSecs,1137780000,seq,45,NAseq,0,Age_Epo,15,Naage,0,NaValidGEPO,0
$[AGT],BGAI
$[AGT],0,av:72,b_sky:0
$[AGT],1,av:82,b_sky:0
$[AGT],2,av:118,b_sky:0
$[AGT],3,av:0,b_sky:1
043452.211,HBD,IF1,MSG,AidEPO,SV,5,ret,1
$[AGT],4,av:82,b_sky:0
$[AGT],5,av:74,b_sky:0
$[AGT],6,av:72,b_sky:0
$[AGT],7,av:72,b_sky:0
$[AGT],8,av:70,b_sky:0
$[AGT],9,av:66,b_sky:0
$[AGT],10,av:72,b_sky:0
$[AGT],11,av:114,b_sky:0
$[AGT],12,av:0,b_sky:0
$[AGT],13,av:66,b_sky:0
$[AGT],14,av:112,b_sky:0
$[AGT],15,av:70,b_sky:0
$[AGT],16,av:72,b_sky:0
$[AGT],17,av:64,b_sky:0
$[AGT],18,av:74,b_sky:0
$[AGT],19,av:82,b_sky:0
$[AGT],20,av:68,b_sky:0
$[AGT],21,av:72,b_sky:0
$[AGT],22,av:120,b_sky:0
$[AGT],23,av:62,b_sky:0
$[AGT],24,av:66,b_sky:0
$[AGT],25,av:70,b_sky:0
$[AGT],26,av:70,b_sky:0
$[AGT],27,av:74,b_sky:0
$[AGT],28,av:116,b_sky:0
$[AGT],29,av:74,b_sky:0
$[AGT],30,av:68,b_sky:0
$[AGT],31,av:116,b_sky:1
$[AGT],Eend:1, Send:1, ct:1
$[AGT],wkbee
$[AGT],s,1,m,2
$[AGT],idle
$@#$^ [AGNT] sBi
043452.211,HBD,IF1,MSG,AidEPO,SV,6,ret,1
043452.211,HBD,IF1,MSG,AidEPO,SV,7,ret,1
043452.211,HBD,IF1,MSG,AidEPO,SV,8,ret,1
043452.211,HBD,IF1,MSG,AidEPO,SV,9,ret,1
043452.211,HBD,IF1,MSG,AidEPO,SV,10,ret,1
043452.211,HBD,IF1,MSG,AidEPO,SV,11,ret,1
043452.211,HBD,IF1,MSG,AidEPO,SV,12,ret,1
043452.211,HBD,IF1,MSG,AidEPO,SV,13,ret,1
043452.211,HBD,IF1,MSG,AidEPO,SV,14,ret,1
043452.211,HBD,IF1,MSG,AidEPO,SV,15,ret,1
043452.211,HBD,IF1,MSG,AidEPO,SV,16,ret,1
043452.211,HBD,IF1,MSG,AidEPO,SV,17,ret,1
043452.215,HBD,IF1,MSG,AidEPO,SV,18,ret,1
043452.215,HBD,IF1,MSG,AidEPO,SV,19,ret,1
043452.215,HBD,IF1,MSG,AidEPO,SV,20,ret,1
043452.215,HBD,IF1,MSG,AidEPO,SV,21,ret,1
043452.215,HBD,IF1,MSG,AidEPO,SV,22,ret,1
043452.215,HBD,IF1,MSG,AidEPO,SV,23,ret,1
043452.215,HBD,IF1,MSG,AidEPO,SV,24,ret,1
043452.215,HBD,IF1,MSG,AidEPO,SV,25,ret,1
043452.215,HBD,IF1,MSG,AidEPO,SV,26,ret,1
043452.215,HBD,IF1,MSG,AidEPO,SV,27,ret,1
043452.215,HBD,IF1,MSG,AidEPO,SV,28,ret,1
043452.215,HBD,IF1,MSG,AidEPO,SV,29,ret,1
043452.215,HBD,IF1,MSG,AidEPO,SV,30,ret,1
043452.215,HBD,IF1,MSG,AidEPO,SV,31,ret,1
043452.215,HBD,IF1,MSG,AidEPO,SV,32,path_2NG,ValidEPO,2,u4CurrGpsSecs,1137782122,u4GpsSecs,1137780000,seq,45,NAseq,0,Age_Epo,15,Naage,0,NaValidGEPO,0
043452.215,HBD,IF1,MSG,AidGLEP,SV,1,ret,1
043452.215,HBD,IF1,MSG,AidGLEP,SV,2,ret,1
043452.215,HBD,IF1,MSG,AidGLEP,SV,3,ret,1
043452.215,HBD,IF1,MSG,AidGLEP,SV,4,ret,1
043452.215,HBD,IF1,MSG,AidGLEP,SV,5,ret,1
043452.215,HBD,IF1,MSG,AidGLEP,SV,6,ret,1
043452.215,HBD,IF1,MSG,AidGLEP,SV,7,ret,1
043452.215,HBD,IF1,MSG,AidGLEP,SV,8,ret,1
043452.215,HBD,IF1,MSG,AidGLEP,SV,9,ret,1
043452.215,HBD,IF1,MSG,AidGLEP,SV,10,ret,1
043452.215,HBD,IF1,MSG,AidGLEP,SV,11,ret,1
043452.215,HBD,IF1,MSG,AidGLEP,SV,12,ret,1
043452.215,HBD,IF1,MSG,AidGLEP,SV,13,ret,1
043452.215,HBD,IF1,MSG,AidGLEP,SV,14,ret,1
043452.215,HBD,IF1,MSG,AidGLEP,SV,15,ret,1
043452.215,HBD,IF1,MSG,AidGLEP,SV,16,ret,1
043452.215,HBD,IF1,MSG,AidGLEP,SV,18,ret,1
043452.215,HBD,IF1,MSG,AidGLEP,SV,19,ret,1
043452.215,HBD,IF1,MSG,AidGLEP,SV,20,ret,1
043452.215,HBD,IF1,MSG,AidGLEP,SV,21,ret,1
043452.215,HBD,IF1,MSG,AidGLEP,SV,22,ret,1
043452.215,HBD,IF1,MSG,AidGLEP,SV,23,ret,1
043452.215,HBD,IF1,MSG,AidGLEP,SV,24,ret,1
043453.207,HBD,IF1,TIM,DSP,u1ChnNum,37,u2DataSize,57
043453.207,HBD,IF1,COM,BinDecX,65065
043453.207,HBD,IF1,TIM,DSP,u1ChnNum,48,u2DataSize,57
043453.207,HBD,IF1,COM,BinDecX,65065
043453.207,HBD,IF1,GPS,TkDltIn,11,12,1
043453.207,HBD,IF1,TIM,AcRCCEr,33,820,795,25,98,96
043453.207,HBD,IF1,TIM,NWloc,fgfirstUseNW,0,case,0,NWAID,0,NWUSE,0
043453.207,HBD,IF1,AGP,BOOST,Posdiff:904.563477,0.236461,num:0,PosConverge,0,BoostRemT,19.000
$MTK_GPS_BEST,5,1011,PR,6,TT4SV,1011*26
$LOC_Cache_BIT,00000002*7D
$DBnm_NLP,[24.975739,121.327970,0,20.000000][2016/1/25,18:34:53][0][1]*38
$cache_pos,-3007957.236659,4941780.525593,2676680.883578,[1137782047]*6A
$cache,1,28,0.698570*60
$cache,2,3,0.975342*51
$cache,3,1,0.142456*5C
$cache,4,19,0.810051*6F
$cache,5,30,-0.320068*4A
$DO_Err,mean,0.461270,std,0.480492*70
$Cache_age,76,NLP_age,-99,NV_age,16*3D
043453.207,HBD,IF1,AGP,AGPSMGN,Posdiff:904.563477,0.236461,num:0,PosConverge,0,AGPSRemT,16.000

#MZYQ.AE1E3&1D

#XPda.A@BC3&43

#MZYQ.@B1III5F7P\Q`<&EF

#MZYQ.AH1HG4&57
043453.207,HBD,IF1,AGP,AGPSMGN,AGPSMode:-1,AGPSTimer:0.000
$PMTK015,43453210,10,1021,AMode,-1,ATimer,0.000,Remain,16.000*6C
043453.207,HBD,IF1,AGP,AGPSMGN,DOP.H :1.232492,PosCon:0,[122.389343,56.784519,4.997377]
$PMTK015,43453210,6,1021,NACQ,5,NBS,5,NSFS,0,NEXS,0*62
$HBD,INF,RTC,F,0,Y,16,M,1,D,25,H,18,M,35,Sec,6,Sub,2705,T,1003,SM,15916*02
$DBts1,TSOK,0,WNSet,1,TOWS,5,WN,1881,BAcc,42.204,TAcc,9999000.000,*50
$DBts2,TTK,1011,TOW,153323.117583998,B,-0.000280040,D,0.000001196,*29
043453.211,HBD,IF1,ALO,CdmPvtU,
$HBD,INF,RTC,F,0,Y,16,M,1,D,25,H,18,M,35,Sec,6,Sub,2705,T,1003,SM,15916*02
$PMTK013,1021,set epo bitmap,R:0,F:1 *1C
$GNGGA,183506.117,2458.5288,N,12119.6845,E,1,6,1.23,85.0,M,15.0,M,,*7A
$GPGSA,A,3,193,28,03,01,19,30,,,,,,,1.55,1.23,0.93*31
$GLGSA,A,3,,,,,,,,,,,,,1.55,1.23,0.93*15
$GPGSV,4,1,13,28,68,328,34.1,193,65,115,34.0,03,51,089,36.0,17,37,321,*50
$GPGSV,4,2,13,01,35,034,28.6,19,34,314,34.5,30,29,219,19.4,06,27,246,*69
$GPGSV,4,3,13,11,25,050,,32,23,054,,07,13,190,,08,08,091,*7A
$GPGSV,4,4,13,23,02,135,*4F
$GLGSV,3,1,9,75,47,281,,85,39,344,,74,36,204,,70,35,123,*51
$GLGSV,3,2,9,69,25,058,,84,24,042,,86,16,290,,76,11,328,*5E
$GLGSV,3,3,9,71,10,169,*65
$GNRMC,183506.117,A,2458.5288,N,12119.6845,E,0.459,184.61,250116,,,A*44
$GNVTG,184.61,T,,M,0.459,N,0.851,K,A*2D
$GNACCURACY,11.6*20
$PMTKDGP,0*4D
$PMTKDBG,1011,0,1,0,0,0,0,0,1,0,0,0,0,0,0,0,0,0,0,1,1,1,1,1,0,0,0,0,0,0,0,0,0,0028,0014,0002,0006,0006,0000,0001,0000,0.0000,1.1959,0.0000,0.0000,0.0000,0.0000,*4A
$PMTKDB2,0C13,0000,0000,0000,0000,0000,0000,0000,0134.92,1194.12,11959.50,9999000.32,0000.80,-280.04,00-0.02,0000.00,*6D
$PMTKEPH,40,1,3,6,7,8,9,11,16,17,19,22,23,26,27,28,30,193,-65.2.4,-66.2.4,-67.2.4,-68.2.4,-69.2.4,-70.2.4,-71.2.4,-72.2.4,-73.2.4,-74.2.4,-75.2.4,-76.2.4,-77.2.4,-78.2.4,-79.2.4,-80.2.4,-82.2.4,-83.2.4,-84.2.4,-85.2.4,-86.2.4,-87.2.4,-88.2.4*6E
$PMTKALM,32,1,2,3,5,6,7,8,9,10,11,12,13,14,15,16,17,18,19,20,21,22,23,24,25,26,27,28,29,30,31,32,193*51

#WXM[.?0A2C4E6G8I:K<M>O@QBSDUFWHYJ[L]N_PaRcTeVgXiZk\m^o`qbsdufwhyj{l}npy&39
#NMQR.A0AC3D5FHMI^Qa^PSPgR[TUVWna_[\^_svebyezm{j}nns^sqt}{x|¶ǶϼѾհ³Ŷɹмο&D6
#NMQR.A0AD3D5FHMI^Qa^PSPgRUTUVWaac[`rdavabygg|lkijqn^qy{xxĵŹϿϾհ³Ŷʹͼο&93
#NMQR.A0AE3D5FHMI^Qa^PSPgfWjkVW]Ynqrq^g`fbyl{mxkkqt^tqrtuy}ôǿνξհ³Ŷ˹ͼο&77
#NMQR.A0AG3D5FHMI^Qa^PSPgSiTUVWnl[[qpeb`ebymkkiknq|^sqttxuzzyŷǽϽѾհ³Ŷȹ̼ο&23
#NMQR.A0AH3D5FHMI^Qa^PSPgUYTUVWkal[]^e`vcbyhzxnj|opt^sqryuz{}}øϾϾհ³Ŷȹ˼ο&52
#NMQR.A0AI3D5FHMI^Qa^PSPghVjkVW`lod_q_d`bbydf{jj~mt^qvwuwzz~|ŵϼξհ³Ŷȹ˼ο&C9
#NMQR.A0AJ3D5FHMI^Qa^PSPghVjkVW`a]]rqravsbyulzzklosno^rvqrzyǺ˻Ͼհ³Ŷȹμο&FF
#NMQR.A0AK3D5FHMI^Qa^PSPgVWTUVWklb]\d^_vvbykikjkrot}p^xqrzv|zĹǻƾհ³Ŷɹͼο&05
#NMQR.A0BB3D5FHMI^Qa^PSPghUjkVWaY`\\cqg`dbywnjpkkprq^xqqrytuy|ŽǿϿýƾհ³Ŷʹμο&56
#NMQR.A0BC3D5FHMI^Qa^PSPggijkVWilbnmqcavabydkgzliqqpm^qz|zw~|}ŷȷǷпľհ³Ŷ̹Ҽο&17
#NMQR.A0BD3D5FHMI^Qa^PSPgSZTUVWXak`^sgt`vbyzhymjr{pln^qqqtux}óñϾհ³Ŷ˹ϼο&8C
#NMQR.A0BE3D5FHMI^Qa^PSPgg\jkVW]]^lqebdvubyfmlikmkoqt^qtz|xy|²Ǿҿհ³Ŷȹμο&57
#NMQR.A0BF3D5FHMI^Qa^PSPggfjkVWkYom\]q`vubykh|mknnk^vqvxx|źǽϻľհ³Ŷȹ˼ο&D5
#NMQR.A0BG3D5FHMI^Qa^PSPghSjkVWmlaapfsfvvbyigk{kk|q^qqv||ƶɽǸϺѾհ³Ŷɹμο&A9
#NMQR.A0BH3D5FHMI^Qa^PSPgSfTUVWYa[[rnfr`tbymynkjrn^qvuy~ǼϿξհ³Ŷȹͼο&1A
#NMQR.A0BI3D5FHMI^Qa^PSPgh\jkVWl]ndqbs_vjbykkxykinrn^oqwszzzõʻǼϻžհ³Ŷȹ̼ο&FC
#NMQR.A0BJ3D5FHMI^Qa^PSPgTUTUVWiaam_rbq`ebyvjolk|{mu^tqz{uy{{ǼǷýƾհ³Ŷɹмο&A6
#NMQR.A0BK3D5FHMI^Qa^PSPghijkVWi]]onorcvibydjzokjm}t^rqqwuyǹŶǻϺհ³Ŷȹ̼ο&E1
#NMQR.A0CB3D5FHMI^Qa^PSPgS[TUVW_ao^___r`ebyilxkkrk|mq^sqtu{uy||ȸǼϻѾհ³Ŷɹ̼ο&D0
#NMQR.A0CC3D5FHMI^Qa^PSPggijkVW^abcnq``vebyxnmgkolrms^rq{{{Ŷǹհ³Ŷ̹Ҽο&24
#NMQR.A0CD3D5FHMI^Qa^PSPgfUjkVWX]^q_bo_`ebylyzhkznq^psqu||uz~|ùǻϺƾհ³Ŷɹ˼ο&7A
#NMQR.A0CE3D5FHMI^Qa^PSPggijkVWnaa^qospvubyhgo|kz|qq^tqw{ǻϼƾհ³Ŷɹͼο&86
#NMQR.A0CF3D5FHMI^Qa^PSPghejkVWkYb_rrs_vwbyfnlzkkktt^ssqtx}}}}·´пƾհ³Ŷɹμο&17
#NMQR.A0CG3D5FHMI^Qa^PSPgeZjkVWXl\cr_ps`vbyxn|jj|mruv^uqtttuyz}}òĶǿϾμξհ³Ŷɹͼο&7E
#NMQR.A0CH3D5FHMI^Qa^PSPgYSjkVWkY^lq_dp`ubywkoikikrq^qrwuuy{³ƺĶǾüžհ³Ŷȹ̼ο&58
#NMQR.A0CI3D5FHMI^Qa^PSPgSiTUVW\Y`p\doavsbyklk{kjjmor^prqsw{{{úǼ̿Ͼհ³Ŷȹ̼ο&D4
#NMQR.A0CJ3D5FHMI^Qa^PSPgSZTUVWY]^\`^tr`vbymiipj{sn^utq|u|~|~ųĴǻǽλϾհ³Ŷɹ̼ο&9A
#NMQR.A0CK3D5FHMI^Qa^PSPgR[TUVW\abnabgbvrbyx{j}kjrn^oqrszǵǻϾžհ³ŶʹԼο&BB
#NMQR.A0DB3D5FHMI^Qa^PSPgT[TUVW^ak[\otr`abydh{ikjo^tqrwuw|ǿϼоհ³Ŷȹ˼ο&59
#NMQR.A0DC3D5FHMI^Qa^PSPghUjkVWYa`n^bdf`abyde|kj|q^pqvt|uwyz{ǳϿžհ³Ŷȹ˼ο&6A
#NMQR.A0GG3D5FHMI^Qa^PSPgRWTUVW]ampqpcu`cbykzwzijmkp^uqrxuw~~~ŸȹȹϼľհóŶȹмӿ&0D
#NMQR.A0GH3D5FHMI^Qa^PSPgSSTUVWmal_]cdr`cbywyhxii~~n^tqruw|ĸɸȺϼ¾հƳŶȹмӿ&2B

#NM^Z.BB1CCEF6H8JKN<NNT@QBSD&09
#\XOU.?0BKF4HM7H9PO<ROQaARC[UVG_YZKaMacPbbeffkWlqorno^qcqv|z{}}nqv{~&C5
#\XOU.@0CJ3GK6G8ON;QNP`@QBYZUF]^YJ`L_eOaadeejVllkktu]qbpu|x}~l~~osx{&D1
#\XOU.A0D2FM5F7NM:PMO_?PAYSTE]WXI_K_`N``cddiUkkhmkq\psqqaotvv~~z{loty|&A6
#\XOU.B0B2FF5F7NM:RMO_?PAV[TEZ_XI_K]^N``cddiUkjnrkn\nnvaovtyvwxz}}loty|&89
#\XOU.C0BK3GM6G8ON;QNP`@QBWTUF[XYJ`L_^OaadeejVlkopns]qrbpv|v|{zlosx{&A0
#\XOU.D0DB3FI6G8ON;SNP`@QBTVUFXZYJ`LaN``cddiUkjlkno\vuqaou||vy~|loty|&96
#\XOU.E0BI3EK6G8LL;UNNO@QBSDUF\HYJ\\_``eQgfjenkXolm]krqrysyw~gz}j||nsvxz&94
#\XOU.AF1CD4E6G8I:]MMN?PARCTEYGXI[[^__dPfefmhnWkor\jpxpsw{}yzgz{j{l}~qsuw|~&EB
#\XOU.BG1DCF5F7H9J;QMNO@QBSDUFZHYJ[L_aghjdSwewhXfmsmqvtpvxcuwfwhyz{|m~oqsxz}&48
#\XOU.CH1H3D5F7H9\LLM>O@QBSDXFWHZZ]^^cOedfceiVkhoo[norvxyv{dwxgxiz{|}nprty{~&41

#NM`a.@@BC3E5F7H9J;L=N?PQRSTUVWHYJ[L&52
#NLPT.@ID2DG5FGHL:OJR>ONQR\DWV[]IW[Z]cO`_bceUoepmZ&1F
#NLPT.AH1CF4EFGK9KMJN>ONRY\DWV[]IZY^cN_^aifTndomY&FF
#NLPT.B0BE3DEFJ8FOIL=NMPXXCU^]YHVZY__N_^bbeTndjpY&EB
#NLPT.@0BE3DEFJ8OHT<MLOQTBWY]ZGXW]bL]\`aiRdecngX&C4
#NLPT.@I1CF4EFGK9GLNKQ?POS[VEZW\_JX\[adPa`dekVpfrl[&54
#NLPT.B@1CF4EFGK9GMNKS?PORS]EWX\b[_L]\bcQbadihWkihrs]&B0
#NLPT.@G1D3&0A
#NLPT.@A1C3&03

#NMMN.@0>CKLI6JQRJ;MMOP@RRUVV[GY[J[LbN`edeegcghpYj[&4F
#KL_c.@0FGHMGJ7EMPOM=SP@VBTDUF_XY[K&7B
#KL_c.B0FGLHGM7EJRPT=SP@UBTDUF_XY[K&85
#KL_c.E0FGFIKI7KOP;QN>T@RBSD]VW[I&22
#KL_c.F0FGCFNJ7EMSRQ=SP@VBTDUF_XY]K&88
#KL_c.G0FFILLM7ELQTQ=SP@VBTDUF_XY]K&94
#KL_c.@A1GHGINN8FNOUR>TQAWCUEVG`YZ^L&B7
#KL_c.@G1GHIEOL8FNRO=SP@UBTDUF_XY[K&7F
#KL_c.@I1GHIKJO8FNLN=SP@UBTDUF_XY[K&7E
#KL_c.AC1GGHILP8FOMQ=SP@UBTDUF_XY]K&7F
#KL_c.AH1GIEGGG8FLRQ=SP@UBTDUF_XY[K&73
#KL_c.B@1GHHGMP8FNNTP>TQAWCUEVG`YZ^L&B4
#KL_c.BB1GHGFKO8FMTRN>TQASXZEVGXIb[\^N&16
#KL_c.@ID2HDIMJL9GMPVP?URBWDVFWHaZ[]M&E1
#KL_c.A@J2EFINM8FLROQ>TQAVCVEVG`YZ^L&B0
#KL_c.A@E2EGMMN8PLK<RO?TATCTE^WXZJ&4A
#KL_c.AAD2DMNHK8KJML=SP@UBUDUF_XY]K&75
#KL_c.A@B2EHFLO8FOPOU>TQAVCVEVG`YZ\L&AA
#KL_c.A@I2EIHGJ8FLKQP>TQAVCVEVG`YZ\L&9F
#KL_c.A@H2EDGJL8JMLT=SP@UBUDUF_XY]K&75
#KL_c.AAA2EFEMM8FMORV>TQAVCVEVG`YZ^L&A9
#KL_c.AAC2EHIGL8FKTUS>TQAVCVEVG`YZ\L&AB
#KL_c.A@F2EEGGH8FOPQ=SP@UBUDUF_XY]K&6C
#KLbg.?0CD3FM6HQL:N<ONW@SSUDV]GZY[K]M`_dQclThfWnYkl\onx`sssdwv|hj}|nrtwz&A3
#KLbg.@0C2EDG6IHL:&5E

#\Qpou/BI2DGNKJ8J:K<M>O@RW[U\F[Z^JacbNfdeRhjmmWmnqm\mpsatyfz|~k|puz&FC

#NM`].@@BC3E5K7JMSRQTQ?QSSVV\_^HZZ[L^fgaQchghhjijq[mnqvwyttt|ftzzk|m&11
#NP\U.G0BCFKLNIHPO;`SROPQBSDUFWHYJ]m_dpsQxyzhV}|llm]pvydxzz}{kryų˿ɹ˪ű̸տ&EA
#NP\U.H0BCFKLMMHJJ;`SSOPQBSDUFWHYJ`m_btqQfgTlni{|Zp}oau|xz}{hov}ƳԱ۸ѿ&29
#NP\U.@A1CDGLMOJIQP<aTTPQRCTEVGXIZKa^`eqtRyzz|Wy}r~oq^tqrezx}|lsz¸Ģʻȹѿٷо&D9
#NP\U.@F1CDGLMNNKJP<aTSQQRCTEVGXIZKc_`curRdwU|xiiks\tpouxcv~{~jqw~Ǵճɺ&2D
#NLXZ.F0AB3EMNH8MQO]NN?TfSSe[Fml^_[\Mo``ubkTl|ol}[uovxbuw|i}|}p&BA
#NLXZ.G0AB3EMNH8MRKaUT?TfRf][Fml\Z[\Mo``tstTyixkj{[rtrb{xwwyi|}~p&BE
#NLXZ.H0AB3EMNH8MSKQMT?TfR[Z[Fml\`[\Mo``tteTjip}k~[pvsbxywxi{|o&52
#NLXZ.@@1BC4FNOI9N\LU`V@UgSfUiGnm_d\]NpaavdwUhphrj\uvtscv|zjp&DD
#NLXZ.@A1BC4FNOI9N]TQca@UghU]]GnmZa\]NpaautjU{}{{|l\pc{yj}~q&5C
#NLXZ.@B1BC4FNOI9N^NcQ`@UgTjW[Gnm`l\]NpaaucfUwyk~n~\nssuwcz{xj}}~q&EC
$[AGT],GSET=1
$[AGT],rm,1,rt,1
$[AGT],fsm,wm,2
$[AGT],rv PMTKRQTEPH,1881,153323,2,4,32
$[AGT],GSET=1
$[AGT],rm,1,rt,7
$[AGT],fgFirstReq:0
$[AGT],bitmap,old: 308,new: 308
$[AGT],skip re_agps_req
$[AGT],GSET=1
$[AGT],rm,4,rt,9
$[AGT],inco
$[AGT],sel SI
$[AGT],rm,4
$[AGT],state:4
$[AGT],state:4
$[AGT],wkssi
$[AGT],s,1,m,3
$[AGT],idle
$[AGT],send aosp AGPS req
043453.219,HBD,IF1,BOT,MNLVer,AXN_3.70,1312,MNL_VER_15091601ALPS05_3.70_03,39,76
043454.207,HBD,IF1,TIM,DSP,u1ChnNum,37,u2DataSize,57
043454.207,HBD,IF1,COM,BinDecX,65065
043454.207,HBD,IF1,TIM,DSP,u1ChnNum,48,u2DataSize,57
043454.207,HBD,IF1,COM,BinDecX,65065
043454.211,HBD,IF1,GPS,TkDltIn,1011,1017,6
043454.211,HBD,IF1,TIM,NWloc,fgfirstUseNW,0,case,0,NWAID,0,NWUSE,0
043454.211,HBD,IF1,AGP,BOOST,Posdiff:172.266541,0.142080,num:0,PosConverge,0,BoostRemT,18.000

#MZYQ.C@1B3&17
$LOC_Cache_BIT,00000002*7D
043454.211,HBD,IF1,AGP,AGPSMGN,Posdiff:172.266541,0.142080,num:0,PosConverge,0,AGPSRemT,16.000

#MZYQ.AE1B3&1A

#XPda.B@BC3&44

#MZYQ.@B1TGI5H7]L]K<&EE

#MZYQ.AH1HG4&57
043454.211,HBD,IF1,AGP,AGPSMGN,AGPSMode:-1,AGPSTimer:0.000
$PMTK015,43454214,10,2011,AMode,-1,ATimer,0.000,Remain,16.000*6F
043454.215,HBD,IF1,AGP,AGPSMGN,DOP.H :1.156026,PosCon:0,[30.676300,27.050953,4.944502]
$PMTK015,43454214,6,2011,NACQ,6,NBS,6,NSFS,0,NEXS,0*61
$HBD,INF,RTC,F,0,Y,16,M,1,D,25,H,18,M,35,Sec,7,Sub,2727,T,2004,SM,10734*0C
$DBts1,TSOK,0,WNSet,1,TOWS,6,WN,1881,BAcc,26.085,TAcc,9999000.000,*5A
$DBts2,TTK,2011,TOW,153324.126000000,B,0.000721178,D,0.000001202,*0E
043454.215,HBD,IF1,ALO,CdmPvtU,
$HBD,INF,RTC,F,0,Y,16,M,1,D,25,H,18,M,35,Sec,7,Sub,2727,T,2004,SM,10734*0C
$GNGGA,183507.125,2458.5330,N,12119.6908,E,1,7,1.16,85.1,M,15.0,M,,*76
$GPGSA,A,3,193,28,03,01,19,30,11,,,,,,1.46,1.16,0.90*36
$GLGSA,A,3,,,,,,,,,,,,,1.46,1.16,0.90*12
$GPGSV,4,1,13,28,68,328,32.5,193,65,115,34.0,03,51,089,34.8,17,37,321,*58
$GPGSV,4,2,13,01,35,034,30.3,19,34,314,33.9,30,29,219,30.3,06,27,246,*62
$GPGSV,4,3,13,11,25,050,29.3,32,23,054,,07,13,190,,08,08,091,*6C
$GPGSV,4,4,13,23,02,135,*4F
$GLGSV,3,1,9,75,47,281,,85,39,344,,74,36,204,,70,35,123,*51
$GLGSV,3,2,9,69,25,058,,84,24,042,,86,16,290,,76,11,328,*5E
$GLGSV,3,3,9,71,10,169,*65
$GNRMC,183507.125,A,2458.5330,N,12119.6908,E,0.276,183.61,250116,,,A*42
$GNVTG,183.61,T,,M,0.276,N,0.511,K,A*28
$GNACCURACY,6.4*14
$PMTKDGP,0*4D
$PMTKDBG,2011,0,1,0,1,0,0,0,1,0,0,0,0,0,0,0,0,0,0,1,1,1,1,1,0,0,0,0,0,0,0,0,0,0028,0014,0002,0007,0007,0000,0001,0000,0.0000,1.2015,0.0000,0.0000,0.0000,0.0000,*4A
$PMTKDB2,0C16,0000,0000,0000,0000,0000,0000,0700,0040.90,0000.00,12015.16,9999000.32,0000.48,0721.18,00-0.02,0000.00,*7B
$PMTKEPH,41,1,3,6,7,8,9,11,16,17,19,22,23,26,27,28,30,-32.0.1,193,-65.2.4,-66.2.4,-67.2.4,-68.2.4,-69.2.4,-70.2.4,-71.2.4,-72.2.4,-73.2.4,-74.2.4,-75.2.4,-76.2.4,-77.2.4,-78.2.4,-79.2.4,-80.2.4,-82.2.4,-83.2.4,-84.2.4,-85.2.4,-86.2.4,-87.2.4,-88.2.4*6E
$PMTKALM,32,1,2,3,5,6,7,8,9,10,11,12,13,14,15,16,17,18,19,20,21,22,23,24,25,26,27,28,29,30,31,32,193*51

#WXM[.?0A2C4E6G8I:K<M>O@QBSDUFWHYJ[L]N_PaRcTeVgXiZk\m^o`qbsdufwhyj{l}npy&39
#NMQR.A0DD3E5FGLI^QRbPTPQYWTUVWal]b\p^_`abce{fghisnp^pqwstuvx|Ÿ³Ŷȹ˼ο&83
#NMQR.A0GI3D5FHMI^Qa^PSPgR\TUVW\]pd\dth`bbyumy|ii~tr^orqrwuwzz{ȺνհǳŶȹмӿ&1A
#NMQR.A0GJ3D5FHMI^Qa^PSPgRhTUVWjY^a]a_g`cbylygkii~rr^qrsvux||}³ȻοհȳŶȹмӿ&F3
#NMQR.A0GK3D5FHMI^Qa^PSPghYjkVWma[m\]rh`cbyxzl}ijp~ut^vqrwwuxy|~·ĶȺϾ¾հóŶɹмӿ&D7
#NMQR.A0HB3D5FHMI^Qa^PSPgRXTUVWmln[\nar`dbymh{lijpov^usqrwvux}ƻȺϻýþհƳŶȹмӿ&F6
#NMQR.A0HC3D5FHMI^Qa^PSPghhjkVWZl^]rsbc`cbyfk{|iiov^yqrswux|~ȻϼýþհǳŶȹмӿ&D7
#NMQR.A0HD3D5FHMI^Qa^PSPgRSTUVWiYa_rpsq`bbyywxoii~nlo^qruw}ǼȺýþհȳŶȹмӿ&4D
#NMQR.A0HE3D5FHMI^Qa^PSPgR\TUVWYY^m\`fb`gbymenohrlqnq^pqsu{{~÷ȽϿξհĳŶȹмӿ&A2
#NMQR.A0HF3D5FHMI^Qa^PSPgRZTUVWklma\]ts`fbydxmohopmt^qru{{~}÷ƶȿϽžհɳŶȹмӿ&62
#NMQR.A0HG3D5FHMI^Qa^PSPgRYTUVWnlp`\_sh`gbyiz|pho}r^rqqruwu|ȿϾľհ³Ŷȹмӿ&BB
#NMQR.A0HH3D5FHMI^Qa^PSPgReTUVWYa`d\a`u`hbywlzxhq|osp^uyqsvu|yǹȾȽžհóŶȹмӿ&46
#NMQR.A0HI3D5FHMI^Qa^PSPghgjkVWZYaa\^gf`gbyxzwmhpqsq^xyqrtwu|}|ĸǻȾƾհĳŶȹмӿ&9E
#NMQR.A0HJ3D5FHMI^Qa^PSPgTeTUVW[ln\^`gr`gbylwnnhonstr^uxqryu|zòùȿϽƾհɳŶȹмӿ&73
#NMQR.A0HK3D5FHMI^Qa^PSPgRYTUVWna\c\era`fbyykl}hoonqm^vqszu{y{}ðľհ³Ŷȹмӿ&D3
#NMQR.A0IB3D5FHMI^Qa^PSPgRdTUVWmlnn\`aa`gbyig{phq}o^qqsyu{{{óŹȾͿžհóŶȹмӿ&63
#NMQR.A0ID3D5FHMI^Qa^PSPgRiTUVWml^p\occvhbymvgkh|~pqu^qrx}~w}|ɻȹϻҽհųŶȹмӿ&84
#NMQR.A0IE3D5FHMI^Qa^PSPgh[jkVWZYmdqpdcvhbyvfynhzp~^tqryy~}{|ŶȺҿհųŶɹмӿ&D6
#NMQR.A0IF3D5FHMI^Qa^PSPghSjkVWa]kdq`ebvhbyiik{h{~nor^vqr{t~{ĶºƹȺҿհĳŶɹмӿ&6D
#NMQR.A0IG3D5FHMI^Qa^PSPgRhTUVW\l__\cecvhbymxhih}tnt^tyqrw~{{z´ŴȹοҽհƳŶȹмӿ&D9
#NMQR.A0IH3D5FHMI^Qa^PSPgReTUVWZan`]efavgbydxyzh{opv^wqs|}|}|ǷǷȺϿҾհųŶɹмӿ&28
#NMQR.A0II3D5FHMI^Qa^PSPgffjkVWXY^nrcstvgbyufwhh{|pu^pxqr}}zy{ĴȺ̿ҾհųŶɹмӿ&93
#NMQR.A0IJ3D5FHMI^Qa^PSPghgjkVW`lbnqrcrvhbymhjxh|l~u^uqrw~ĹȹϿҾհĳŶɹмӿ&64

#NM^Z.BB1DCEF6H8JKO<NNT@QBSD&0B
#\XOU.?0BKF4HM7H9PO<ROQcARCU[VWHZ`[\McOdaRddghhmYkpluuqqasvxxfty}~qty~&8D
#\XOU.@0CJ3GK6G8ON;RNPb@QBTYWVGY^\[LbNbcQccfggmXljquv^pprzcqv~}}|}mpty|&FB
#\XOU.A0D2FL5F7NM:PMOa?PASYZUFX^_ZKaMbePbbefflWjqslp]svbpuwx{||mpuz}&A3
#\XOU.B0B2FG5F7NM:QMO_?PASUTUFXZYZKaM_fPbbefflWjnnll]nsqbpwuz}||mpuz}&BE
#\XOU.C0BK3GL6G8ON;QNPb@QBTVYVGY[^[LbNbcQccfggmXkolos^xcqw}|~|z}|mpty{&93
#\XOU.D0DB3GG6G8ON;SNP`@QBTUWVGYZ\[LbNhPbbefflWjlqqq]opvbpv}~w{}~mpuz}&E5
#\XOU.E0BI3FL6G8MN;TNPQ@QBSDUF\H_J\\_``fQdgimiW}kpq\jqprsux|}fy|i~m~ruy|&F6
#\XOU.F0BC3GE6G8ON;SNP`@QBXZUF\^YJ`LeN``cddjUhiqpl[~`nt|yww}k~nsx{&CF
#\XOU.G0H2C4E6G8[KKL=N?PARCWEVGYY\]]cNbhhjfTy{x}Ygnnsnsqwrsdv~gxiz{|}nprty{~&78
#\XOU.H0I2C4E6G8[KKL=N?PARCWEVGYY\]]cNbedhjTnyykYgmpuuoyrtsdv{gxiz{|}nprty{~&5F
#\XOU.@@1DF4E6G8I:]MMN?PARCTEYGXI[[^__ePddljfVxzor[iprspwvstewyhyj{|}~oqsuz|&72
#\XOU.@E1DCL5M7H9KS<VOQRARCTEVG]I[Kcde_gQdhekgWi~~t\joqtz{v||xgi{|nsuxz&35
#\XOU.@F1DCL5F7H9J;UNNO@QBSDUFZHYJbcd^fPcgfdnVlyn|[inqsuuwwt}fhyj{|}~oqsuz|&C7
#\XOU.@G1DCH5F7H9J;UNNO@QBSDUFZHYJbcd^fPcekkiVjyk[ptowuztsd~fwhyz{|m~oqsxz}&6D
#\XOU.@H1DCM5F7H9J;UNNO@QBSDUFZHYJbcd^fPcdglgVikql[inuxqxwwvyfhyj{|}~oqsuz|&B1
#\XOU.@I1DDD5F7H9J;UNNO@QBSDUFZHYJbcd^fPcdckfV|pnp[iopvsuvv|yfhyj{|}~oqsuz|&BA
#\XOU.A@1DCI5F7H9J;UNNO@QBSDUFZHYJbcd^fPccedlV{klj[iptrwsv{tegxiz{|}nprty{~&74
#\XOU.AA1DCK5F7H9J;UNNO@QBSDUFZHYJbcd^fPcbehgVmyn[tsqvvuv{d~fwhyz{|m~oqsxz}&6C
#\XOU.AB1DDG5F7H9J;UNNO@QBSDUFZHYJbcd^fPbklffVxjz[mpprxsyutegxiz{|}nprty{~&9C
#\XOU.AD1DDF5GO8I:NN=`PPQBSDUFWH^J[Ldef`hRehijnX}roq]kprrwx|{~hzkotvxz&0F
#\XOU.AE1DDF5F7H9J;UNNO@QBSDUFZHYJbcd^fPcfgefVl~kp[inqoxq{{y{fx}izk|}~prtv{}&E4
#\XOU.AF1EE4E6G8I:]MMN?PARCTEYGXI[[^__ePecdhiVojik[iosxuyzs}{fyxizk|}~prtv{}&9A
#\XOU.BG1DCE5F7H9J;UNNO@QBSDUFZHYJbcd^fPcelefVki~n[iptqytzvz}fxizk|}~prtv{}&EE
#\XOU.CH1H3D5F7H9RPLM>O@QBSD[FWHZZ]^^dObcblmUhkiZnmssrxyzcvwfwhyz{|moqsxz}&24

#NM`a.A@BC3E5F7H9J;L=N?PQRSTUVWHYJ[L&53
#NLPT.@ID2DG5FGHL:HNVWVYQPWDUTY_\J\\d^O]b`hhUfehkq[pkvq`&61
#NLPT.AH1CF4EFGK9GMUVUWTORCUSV`ZI[[c]N\a_ikTediqkZojuq_&38
#NLPT.B0BE3DEFJ8FLTUUNONXBSR\[XHZZb\M[`^ijSdcjjiYnitn^&F8
#NLPT.@0BE3DEFJ8FLTUTVWNRBSRVW_HZ[^]M[a^ciSecinlYoiqu^&00
#NLPT.@I1CF4EFGK9GMUVVOVOZCTS\[]I[[c^N\a_idTedhoiZojuq_&33
#NLPT.B@1CF4EFGK9GMUVVPUOXCTSVZ[I[a\fN\b_fiTfdiqlZqjsq_&32
#NLPT.@G1D3&0A
#NLPT.@A1CF4EFGK9GMUVUXROXCTSVX[I\`daN\a_jkTedhpoZlmkuv`&6C
#NLPT.F0B2&D8
#NLPT.G0B2&D9
#NLPT.AC1C3&06
#NLPT.A@I2E4&3C
#NLPT.A@I2F4&3D
#NLPT.A@E2D4&37
#NLPT.A@J2D4&3C
#NLPT.AAA2D4&34
#NLPT.A@F2D4&38
#NLPT.A@H2D4&3A
#NLPT.AAD2D4&37
#NLPT.AAC2E4&37
#NLPT.AAC2F4&38
#NLPT.BB1C3&06

#NMMN.@0>CKMG6JQPR;NMOP@RRUVV\GY[J[LcN`edeehcginYj[&57
#KL_c.@0FDCDM6DLONT<PT?TASCTE^WXZJ&46
#KL_c.B0FGHEH6DIQPQ<PT?TASCTE^WXZJ&4A
#KL_c.E0EKIIE6JMP:NR=R?QARC\UVZH&F1
#KL_c.F0EHFKL6DLRRN<PT?TASCTE^WX\J&5B
#KL_c.G0EDLJF6DKQJN<PT?TASCTE^WX\J&4D
#KL_c.@A1FLILF7EMOKO=QU@UBTDUF_XY]K&78
#KL_c.@G1GDEMH7EMRK<PT?TASCTE^WXZJ&44
#KL_c.@I1GDKHJ7EMKT<PT?TASCTE^WXZJ&4B
#KL_c.AC1FCIJK7ENMO<PT?TASCTE^WX\J&45
#KL_c.AH1GJFNM7EKRM<PT?TASCTE^WXZJ&53
#KL_c.B@1GCGKI7EMMTM=QU@UBTDUF_XY]K&76
#KL_c.BB1FLFIF7ELSQU=QU@UXCVEVG`YZ^L&BB
#KL_c.@ID2KEN6DJMST<PT?TASCTE^WXZJ&56
#KL_c.A@J2EJGMK8FLRPP>RVAVCVEVG`YZ^L&B2
#KL_c.A@E2EKKLN8PKM<PT?TATCTE^WXZJ&4F
#KL_c.AAD2EGLGK8KJLM=QU@UBUDUF_XY]K&70
#KL_c.A@B2EKNKM8FOPPT>RVAVCVEVG`YZ\L&B5
#KL_c.A@I2EMFFI8FLKRO>RVAVCVEVG`YZ\L&A2
#KL_c.A@H2EHEIL8JMKU=QU@UBUDUF_XY]K&79
#KL_c.AAA2EIMLL8FMOSS>RVAVCVEVG`YZ^L&B3
#KL_c.AAC2ELGFK8FLKLQ>RVAVCVEVG`YZ\L&9B
#KL_c.A@F2EIEFH8FOQO=QU@UBUDUF_XY]K&6F
#KLbg.?0CD3FM6HQL:N<ONW@SSUDV]GZY[K]M`_dQclThfWnYkl\onx`sssdxxgzykmquwz&A3
#KLbg.@0C2EDG6IHL:&5E

#\Qpou/EIH3EGMGJ9LOL=QO@ZBTV]FX\bc_L^begQdlleVippk[rmvv`wr||evyjoty~&ED
#NP\U.@G1CDGLMOJIQP<aTTPQRCTEVGXIZK]r`eqtRyz{oW}n~t}q^p{wteyw|{{lszǽºĵϼ&94
#NP\U.@I1CDGLMOJIQP<aTTPQRCTEVGXIZKbf`eqtRyz{|Wz{mu^uy{vweyx|lszǣү׶ͽ&0B
#NP\U.AB1CDGLMNNNOK<aTSPQRCTEVGXIZK^q`curRyzyhWknnlq^qqwyvey~l~syšʸ½ӯٶͽ&AA
#NP\U.AC1CDGLMOJIQP<aTSPQRCTEVGXIZK^f`eqtRyzz|W}{qntm^qyteylszɹ°˷Ӿ&9A
#NLXZ.@C1BC4FNOI9N_NSQV@UgTWXXGnm^_\]NpaavcdUkooop|\rnrxvcuujq&F4
#NLXZ.@D1BC4FNOI9N`PQNP@UgSiYgGnm]p\]NpaavgdUkm~|l~\nxuvcy~}zjo&B3
#NLXZ.@E1BC4FNOI9NaPNbc@Ugi\^_Gnm\\\]NpaavvhUkhqq||\nqtxwcw|~j}~q&0E
#NLXZ.@F1BC4FNOI9OKPRRX@UgTj\_Gnm`d\]NpaavgiUwzhjk\upb{y}i|}p&CA
#NLXZ.@G1BC4FNOI9OLQVae@UgTYWgGnm]n\]NpaaulyUzlzo{n\nrqcyx|yj}~q&04
#NLXZ.@H1BC4FNOI9OMTTWQ@UgiX]lGnm]p\]NpaauwgUhohp|\osxc}}|~j~}~q&05
$[AGT],GSET=1
$[AGT],rm,1,rt,7
$[AGT],fgFirstReq:0
$[AGT],bitmap,old: 308,new: 108
$[AGT],fsm,wm,3
$[AGT],skip
043455.207,HBD,IF1,TIM,DSP,u1ChnNum,37,u2DataSize,57
043455.207,HBD,IF1,COM,BinDecX,65065
043455.207,HBD,IF1,GPS,TkDltIn,2011,2020,9
$QEPO_Request*05
$[AGT],GSET=2
$[AGT],rm,1,rt,10
$[AGT],set Qepo req
$[AGT],TSETe=2
$[AGT],inco
$[AGT],rm,0
$[AGT],remd == 0
043455.207,HBD,IF1,TIM,NWloc,fgfirstUseNW,0,case,0,NWAID,0,NWUSE,0
043455.207,HBD,IF1,AGP,BOOST,Posdiff:1.415079,0.030672,num:7,PosConverge,1,BoostRemT,17.000
$Boost, flag on*64
$LOC_Cache_BIT,00000002*7D
043455.207,HBD,IF1,AGP,AGPSMGN,Posdiff:1.415079,0.030672,num:0,PosConverge,0,AGPSRemT,16.000

#XPda.C@BC3&45

#MZYQ.@B1XEV5H7]M`_<&15

#MZYQ.AH1HG4&57
043455.207,HBD,IF1,AGP,AGPSMGN,AGPSMode:-1,AGPSTimer:0.000
$PMTK015,43455210,10,3021,AMode,-1,ATimer,0.000,Remain,16.000*68
043455.207,HBD,IF1,AGP,AGPSMGN,DOP.H :1.046133,PosCon:0,[21.719048,19.490828,4.528745]
$PMTK015,43455210,6,3021,NACQ,7,NBS,7,NSFS,0,NEXS,0*66
$HBD,INF,RTC,F,0,Y,16,M,1,D,25,H,18,M,35,Sec,8,Sub,2653,T,3002,SM,6707*31
$DBts1,TSOK,0,WNSet,1,TOWS,6,WN,1881,BAcc,18.782,TAcc,9999000.000,*57
$DBts2,TTK,3011,TOW,153325.127000000,B,-0.000277613,D,0.000001208,*24
043455.207,HBD,IF1,ALO,CdmPvtU,
$HBD,INF,RTC,F,0,Y,16,M,1,D,25,H,18,M,35,Sec,8,Sub,2653,T,3002,SM,6707*31
$GNGGA,183508.127,2458.5334,N,12119.6913,E,1,8,1.05,85.1,M,15.0,M,,*78
$GPGSA,A,3,193,28,03,01,19,30,17,11,,,,,1.38,1.05,0.90*3B
$GLGSA,A,3,,,,,,,,,,,,,1.38,1.05,0.90*19
$GPGSV,4,1,13,28,68,328,32.6,193,65,115,34.0,03,51,089,33.8,17,37,321,22.2*40
$GPGSV,4,2,13,01,35,034,28.4,19,34,314,33.9,30,29,219,27.8,06,27,246,*61
$GPGSV,4,3,13,11,25,050,27.1,32,23,054,,07,13,190,,08,08,091,*60
$GPGSV,4,4,13,23,02,135,*4F
$GLGSV,3,1,9,75,47,281,,85,39,344,,74,36,204,,70,35,123,*51
$GLGSV,3,2,9,69,25,058,,84,24,042,,86,16,290,,76,11,328,*5E
$GLGSV,3,3,9,71,10,169,*65
$GNRMC,183508.127,A,2458.5334,N,12119.6913,E,0.060,38.79,250116,,,A*7C
$GNVTG,38.79,T,,M,0.060,N,0.110,K,A*10
$GNACCURACY,5.4*17
$PMTKDGP,0*4D
$PMTKDBG,3011,0,1,0,1,0,0,0,1,0,0,0,0,0,0,0,0,0,0,1,1,1,1,1,0,0,0,0,0,0,0,0,1,0028,0035,0002,0008,0008,0000,0001,0000,0.0000,1.2081,0.0000,0.0000,0.0000,0.0000,*44
$PMTKDB2,0C16,0000,0000,0000,0000,0000,0000,0700,0029.18,0000.00,12081.98,9999000.32,0000.18,-277.61,00-0.02,0000.00,*6F
$PMTKEPH,41,1,3,6,7,8,9,11,16,17,19,22,23,26,27,28,30,-32.0.1,193,-65.2.4,-66.2.4,-67.2.4,-68.2.4,-69.2.4,-70.2.4,-71.2.4,-72.2.4,-73.2.4,-74.2.4,-75.2.4,-76.2.4,-77.2.4,-78.2.4,-79.2.4,-80.2.4,-82.2.4,-83.2.4,-84.2.4,-85.2.4,-86.2.4,-87.2.4,-88.2.4*6E
$PMTKALM,32,1,2,3,5,6,7,8,9,10,11,12,13,14,15,16,17,18,19,20,21,22,23,24,25,26,27,28,29,30,31,32,193*51

#WXM[.?0A2C4E6G8I:K<M>O@QBSDUFWHYJ[L]N_PaRcTeVgXiZk\m^o`qbsdufwhyj{l}npy&39

#NM^Z.BB1ECEF6H8JKO<NNT@QBSD&0C
#\XOU.?0BKF4HM7H9PO<ROQcARCVZVWH[_[\McOdeRddghhnYstsoox`xtxxesx~}psx}&CC
#\XOU.@0CJ3GK6G8ON;QNPb@QBUX]VGZ]b[LbNchQccfggmXjjposww`x|esx{orv{}&1F
#\XOU.A0D2FK5F7NM:PMOa?PATYVUFY^[ZKaMbgPbbefflWiiolunq_xtdrwy{y|~orw|&72
#\XOU.B0B2FF5F7NM:PMOa?PAS\TUFXaYZKaMaaPbbefflWiinspmu_pzdryw}~~}}orx}&2A
#\XOU.C0BK3GL6G8ON;QNPb@QBUU[VGZZ`[LbNcfQccfggmXjjotnqu`u{uesy{orw|&D8
#\XOU.D0DB3GF6G8OM;QNP`@QBT\YVGYa^[LbN`iQccfggmXjjorttq`tsvzesy{~psy~&33
#\XOU.E0BI3FJ6G8ON;UNP`@QBW\UF[`YJ`L`N``cddjUgglposo]vwwbpwv}x~loty|&86
#\XOU.F0BC3GE6G8ON;RNP`@QBTV[VGY[`[LbNa`QccfggmXjjoqvtx`vzesy~psx}&35
#\XOU.G0H2C4E6G8[KKL=N?PARCWEVGYY\]]cN``gcjleVxk{{[ippupusytufxizk|}~prtv{}&BA
#\XOU.H0I2EJ5F7JM:RMOP?PARCTE[G[I[[^__ePbbhlhlmXoo~]kquruxtxxhzk}~pux|~&59
#\XOU.@@1DF4E6G8I:]MMN?PARCTEYGXI[[^__ePbbhinlhXnnl}]krturyxuvgy{j{l}~qsuw|~&C2
#\XOU.@A1H3D5F7H9\LLM>O@QBSDXFWHZZ]^^dOaaiejifWkrrs\oqrywuxvexhyj{|}~oqsuz|&75
#\XOU.@E1DCL5F7H9J;UNNO@QBSDUFZHYJbcd^gPckcmmVlp}l[inqtqtwuwwfx{i{~nsuwy~&AB
#\XOU.@F1DCH5F7H9J;UNNO@QBSDUFZHYJbcd^gPciijiVjq}n[pstuqwuudvvgxiz{|}nprty{~&8C
#\XOU.@G1DCM5F7H9J;UNNO@QBSDUFZHYJbcd^gPchekeViiz}[inuxwwwux}fxyizk|}~prtv{}&FA
#\XOU.@H1DDD5F7H9J;UNNO@QBSDUFZHYJbcd^gPcgkjeV|nn~[iopvxqutw{fxyizk|}~prtv{}&F3
#\XOU.@I1DCI5F7H9J;UNNO@QBSDUFZHYJbcd^gPcflmlV{jm[iptwywyy|ewzhyj{|}~oqsuz|&E4
#\XOU.A@1DCK5F7H9J;UNNO@QBSDUFZHYJbcd^gPcfcggVmykr[truwvwtwdvwgxiz{|}nprty{~&86
#\XOU.AA1DDG5F7H9J;UNNO@QBSDUFZHYJbcd^gPcejefVxj|r[mpovysz|zewwhyj{|}~oqsuz|&C3
#\XOU.AB1DCE5F7H9J;UNNO@QBSDUFZHYJbcd^gPcilifVj|j[iptruszt}wfxyi{}|nsuwy~&99
#\XOU.AD1DDF5GK8I:NN=`PPQBSDUFWH^J[Ldef`iRehijnXll]kprsvv{u}yhzk~puwy{&16
#\XOU.AE1DCG5GO8I:Q<TNQRARCTEVG]I\K\M`f`dikTjyzzYgqrtsqpttcuzfy{j{|}oqtv{}&3C
#\XOU.AF1DCF5F7H9J;QMNO@QBSDUFZHYJ[L^bdfdRywkzWejoksvvrswbttevgxyz{l}nprwy|~&27
#\XOU.BG1EE4E6G8I:]MMN?PARCTEYGXI[[^__ePbbjelhmXqj}l]kqvqstvx~{h{k|m~rtvx}&04
#\XOU.CH1B3D5F7H9JKLM>O@QBSDUFWHYJ[L]^_`QbSdUfWhijk\m^o`qbstuvgxizk|m~oq&36

#NM`a.B@BC3E5F7H9J;L=N?PQRSTUVWHYJ[L&54
#NLPT.@ID2DG5FGHL:OJR>ONSV[D[X]HV\Yd]Nb^fbeTfdojY&FB
#NLPT.AH1CF4EFGK9SIP=NMVTXCZW\GU[X\eM^]dicSecnhX&D1
#NLPT.B0BE3DEFJ8FKKJR>ONXYYD[X]HV\Y\^N_^ciiTfdoiY&EE
#NLPT.@0BE3DEFJ8MHS<MLPURBTZU_GU[X`aM^]faiSjcgnX&C5
#NLPT.@I1CF4EFGK9GSJP>ONX[TD[X^HV\Y_`Na^afiTfdoiY&FA
#NLPT.B@1CF4EFGK9GTJS>ONRYUDV]WaIW]ZcfO`_jjlUmeknZ&3A
#NLPT.@G1CF4EFGK9GPQKW?POSSUEX`]b[_LZ^]gbRcbfojXloiss^&FC
#NLPT.@A1CF4EFGK9GOJO>ONQSUDV\WaIW\ZcgO`_bcgUlelpZ&16
#NLPT.F0B2&D8
#NLPT.G0C2&DA
#NLPT.AC1C3&06
#NLPT.E0B2&D7
#NLPT.A@I2D4&3B
#NLPT.A@E2D4&37
#NLPT.A@J2D4&3C
#NLPT.AAA2D4&34
#NLPT.A@F2D4&38
#NLPT.A@H2D4&3A
#NLPT.AAD2D4&37
#NLPT.A@B2D4&34
#NLPT.AAC2E4&37

#NMMN.@0>CLDH6JQOP;OMOP@RRUVV\GY[J[LcN`edeeicgioYj[&50
#KL_c.@0BBJKEKG8FNQQU>QWAVCUEVG`YZ\L&AB
#KL_c.B0BBKDJKN8FKSSS>QWAVCUEVG`YZ\L&B2
#KL_c.E0BBJHKOM8LNR<OU?TASCTE^WX\J&59
#KL_c.F0BBJEIHG8FNTUQ>QWAVCUEVG`YZ^L&B1
#KL_c.G0BBILEFL8FMSMQ>QWAVCUEVG`YZ^L&AD
#KL_c.@A1CCKILHK9GOQNP?RXBWDVFWHaZ[_M&D5
#KL_c.@G1CCKKHIO9GOTV>QWAVCUEVG`YZ\L&B5
#KL_c.@I1CCKKMOH9GONU>QWAVCUEVG`YZ\L&B4
#KL_c.AC1CCJJLGI9GPPR>QWAVCUEVG`YZ^L&A7
#KL_c.AH1CCLGIKJ9GMUO>QWAVCUEVG`YZ\L&AA
#KL_c.B@1CCKJJGN9GOPMP?RXBWDVFWHaZ[_M&D5
#KL_c.BB1CCKIHOK9GNUTV?RXBWZEXGXIb[\`N&21
#KL_c.@ID2DDGKONL:HNRNW@SYCXEWGXIb[\^N&14
#KL_c.A@J2EKGOL8FLRQP>QWAVCVEVG`YZ^L&B7
#KL_c.A@E2ELKNP8PJL<OU?TATCTE^WXZJ&52
#KL_c.AAD2EHLIN8KJKL=PV@UBUDUF_XY]K&74
#KL_c.A@B2ELNMM8FOPQU>QWAVCVEVG`YZ\L&BA
#KL_c.A@I2FDFHJ8FLKSO>QWAVCVEVG`YZ\L&9E
#KL_c.A@H2EIEKN8JLTU=PV@UBUDUF_XY]K&86
#KL_c.AAA2EJMNM8FMOTS>QWAVCVEVG`YZ^L&B8
#KL_c.AAC2EMGHL8FLKMP>QWAVCVEVG`YZ\L&9F
#KL_c.A@F2EJEHI8FORO=PV@UBUDUF_XY]K&74
#KLbg.?0CD3FM6HQL:N<ONW@SSUDV]GZY[K]M`_dQclThfWnYkl\onx`sssdxxgzykmquwz&A3
#KLbg.@0C2EDG6IHL:&5E

#\Qpou/C1CGHEN7H9J;L=N?QV[WTEW`^I[]^M_bhQgellVlirp[lou`ryey{}j{~~oty&B3
#NP\U.AF1CDGLMNHIRN<aTSPQRCTEVGXIZKc_aahQxykeV|jm}p]uppv{cwuw}jqw~ɿůɶս&8C
#NP\U.AG1CDGLMNNNOK<aTSPQRCTEVGXIZK^_`curRdzUmm}mj[norqbvvvy~i{{pw~ɶû˴ͻ&0A
#NP\U.AH1CDGLMOJILM<aTTPQRCWj]jiYJlca^cdQxjixkpXzp~~w_qztyfxi~|~pw~Ÿ̪ӱηվ&DA
#NP\U.B@1CDGLMOJILM<aTTPQRCWj]jiYJlca^cdQxjixkpXzp~~mu_rutyfyi}ov}źɥ¼ѱ͸ҿ&8A
#NLXZ.@I1BC4FNOI9ONQ`RU@UgTWY^Gnm]l\]NpabkdxUznzorq\nwpc|{j}~q&00
#NLXZ.A@1BC4FNOI9OONUVX@UgiY[[Gnm]q\]NpaavdfUhl}rq}\psvcwwyj~}~q&C6
#NLXZ.AA1BC4FNOI9OP^`_S@UgifgjGnm]d\]NpaavchU|{qlpo\sqttcvzjq&71
#NLXZ.AB1BC4FNOI9OQObOR@UgiWW^Gnm]l\]NpabjhkUhoh\~vrc{y{{{j~q&0F
#NLXZ.AC1BC4FNOI9ORQRVV@UgSV]XGnm\p\]NpaavidUkj}irn\vsvvzrcv|jq&F9
#NLXZ.AD1BC4FNOI9OSNOQX@UgSYfVGnm^a\]NpaautwUm{yks\qpwrbtuz}}i|}p&8E
$[AGT],GSET=2
$[AGT],rm,1,rt,7
$[AGT],fgFirstReq:0
$[AGT],bitmap,old: 108,new: 108
$[AGT],inco
$[AGT],srm,1,dsm,4,tp,7,length,12
$[AGT],tp,264,wn,1881,tw,153325,si,12
$[AGT],rm,2
$[AGT],state:7
$[AGT],wn:1881, tw:153325
$[AGT],ergt
$[AGT],
$[AGT],Esgt 1137715200
$[AGT],epegt
$[AGT],gfisiz()
$[AGT],egtEf,1140307200
$Rdon
$[AGT],res,1137782125,sst,1137715200,egsn,1140307200
$[AGT],wk,epo
$[AGT],s,1,m,1
$[AGT],idle
$@#$^ [AGNT] pEd
$[AGT],opmode GLO(1),GEL(0),DB(0)
$[AGT],tw,153325,gs,1137782125
$[AGT],eextd
$[AGT]start verify
$[AGT],gfisiz()
$[AGT]FileType:GPS+GLO
$[AGT],
$[AGT],epegt
$[AGT],gfisiz()
$[AGT],Extract epo done
043455.211,HBD,IF1,MSG,AidEPO,$[AGT],GSET=2
$[AGT],rm,4,rt,8
$[AGT],inco
$[AGT],srm,4,dsm,4,tp,8,length,12
SV,1,path_2NG,ValidEPO,0,u4CurrGpsSecs,1137782125,u4GpsSecs,1137780000,seq,45,NAseq,45,Age_Epo,15,Naage,15,NaValidGEPO,1
$[AGT],tp,264,wn,1881,tw,153325,si,12
$[AGT],rm,3
$[AGT],state:6
$[AGT],wn:1881,tw:153325
043455.211,HBD,IF1,MSG,AidEPO,SV,2,path_2NG,ValidEPO,0,u4CurrGpsSecs,1137782125,u4GpsSecs,1137780000,seq,45,NAseq,45,Age_Epo,15,Naage,15,NaValidGEPO,1
$[AGT],BGAI
$[AGT],0,av:72,b_sky:0
$[AGT],1,av:82,b_sky:0
$[AGT],2,av:118,b_sky:0
$[AGT],3,av:0,b_sky:1
$[AGT],4,av:82,b_sky:0
$[AGT],5,av:74,b_sky:0
$[AGT],6,av:72,b_sky:0
$[AGT],7,av:72,b_sky:0
$[AGT],8,av:70,b_sky:0
$[AGT],9,av:66,b_sky:0
$[AGT],10,av:72,b_sky:0
$[AGT],11,av:114,b_sky:0
$[AGT],12,av:0,b_sky:0
$[AGT],13,av:66,b_sky:0
$[AGT],14,av:112,b_sky:0
$[AGT],15,av:70,b_sky:0
$[AGT],16,av:72,b_sky:0
$[AGT],17,av:64,b_sky:0
$[AGT],18,av:74,b_sky:0
$[AGT],19,av:82,b_sky:0
$[AGT],20,av:68,b_sky:0
$[AGT],21,av:72,b_sky:0
$[AGT],22,av:120,b_sky:0
$[AGT],23,av:62,b_sky:0
$[AGT],24,av:66,b_sky:0
$[AGT],25,av:70,b_sky:0
$[AGT],26,av:70,b_sky:0
$[AGT],27,av:74,b_sky:0
$[AGT],28,av:116,b_sky:0
$[AGT],29,av:74,b_sky:0
$[AGT],30,av:68,b_sky:0
$[AGT],31,av:116,b_sky:0
$[AGT],Eend:1, Send:1, ct:0
$[AGT],state:4
$[AGT],wkssi
$[AGT],s,1,m,3
$[AGT],idle
$[AGT],clear epo req
043455.215,HBD,IF1,MSG,AidEPO,SV,3,path_2NG,ValidEPO,0,u4CurrGpsSecs,1137782125,u4GpsSecs,1137780000,seq,45,NAseq,45,Age_Epo,15,Naage,15,NaValidGEPO,1
043455.215,HBD,IF1,MSG,AidEPO,SV,4,path_2NG,ValidEPO,1,u4CurrGpsSecs,1137782125,u4GpsSecs,1137780000,seq,45,NAseq,0,Age_Epo,15,Naage,0,NaValidGEPO,0
043455.215,HBD,IF1,MSG,AidEPO,SV,5,path_2NG,ValidEPO,0,u4CurrGpsSecs,1137782125,u4GpsSecs,1137780000,seq,45,NAseq,45,Age_Epo,15,Naage,15,NaValidGEPO,1
043455.215,HBD,IF1,MSG,AidEPO,SV,6,path_2NG,ValidEPO,0,u4CurrGpsSecs,1137782125,u4GpsSecs,1137780000,seq,45,NAseq,45,Age_Epo,15,Naage,15,NaValidGEPO,1
043455.215,HBD,IF1,MSG,AidEPO,SV,7,path_2NG,ValidEPO,0,u4CurrGpsSecs,1137782125,u4GpsSecs,1137780000,seq,45,NAseq,45,Age_Epo,15,Naage,15,NaValidGEPO,1
043455.215,HBD,IF1,MSG,AidEPO,SV,8,path_2NG,ValidEPO,0,u4CurrGpsSecs,1137782125,u4GpsSecs,1137780000,seq,45,NAseq,45,Age_Epo,15,Naage,15,NaValidGEPO,1
043455.215,HBD,IF1,MSG,AidEPO,SV,9,path_2NG,ValidEPO,0,u4CurrGpsSecs,1137782125,u4GpsSecs,1137780000,seq,45,NAseq,45,Age_Epo,15,Naage,15,NaValidGEPO,1
043455.215,HBD,IF1,MSG,AidEPO,SV,10,path_2NG,ValidEPO,0,u4CurrGpsSecs,1137782125,u4GpsSecs,1137780000,seq,45,NAseq,45,Age_Epo,15,Naage,15,NaValidGEPO,1
043455.215,HBD,IF1,MSG,AidEPO,SV,11,path_2NG,ValidEPO,0,u4CurrGpsSecs,1137782125,u4GpsSecs,1137780000,seq,45,NAseq,45,Age_Epo,15,Naage,15,NaValidGEPO,1
043455.215,HBD,IF1,MSG,AidEPO,SV,12,path_2NG,ValidEPO,0,u4CurrGpsSecs,1137782125,u4GpsSecs,1137780000,seq,45,NAseq,45,Age_Epo,15,Naage,15,NaValidGEPO,1
043455.215,HBD,IF1,MSG,AidEPO,SV,13,path_2NG,ValidEPO,0,u4CurrGpsSecs,1137782125,u4GpsSecs,1137780000,seq,45,NAseq,45,Age_Epo,15,Naage,15,NaValidGEPO,1
043455.215,HBD,IF1,MSG,AidEPO,SV,14,path_2NG,ValidEPO,0,u4CurrGpsSecs,1137782125,u4GpsSecs,1137780000,seq,45,NAseq,45,Age_Epo,15,Naage,15,NaValidGEPO,1
043455.215,HBD,IF1,MSG,AidEPO,SV,15,path_2NG,ValidEPO,0,u4CurrGpsSecs,1137782125,u4GpsSecs,1137780000,seq,45,NAseq,45,Age_Epo,15,Naage,15,NaValidGEPO,1
043455.215,HBD,IF1,MSG,AidEPO,SV,16,path_2NG,ValidEPO,0,u4CurrGpsSecs,1137782125,u4GpsSecs,1137780000,seq,45,NAseq,45,Age_Epo,15,Naage,15,NaValidGEPO,1
043455.215,HBD,IF1,MSG,AidEPO,SV,17,path_2NG,ValidEPO,0,u4CurrGpsSecs,1137782125,u4GpsSecs,1137780000,seq,45,NAseq,45,Age_Epo,15,Naage,15,NaValidGEPO,1
043455.215,HBD,IF1,MSG,AidEPO,SV,18,path_2NG,ValidEPO,0,u4CurrGpsSecs,1137782125,u4GpsSecs,1137780000,seq,45,NAseq,45,Age_Epo,15,Naage,15,NaValidGEPO,1
043455.215,HBD,IF1,MSG,AidEPO,SV,19,path_2NG,ValidEPO,0,u4CurrGpsSecs,1137782125,u4GpsSecs,1137780000,seq,45,NAseq,45,Age_Epo,15,Naage,15,NaValidGEPO,1
043455.215,HBD,IF1,MSG,AidEPO,SV,20,path_2NG,ValidEPO,0,u4CurrGpsSecs,1137782125,u4GpsSecs,1137780000,seq,45,NAseq,45,Age_Epo,15,Naage,15,NaValidGEPO,1
043455.215,HBD,IF1,MSG,AidEPO,SV,21,path_2NG,ValidEPO,0,u4CurrGpsSecs,1137782125,u4GpsSecs,1137780000,seq,45,NAseq,45,Age_Epo,15,Naage,15,NaValidGEPO,1
043455.215,HBD,IF1,MSG,AidEPO,SV,22,path_2NG,ValidEPO,0,u4CurrGpsSecs,1137782125,u4GpsSecs,1137780000,seq,45,NAseq,45,Age_Epo,15,Naage,15,NaValidGEPO,1
043455.215,HBD,IF1,MSG,AidEPO,SV,23,path_2NG,ValidEPO,0,u4CurrGpsSecs,1137782125,u4GpsSecs,1137780000,seq,45,NAseq,45,Age_Epo,15,Naage,15,NaValidGEPO,1
043455.215,HBD,IF1,MSG,AidEPO,SV,24,path_2NG,ValidEPO,0,u4CurrGpsSecs,1137782125,u4GpsSecs,1137780000,seq,45,NAseq,45,Age_Epo,15,Naage,15,NaValidGEPO,1
043455.215,HBD,IF1,MSG,AidEPO,SV,25,path_2NG,ValidEPO,0,u4CurrGpsSecs,1137782125,u4GpsSecs,1137780000,seq,45,NAseq,45,Age_Epo,15,Naage,15,NaValidGEPO,1
043455.215,HBD,IF1,MSG,AidEPO,SV,26,path_2NG,ValidEPO,0,u4CurrGpsSecs,1137782125,u4GpsSecs,1137780000,seq,45,NAseq,45,Age_Epo,15,Naage,15,NaValidGEPO,1
043455.215,HBD,IF1,MSG,AidEPO,SV,27,path_2NG,ValidEPO,0,u4CurrGpsSecs,1137782125,u4GpsSecs,1137780000,seq,45,NAseq,45,Age_Epo,15,Naage,15,NaValidGEPO,1
043455.215,HBD,IF1,MSG,AidEPO,SV,28,path_2NG,ValidEPO,0,u4CurrGpsSecs,1137782125,u4GpsSecs,1137780000,seq,45,NAseq,45,Age_Epo,15,Naage,15,NaValidGEPO,1
043455.215,HBD,IF1,MSG,AidEPO,SV,29,path_2NG,ValidEPO,0,u4CurrGpsSecs,1137782125,u4GpsSecs,1137780000,seq,45,NAseq,45,Age_Epo,15,Naage,15,NaValidGEPO,1
043455.215,HBD,IF1,MSG,AidEPO,SV,30,path_2NG,ValidEPO,0,u4CurrGpsSecs,1137782125,u4GpsSecs,1137780000,seq,45,NAseq,45,Age_Epo,15,Naage,15,NaValidGEPO,1
043455.215,HBD,IF1,MSG,AidEPO,SV,31,path_2NG,ValidEPO,0,u4CurrGpsSecs,1137782125,u4GpsSecs,1137780000,seq,45,NAseq,45,Age_Epo,15,Naage,15,NaValidGEPO,1
043455.215,HBD,IF1,MSG,AidEPO,SV,32,path_2NG,ValidEPO,2,u4CurrGpsSecs,1137782125,u4GpsSecs,1137780000,seq,45,NAseq,0,Age_Epo,15,Naage,0,NaValidGEPO,0
$[AGT],GSET=2
$[AGT],rm,6,rt,3
$[AGT],receive pmtk
$PMTK015,43455484,4,3291,PMTK290,1,1,0*25
$PMTK730,0,0,0,1,0,0,0,0,1*2A
$PMTK015,43455484,4,3291,PMTK730,0,0,0,1,0,0,0,0,1*2A
$PMTK001,290,3*3B
$[AGT],GSET=2
$[AGT],rm,6,rt,3
$[AGT],receive pmtk
$PMTK015,43455595,4,3401,PMTK712,1881,153325.360000,3000.000,0,0,0,0.000*3F
$AGPS,3401,TimeCompensate,0.900,WN,1881,TOW,153326.260000*7B
Use_New_Time,0,count,1,743,12399,Local,1881,153325.127000 &47
TimeSetOK,0,WeekNO,1881,TOW,153326.260000,RMS,3.000000,TTick,3401 &76
SetNATime,1137782126 &49
$PMTK001,712,3*34
$[AGT],GSET=2
$[AGT],rm,6,rt,3
$[AGT],receive pmtk
$PMTK015,43455598,4,3401,PMTK710,01,001000,000000,000000,000000,00000B,0726AB,000008,015130,07F431,2DF249,017AE2,F5A002,8F6A8B,15A8A1,0D4AB3,26AB7C,FFDAFE,DA3BE1,003027,4803FE,168B13,4DA041,FFA986,07FB8C*1B
#DEPH 1 1137781625 1000 0 0 0 B 726AB 8 15130 7F431 2DF249 17AE2 F5A002 8F6A8B 15A8A1 D4AB3 26AB7C FFDAFE DA3BE1 3027 4803FE 168B13 4DA041 FFA986 7FB8C &46
$PMTK001,710,3*36
$[AGT],GSET=2
$[AGT],rm,6,rt,3
$[AGT],receive pmtk
$PMTK015,43455600,4,3411,PMTK710,03,001000,000000,000000,000000,000004,3826AC,00FFD4,FDDE1C,380501,32DCBA,8EE7C2,03E900,27C581,13BAA1,0E3CE2,26AC7C,FFFC29,41421D,001627,13B501,190577,06057E,FFA85D,381B54*11
#DEPH 3 1137781625 1000 0 0 0 4 3826AC FFD4 FDDE1C 380501 32DCBA 8EE7C2 3E900 27C581 13BAA1 E3CE2 26AC7C FFFC29 41421D 1627 13B501 190577 6057E FFA85D 381B54 &63
$PMTK001,710,3*36
$[AGT],GSET=2
$[AGT],rm,6,rt,3
$[AGT],receive pmtk
$PMTK015,43455601,4,3411,PMTK710,06,001000,000000,000000,000000,000009,5426AC,000036,11B244,54F20E,2CCD79,C02C1B,F40B00,216F04,16C7A1,0D1216,26AC7C,0006FE,8221A1,001127,4671EB,1554A3,6627AE,FFAA42,54FB9C*6F
#DEPH 6 1137781625 1000 0 0 0 9 5426AC 36 11B244 54F20E 2CCD79 C02C1B F40B00 216F04 16C7A1 D1216 26AC7C 6FE 8221A1 1127 4671EB 1554A3 6627AE FFAA42 54FB9C &5C
$PMTK001,710,3*36
$[AGT],GSET=2
$[AGT],rm,6,rt,3
$[AGT],receive pmtk
$PMTK015,43455602,4,3411,PMTK710,07,001000,000000,000000,000000,0000E8,2826AC,00FFF3,3DE930,28012A,2E9D2C,B77C88,017104,A0B782,182EA1,0D743C,26AC7C,00107F,925394,003527,719443,144092,C24BD1,FFA9B4,28E5E8*6A
#DEPH 7 1137781625 1000 0 0 0 E8 2826AC FFF3 3DE930 28012A 2E9D2C B77C88 17104 A0B782 182EA1 D743C 26AC7C 107F 925394 3527 719443 144092 C24BD1 FFA9B4 28E5E8 &16
$PMTK001,710,3*36
$[AGT],GSET=2
$[AGT],rm,6,rt,3
$[AGT],receive pmtk
$PMTK015,43455603,4,3411,PMTK710,08,000000,000000,000000,000000,00000A,2A26AC,00FFF3,FD322C,2AFB46,3435D1,FDE0AA,FC1A00,E782B0,039AA1,0D135D,26AC7C,0013D3,B1553C,000E27,2F9B1B,2BAEC5,48C445,FFA307,2AFCD8*1A
#DEPH 8 1137781625 0 0 0 0 A 2A26AC FFF3 FD322C 2AFB46 3435D1 FDE0AA FC1A00 E782B0 39AA1 D135D 26AC7C 13D3 B1553C E27 2F9B1B 2BAEC5 48C445 FFA307 2AFCD8 &ED
$PMTK001,710,3*36
$[AGT],GSET=2
$[AGT],rm,6,rt,3
$[AGT],receive pmtk
$PMTK015,43455604,4,3411,PMTK710,0B,001000,000000,000000,000000,0000E6,5126AC,00FFEF,AD8C34,51F0BB,41DC31,86DBFE,F23F08,4E2DEE,0DF2A1,0D392C,26AC7C,FF70EF,DAD9DC,FF6B24,7F37C1,1B7F3C,F44D43,FF9CF1,51F56C*68
#DEPH 11 1137781625 1000 0 0 0 E6 5126AC FFEF AD8C34 51F0BB 41DC31 86DBFE F23F08 4E2DEE DF2A1 D392C 26AC7C FF70EF DAD9DC FF6B24 7F37C1 1B7F3C F44D43 FF9CF1 51F56C &A6
$PMTK001,710,3*36
$[AGT],GSET=2
$[AGT],rm,6,rt,3
$[AGT],receive pmtk
$PMTK015,43455604,4,3411,PMTK710,11,001000,000000,000000,000000,0000E9,1E26AC,00FFF9,E5D9A4,1EF940,3042A0,D6B9D3,FA5105,9C060E,033EA1,0D05B0,26AC7C,0032D5,C49A20,FFD927,B90954,2C9CB0,294BF4,FFA6C0,1EFC10*1E
#DEPH 17 1137781625 1000 0 0 0 E9 1E26AC FFF9 E5D9A4 1EF940 3042A0 D6B9D3 FA5105 9C060E 33EA1 D05B0 26AC7C 32D5 C49A20 FFD927 B90954 2C9CB0 294BF4 FFA6C0 1EFC10 &64
$PMTK001,710,3*36
$[AGT],GSET=2
$[AGT],rm,6,rt,3
$[AGT],receive pmtk
$PMTK015,43455605,4,3411,PMTK710,13,001000,000000,000000,000000,0000DF,6926AC,00FFFF,BB3D9C,69F933,31AB2F,F20855,FA5205,C58EB8,04BEA1,198212,26AC7C,FF9ED7,C483DE,001727,9AE4BD,2B601B,7AD271,FFA3D2,69F184*18
#DEPH 19 1137781625 1000 0 0 0 DF 6926AC FFFF BB3D9C 69F933 31AB2F F20855 FA5205 C58EB8 4BEA1 198212 26AC7C FF9ED7 C483DE 1727 9AE4BD 2B601B 7AD271 FFA3D2 69F184 &E7
$PMTK001,710,3*36
$[AGT],GSET=2
$[AGT],rm,6,rt,3
$[AGT],receive pmtk
$PMTK015,43455606,4,3411,PMTK710,17,000000,000000,000000,000000,0000D5,2926AC,00FFEF,EB7380,29FDC0,3AAC6D,23F342,FDEC05,58E29A,09A6A1,0DD4C0,26AC7C,FFC353,EECB81,FFAC26,8E7F53,23D395,738A16,FFA4FC,29F8A8*60
#DEPH 23 1137781625 0 0 0 0 D5 2926AC FFEF EB7380 29FDC0 3AAC6D 23F342 FDEC05 58E29A 9A6A1 DD4C0 26AC7C FFC353 EECB81 FFAC26 8E7F53 23D395 738A16 FFA4FC 29F8A8 &D5
$PMTK001,710,3*36
$[AGT],GSET=2
$[AGT],rm,6,rt,3
$[AGT],receive pmtk
$PMTK015,43455606,4,3411,PMTK710,1C,001000,000000,000000,000000,0000E9,1926AC,000017,4141B4,190F4F,2951BF,2EB399,0DD10A,3F58BB,0D71A1,0D0897,26AC7C,0060AC,44133C,010328,4FB3F8,2235BD,B16891,FFAA09,190B84*6D
#DEPH 28 1137781625 1000 0 0 0 E9 1926AC 17 4141B4 190F4F 2951BF 2EB399 DD10A 3F58BB D71A1 D0897 26AC7C 60AC 44133C 10328 4FB3F8 2235BD B16891 FFAA09 190B84 &F9
$PMTK001,710,3*36
$[AGT],GSET=2
$[AGT],rm,6,rt,3
$[AGT],receive pmtk
$PMTK015,43455607,4,3411,PMTK710,1E,001000,000000,000000,000000,000007,2426AC,000028,0BA180,2401FE,30CB2E,B785C5,01D000,DA7A9A,18D2A1,0D3863,26AC7C,001681,70BE4A,FFE026,DD5DF4,11FB7C,628CA9,FFA8FA,24E98C*6A
#DEPH 30 1137781625 1000 0 0 0 7 2426AC 28 BA180 2401FE 30CB2E B785C5 1D000 DA7A9A 18D2A1 D3863 26AC7C 1681 70BE4A FFE026 DD5DF4 11FB7C 628CA9 FFA8FA 24E98C &6A
$PMTK001,710,3*36
$[AGT],GSET=2
$[AGT],rm,6,rt,3
$[AGT],receive pmtk
$PMTK015,43455608,4,3411,PMTK711,01,59,412901,4E0E13,FD4E00,A10CDC,FECCB9,134ABF,066F64,01000C*43
$PMTK001,711,3*37
$[AGT],GSET=2
$[AGT],rm,6,rt,3
$[AGT],receive pmtk
$PMTK015,43455609,4,3411,PMTK711,02,59,427DA8,4E0032,FD3E00,A10D46,FD0D76,A7494D,1AF3CF,4E0014*34
$PMTK001,711,3*37
$[AGT],GSET=2
$[AGT],rm,6,rt,3
$[AGT],receive pmtk
$PMTK015,43455609,4,3411,PMTK711,03,59,430275,4E0AE0,FD5A00,A10DDA,2933E7,77E513,76F10E,FDFFF8*42
$PMTK001,711,3*37
$[AGT],GSET=2
$[AGT],rm,6,rt,3
$[AGT],receive pmtk
$PMTK015,43455610,4,3421,PMTK711,05,59,452594,4E027B,FD4C00,A10D5D,28C889,13C808,7E69B6,EC0024*3B
$PMTK001,711,3*37
$[AGT],GSET=2
$[AGT],rm,6,rt,3
$[AGT],receive pmtk
$PMTK015,43455611,4,3421,PMTK711,06,59,460222,4E0DF9,FD4E00,A10CA2,FE74A1,A47038,360CE2,11005C*3B
$PMTK001,711,3*37
$[AGT],GSET=2
$[AGT],rm,6,rt,3
$[AGT],receive pmtk
$PMTK015,43455612,4,3421,PMTK711,07,59,474A10,4E10A6,FD5500,A10D08,7F84FC,92C78A,EA01F4,3D001C*4C
$PMTK001,711,3*37
$[AGT],GSET=2
$[AGT],rm,6,rt,3
$[AGT],receive pmtk
$PMTK015,43455613,4,3421,PMTK711,08,59,480E86,4E0C96,FD3000,A10CAA,D3A319,C56C2F,8F3100,FD0004*48
$PMTK001,711,3*37
$[AGT],GSET=2
$[AGT],rm,6,rt,3
$[AGT],receive pmtk
$PMTK015,43455614,4,3421,PMTK711,09,59,490506,4E0866,FD3600,A10CB2,539E2D,4CE73F,5D4C00,070054*49
$PMTK001,711,3*37
$[AGT],GSET=2
$[AGT],rm,6,rt,3
$[AGT],receive pmtk
$PMTK015,43455614,4,3421,PMTK711,0A,59,4A08B7,4E0B0C,FD5900,A10D1C,29090E,885C2B,B168E1,06FFEC*36
$PMTK001,711,3*37
$[AGT],GSET=2
$[AGT],rm,6,rt,3
$[AGT],receive pmtk
$PMTK015,43455615,4,3421,PMTK711,0B,59,4B84EB,4EE186,FD0600,A10CA6,EFCBB0,3CFDDB,EED416,AD0010*3D
$PMTK001,711,3*37
$[AGT],GSET=2
$[AGT],rm,6,rt,3
$[AGT],receive pmtk
$PMTK015,43455615,4,3421,PMTK711,0C,59,4C2F3A,4E1F25,FD6A00,A10C02,AB3E4C,1A4346,DB4409,2F0038*4E
$PMTK001,711,3*37
$[AGT],GSET=2
$[AGT],rm,6,rt,3
$[AGT],receive pmtk
$PMTK015,43455616,4,3421,PMTK711,0D,59,4D2637,4E1333,FD4400,A10D00,58766B,50F274,10DDEF,E8FFE8*44
$PMTK001,711,3*37
$[AGT],GSET=2
$[AGT],rm,6,rt,3
$[AGT],receive pmtk
$PMTK015,43455616,4,3421,PMTK711,0E,59,4E4402,4E0E4A,FD3E00,A10D40,56FC2D,B0955A,5B8B51,00FFFC*48
$PMTK001,711,3*37
$[AGT],GSET=2
$[AGT],rm,6,rt,3
$[AGT],receive pmtk
$PMTK015,43455617,4,3421,PMTK711,0F,59,4F41DE,4EF898,FD2100,A10DC4,5198BA,13586D,3AF5B6,D9000C*40
$PMTK001,711,3*37
$[AGT],GSET=2
$[AGT],rm,6,rt,3
$[AGT],receive pmtk
$PMTK015,43455617,4,3421,PMTK711,10,59,504549,4E1F7A,FD6900,A10D45,AC01F0,0CF60F,85D7DF,FA0024*31
$PMTK001,711,3*37
$[AGT],GSET=2
$[AGT],rm,6,rt,3
$[AGT],receive pmtk
$PMTK015,43455618,4,3421,PMTK711,11,59,5159CF,4E152B,FD3C00,A10C9E,D5B6A2,B031CC,5E2591,E5001C*4D
$PMTK001,711,3*37
$[AGT],GSET=2
$[AGT],rm,6,rt,3
$[AGT],receive pmtk
$PMTK015,43455618,4,3421,PMTK711,12,59,528792,4EF48E,FD3E00,A10CD3,2807C0,B1ED25,9D75A5,3E0034*3C
$PMTK001,711,3*37
$[AGT],GSET=2
$[AGT],rm,6,rt,3
$[AGT],receive pmtk
$PMTK015,43455618,4,3421,PMTK711,13,59,535C47,4E1348,FD3A00,A1191D,D7B686,1B80AD,EC64C9,BB0008*41
$PMTK001,711,3*37
$[AGT],GSET=2
$[AGT],rm,6,rt,3
$[AGT],receive pmtk
$PMTK015,43455619,4,3421,PMTK711,14,59,542889,4EF565,FD3F00,A10D12,25E97B,35DAE4,3FD018,330020*3A
$PMTK001,711,3*37
$[AGT],GSET=2
$[AGT],rm,6,rt,3
$[AGT],receive pmtk
$PMTK015,43455620,4,3431,PMTK711,15,59,55BCA5,4EFBBC,FD3900,A10D04,FD9364,B5243B,C14EED,BDFFF0*4C
$PMTK001,711,3*37
$[AGT],GSET=2
$[AGT],rm,6,rt,3
$[AGT],receive pmtk
$PMTK015,43455621,4,3431,PMTK711,16,59,563E14,4EF327,FD3A00,A11857,280FEF,AD7AA0,745493,35FFE8*4B
$PMTK001,711,3*37
$[AGT],GSET=2
$[AGT],rm,6,rt,3
$[AGT],receive pmtk
$PMTK015,43455621,4,3431,PMTK711,17,59,575587,4E0283,FD2E00,A10D60,53E084,95768F,2A6AD8,EBFFEC*49
$PMTK001,711,3*37
$[AGT],GSET=2
$[AGT],rm,6,rt,3
$[AGT],receive pmtk
$PMTK015,43455622,4,3431,PMTK711,18,59,582239,4E05A0,FD4600,A10CAC,7DAF19,0E3171,1157C6,FE0010*49
$PMTK001,711,3*37
$[AGT],GSET=2
$[AGT],rm,6,rt,3
$[AGT],receive pmtk
$PMTK015,43455622,4,3431,PMTK711,19,59,592935,4E178D,FD6100,A10C32,A93A25,1C4000,C2090E,F2FFC0*4F
$PMTK001,711,3*37
$[AGT],GSET=2
$[AGT],rm,6,rt,3
$[AGT],receive pmtk
$PMTK015,43455623,4,3431,PMTK711,1A,59,5A0643,4E0BD6,FD5000,A10D3E,A8F2A8,F851A8,AE3D64,E1FF9C*33
$PMTK001,711,3*37
$[AGT],GSET=2
$[AGT],rm,6,rt,3
$[AGT],receive pmtk
$PMTK015,43455623,4,3431,PMTK711,1B,59,5B1959,4E11DA,FD3700,A10C9E,D3B535,087975,5F411B,070030*34
$PMTK001,711,3*37
$[AGT],GSET=2
$[AGT],rm,6,rt,3
$[AGT],receive pmtk
$PMTK015,43455624,4,3431,PMTK711,1C,59,5CA3DB,4E1E9C,FD6900,A10CAF,AC3701,BDB64E,7C7FE0,41002C*3B
$PMTK001,711,3*37
$[AGT],GSET=2
$[AGT],rm,6,rt,3
$[AGT],receive pmtk
$PMTK015,43455624,4,3431,PMTK711,1D,59,5D084B,4E15C7,FD3C00,A10C91,D61AD2,E81626,C7514C,550014*37
$PMTK001,711,3*37
$[AGT],GSET=2
$[AGT],rm,6,rt,3
$[AGT],receive pmtk
$PMTK015,43455625,4,3431,PMTK711,1E,59,5E0DA8,4E0763,FD4900,A10CC1,816329,7C4388,EC2B3C,0B0038*33
$PMTK001,711,3*37
$[AGT],GSET=2
$[AGT],rm,6,rt,3
$[AGT],receive pmtk
$PMTK015,43455625,4,3431,PMTK711,1F,59,5F4464,4E13D0,FD5B00,A10D17,7FE0DB,EDEE13,E8BBA5,25000C*36
$PMTK001,711,3*37
$[AGT],GSET=2
$[AGT],rm,6,rt,3
$[AGT],receive pmtk
$PMTK015,43455626,4,3431,PMTK711,20,59,605D02,4E02B9,FD4C00,A10C99,2C6915,08D3A6,FAA240,0C0090*4E
$PMTK001,711,3*37
$[AGT],GSET=2
$[AGT],rm,6,rt,3
$[AGT],receive pmtk
$PMTK015,43455626,4,3431,PMTK713,24.975740,121.327990,100.0,537.6,537.6,0,990.5,39*35
#DBTP 3011 1 6 2497574 12132799 100 1881 153325127 1137781625  &07
$PMTK001,713,3*35
$[AGT],GSET=2
$[AGT],rm,6,rt,3
$[AGT],receive pmtk
$PMTK015,43455627,4,3431,PMTK715,13,-1,-1,1,56,-8,-4,11*0A
$PMTK001,715,3*33
$[AGT],GSET=2
$[AGT],rm,6,rt,3
$[AGT],receive pmtk
$PMTK015,43455628,4,3431,PMTK716,6,-1,228,96,17,159,3,17*29
$PMTK013,Err,716,Tot=933888,Range[0-602112]*74
$PMTK001,716,2*31
043456.207,HBD,IF1,TIM,DSP,u1ChnNum,37,u2DataSize,57
043456.207,HBD,IF1,COM,BinDecX,65065
043456.207,HBD,IF1,GPS,TkDltIn,3011,3015,4
043456.207,HBD,IF1,TIM,NWloc,fgfirstUseNW,0,case,0,NWAID,0,NWUSE,0
043456.207,HBD,IF1,AGP,BOOST,Posdiff:2.204264,0.151670,num:7,PosConverge,1,BoostRemT,16.000
$Boost, flag on*64
$LOC_Cache_BIT,00000002*7D
043456.207,HBD,IF1,AGP,AGPSMGN,Posdiff:2.204264,0.151670,num:0,PosConverge,0,AGPSRemT,15.274

#MZYQ.AE1E3&1D

#XPda.D@BC3&46

#MZYQ.C@1C3&18

#MZYQ.@B1CFEG6I8^PN^=&0F

#MZYQ.AH1HG4&57
043456.207,HBD,IF1,AGP,AGPSMGN,AGPSMode:3,AGPSTimer:0.726
$PMTK015,43456210,10,4021,AMode,3,ATimer,0.726,Remain,15.274*42
043456.207,HBD,IF1,AGP,AGPSMGN,DOP.H :1.046144,PosCon:0,[18.516117,16.287342,4.493920]
$PMTK013,CHK,Loc,Dif_m,27.7*55
$PMTK013,4021,INF,TA,ENTRY,TS,7,TOW,153326.128000000,CB,-0.000276402,AGPSM,1*20
$PMTK013,4021,INF,TA,CTk,4021,CPage,11,CSF,5,CSFT,2.138,SFNumSent,0*5C
$PMTK013,4021,INF,TA,NPage,12,NSF,1,NSFTow,153330.000000000,NZCNT,25556,NSFTk,7882*48
$PMTK013,4021,INF,TA,TAEnableList*75
$PMTK015,43456211,5,4021,TA_Aiding*60
$PMTK015,43456211,6,4021,NACQ,7,NBS,7,NSFS,0,NEXS,0*63
$HBD,INF,RTC,F,0,Y,16,M,1,D,25,H,18,M,35,Sec,9,Sub,2655,T,4002,SM,7909*30
$DBts1,TSOK,0,WNSet,1,TOWS,7,WN,1881,BAcc,17.441,TAcc,9098378.000,*51
$DBts2,TTK,4011,TOW,153326.128000000,B,-0.000276402,D,0.000001211,*24
043456.211,HBD,IF1,ALO,CdmPvtU,
$HBD,INF,RTC,F,0,Y,16,M,1,D,25,H,18,M,35,Sec,9,Sub,2655,T,4002,SM,7909*30
$PMTK730,0,0,0,0,0,0,0,0,1*2B
$PMTK015,43456211,4,4021,PMTK730,0,0,0,0,0,0,0,0,1*2C
$GNGGA,183509.128,2458.5342,N,12119.6915,E,1,8,1.05,85.1,M,15.0,M,,*71
$GPGSA,A,3,193,28,03,01,19,30,17,11,,,,,1.38,1.05,0.90*3B
$GLGSA,A,3,,,,,,,,,,,,,1.38,1.05,0.90*19
$GPGSV,4,1,13,28,68,328,31.8,193,65,115,32.0,03,51,089,33.9,17,37,321,23.2*4B
$GPGSV,4,2,13,01,35,034,28.5,19,34,314,32.9,30,29,219,26.8,06,27,246,*60
$GPGSV,4,3,13,11,25,050,25.8,32,23,054,,07,13,190,,08,08,091,*6B
$GPGSV,4,4,13,23,02,135,*4F
$GLGSV,3,1,9,75,47,281,,85,39,344,,74,36,204,,70,35,123,*51
$GLGSV,3,2,9,69,25,058,,84,24,042,,86,16,290,,76,11,328,*5E
$GLGSV,3,3,9,71,10,169,*65
$GNRMC,183509.128,A,2458.5342,N,12119.6915,E,0.295,102.00,250116,,,A*4B
$GNVTG,102.00,T,,M,0.295,N,0.546,K,A*29
$GNACCURACY,4.9*1B
$PMTKDGP,0*4D
$PMTKDBG,4011,0,1,0,1,0,0,0,1,0,0,0,0,0,0,0,0,0,0,1,1,1,1,1,0,0,0,0,0,0,0,0,1,0028,0035,0002,0008,0007,0000,0000,0000,0.0000,1.2106,0.0000,0.0000,0.0000,0.0000,*43
$PMTKDB2,0D16,0000,0000,0000,0000,0000,0000,0700,0024.66,0000.00,12106.62,9098378.24,0000.10,-276.40,00-0.02,0000.00,*6E
$PMTKEPH,41,1,3,6,7,8,9,11,16,17,19,22,23,26,27,28,30,-32.0.1,193,-65.2.4,-66.2.4,-67.2.4,-68.2.4,-69.2.4,-70.2.4,-71.2.4,-72.2.4,-73.2.4,-74.2.4,-75.2.4,-76.2.4,-77.2.4,-78.2.4,-79.2.4,-80.2.4,-82.2.4,-83.2.4,-84.2.4,-85.2.4,-86.2.4,-87.2.4,-88.2.4*6E
$PMTKALM,32,1,2,3,5,6,7,8,9,10,11,12,13,14,15,16,17,18,19,20,21,22,23,24,25,26,27,28,29,30,31,32,193*51

#WXM[.?0A2C4E6G8I:K<M>O@QBSDUFWHYJ[L]N_PaRcTeVgXiZk\m^o`qbsdufwhyj{l}npy&39

#NM^Z.BB1FCEF6H8JKO<NNT@QBSD&0D
#\XOU.?0BKF4HK7H9PO<ROQcARCWY\WH\^a\McOdiRddghhoYnsqtov`w}esx~}|psx}&8C
#\XOU.@0CJ3GJ6G8ON;QNPb@QBVXYVG[]^[LbNchQccfggnXnnmmvv_zvdrw~y|nqv{}&21
#\XOU.A0D2FK5F7NM:PMOa?PAUYVUFZ^[ZKaMc_PbbeffmWmmjomo^wzcqvxzz{|}}nqv{~&7A
#\XOU.B0B2FF5F7NM:PMOa?PATYVUFY^[ZKaM`ePbbeffmWmlptlq^oqucqxv|~z~nqw|~&DC
#\XOU.C0BK3GK6G8ON;QNPb@QBVU[VG[Z`[LbNd`QccfggnXnmqrpt_vxdrx|z~nqv{}&4F
#\XOU.D0DB3GE6G8ON;RNPb@QBU[WVGZ`\[LbNadQccfggnXnmpnrw_uvt{drx~|orx}&38
#\XOU.E0BI3FK6G8OM;TNP`@QBTDVF\H]J\\_``gQgfjenjXk]krrruyvwvgz}j|~otw{}&5F
#\XOU.F0BC3FM6G8ON;RNPb@QBT]YVGYb^[LbN`eQccfggnXnmopst_udrx}|~orx}&36
#\XOU.G0H2C4E6G8[KKL=N?PARCWEVGYY\]]dNdebiefUzyqZhoouqxwy{xewhyj{|}~oqsuz|&B2
#\XOU.H0I2C4E6G8[KKL=N?PARCWEVGYY\]]dNddieclUopyrZhnqwxuuusxew}h{~m~rtvx}&6A
#\XOU.@@1DF4FI7H9MM<_OOPARCTEVG]IZK]]`aahRhhijmqYrslv^lsuuvxzvhz|kotvxz&B9
#\XOU.@A1H3D5F7H9\LLM>O@QBSDXFWHZZ]^^eOegcdifVnl~r[npqxvtwudwgxiz{|}nprty{~&51
#\XOU.@E1DCH5F7H9J;UNNO@QBSDUFZHYJbcd^hPbkglmVjp}[prwspxuydvvgy|{l}~qsuw|~&68
#\XOU.@G1DCM5F7H9J;UNNO@QBSDUFZHYJbcd^hPbjcmhVih}[invotsryt}fxyizk|}~prtv{}&F0
#\XOU.@H1DCL5F7H9J;UNNO@QBSDUFZHYJbcd^hPcblffVlpi|[inqtwzrx}wfx{izk|}~prtv{}&EA
#\XOU.@I1DDD5F7H9J;UNNO@QBSDUFZHYJbcd^hPbiilhV|mrr[iopwtvzw}{fxyizk|}~prtv{}&00
#\XOU.A@1DDG5F7H9J;UNNO@QBSDUFZHYJbcd^hPbghgkVxi~p[mpoowsrstewwhyj{|}~oqsuz|&A8
#\XOU.AA1DCI5F7H9J;UNNO@QBSDUFZHYJbcd^hPbhkfeV{ip}[iputussu|ewzhyj{|}~oqsuz|&BC
#\XOU.AB1DCE5HJ8I:NN=WPPQBSDUFWH^J[Ldef`jReknjpX{~lr]krutszu{zhz{kpuwy{&22
#\XOU.AC1DCK5F7H9J;UNNO@QBSDUFZHYJbcd^hPbgkikVmqo[trorqsxwdvwgxiz{|}nprty{~&91
#\XOU.AD1DDF5GJ8I:LP=`PRSBSDUFWH^J\Ldef`jRehijmXzptu]kprsw{tzz{hzkpuwz|&71
#\XOU.AF1DCF5F7H9J;QMNO@QBSDUFZHYJ[L^`edhdSxw|}Xjkqtrnuxybtwevgxyz{l}nprwy|~&40
#\XOU.BG1EE4E6G8I:]MMN?PARCTEYGXI[[^__fPfhcfgiW~in\jptwys{zwzgzj{l}~qsuw|~&F3
#\XOU.CH1B3D5F7H9JKLM>O@QBSDUFWHYJ[L]^_`QbSdUfWhijk\m^o`qbstuvgxizk|m~oq&36

#NM`a.C@BC3E5F7H9J;L=N?PQRSTUVWHYJ[L&55
#NLPT.@ID2DG5FGHL:NJT>ONQZYD[^]HVZYccN_^adeTgdkjY&FC
#NLPT.AH1CF4EFGK9KLJN>ONUY[D[^]HV[Y_bN_^dheTgdkjY&FA
#NLPT.B0BE3DEFJ8FSIR=NMURSCZW\GUYXb^M^]`djSecnnX&C2
#NLPT.@0BE3DEFJ8MHS<MLOUXBTU[[GUZX\bM^]afkSgcikX&C1
#NLPT.@I1CF4EFGK9GPJU>ONSZXD[X^HV[Y]cN_^fheTfdooY&01
#NLPT.B@1CF4EFGK9GQJO>ONQVXDVW]]IW\Z]cO`_ccmUiekjZ&0F
#NLPT.@G1CF4EFGI9GQOKS?POR\VEZ[X]acL]\_`QbadefWhgjk\&74
#NLPT.@A1CF4EFGK9GMJS>ONQRWDXXW]IW[Za^O`_bddUgkfqk[&32
#NLPT.F0B2&D8
#NLPT.G0B2&D9
#NLPT.AC1D3&07
#NLPT.E0B2&D7
#NLPT.A@E2D4&37
#NLPT.A@J2D4&3C
#NLPT.A@I2D4&3B
#NLPT.AAA2D4&34
#NLPT.AAD2D4&37
#NLPT.A@F2D4&38
#NLPT.A@B2E4&35
#NLPT.A@H2D4&3A
#NLPT.AAC2E4&37

#NMMN.@0>CLDL6JQOM;PMOP@RRUVV]GY[J[LdN`edeejcgipYj[&56
#KL_c.@0FHIILF7EMPQM=PP@UBTDUF_XY[K&78
#KL_c.B0FICDLO7EJRSL=PP@UBTDUF_XY[K&79
#KL_c.E0FHGFFO7KML;NN>S@RBSD]VW[I&18
#KL_c.F0FHCMHO7EMSTT=PP@UBTDUF_XY]K&90
#KL_c.G0FGJIGL7ELRLS=PP@UBTDUF_XY]K&84
#KL_c.@A1GIHFIJ8FNPMR>QQAVCUEVG`YZ^L&A2
