$PMTK013,AgpsMachine,set,0,result,0*17
$[AGT],ipath,/data/misc/
$[AGT],GSET=0
$[AGT],rm,6,rt,4
048313.488,HBD,IF1,BOT,UInitCf,1,0,0,16,100,0,255,2000,26000000,115200,1000,0,-2147483456,ffff6753,2

$[AGT],SAP,Eidle
$[AGT],e=1,b=1,s=1,aosp=1
048313.488,HBD,IF1,BOT,MNLVer,_u1MTKChipID=1
048313.488,HBD,IF1,GPS,NVFile,Opened
048313.488,HBD,IF1,GPS,NVFile,g_BMAP_NVfile_Operation_load,0
048313.488,HBD,IF1,ALO,AlcInit,
048313.488,HBD,IF1,ALO,AlSCIni,
048313.488,HBD,IF1,ALO,PMCmod4,0
048313.488,HBD,IF1,ALO,EdInitD,
048313.488,HBD,IF1,ALO,PmcInit,
048313.488,HBD,IF1,ALO,VtCfgDb,20,20,4294967295
048313.488,HBD,IF1,BOT,InitCfg,1,115200,115200,26000000,255,0,0,0.000000,0.000000
048313.492,HBD,IF1,BOT,BotUrV2,BINFO(): x,-2147483456,y,ffff6753,
048313.492,HBD,IF1,BOT,BotUrV2,BINFO(): MT6753_ DSP
048313.492,HBD,IF1,BOT,BotUrV2,_BINFO(): B,-149904296,L,61448
048313.492,HBD,IF1,BOT,BotUrV2,RFG,3,0,3
048313.992,HBD,IF1,BOT,ClkType,255
$PMTK015,48313990,1,GPS_INIT_DONE*78
$[AGT],GSET=0
$[AGT],rm,1,rt,11
$[AGT],inco
$[AGT],rm,0
$[AGT],remd == 0
048313.992,HBD,IF1,MSG,MNLInit,OK

#MZYQ.D@1C3&19

$PMTK010,001*2E

$PMTK010,002*2D
$PMTK013,INF,0,128,4,128*59
$PMTK015,48313995,4,48313990,PMTK764,0,0,0,2,0,128,4,128*36
$$PMTK764,0,0,0,2,0,128,4,128*15
048313.996,HBD,IF1,GPS,FrstDtt,00,00
$PMTK015,48313995,2,FIRST_DBTT*23
048313.996,HBD,IF1,GPS,TkDltIn,0,0,0

#MZYQ.@@1B3D5&64
$SELF_ATOW,0,1*4F
048313.996,HBD,IF1,TIM,HALTIME,0,
048313.996,HBD,IF1,TIM,HALTSTA,0,
048313.996,HBD,IF1,TIM,IdbtsDa,RTCstatusA,0,fgSysTimeOK,1,UseSystime,0,LoadRTCUpdateOK,RTC_age,8
048313.996,HBD,IF1,TIM,IdbtsDa,RTCstatusB,0,fgSysTimeOK,1,UseSystime,0
048313.996,HBD,IF1,TIM,DtsAcRT,PRTC,Load,Wn,1881,Tow,158171.997313275,RtcD,-8.231,
$IRTC,i2RtcTimeLastWn,1881,dfRtcTimeLastTow,158154.980530,*29
$IRTC,i2RtcTimeLastWn,1881,dfRtcTimeLastTow,158171.981065,*2A
$IRTC,dfDltTow1,11.882477,*2B
$IRTC,dfDltTow2,11.882575,*2B
$IRTC,i2GpsWn2,1881,dfGpsTow2,158183.879888,*2A
048313.996,HBD,IF1,TIM,DtsAcRT,PRTC,Load,GWn,1881,GTow,158183.879887886,RWn,1881,RTow,158171.981064757,RtcD,-8.231,
$IRTC,dfDltTow,11.882575,HTTFF_163,0,_fgEnableAccIGPST,1*70

#MZYQ.D@1B3&18
048313.996,HBD,IF1,TIM,IdtsAcT,1,1881,158183.879000000,9,11.9,

#MZYQ.DD1B3&1C

#MZYQ.CB1D3&1B
$QEPO_Request*05
$[AGT],GSET=0
$[AGT],rm,1,rt,10
$[AGT],inco
$[AGT],rm,0
$[AGT],remd == 0

#MZYQ.DB1C3&1B
048313.996,HBD,IF1,TIM,NWloc,fgfirstUseNW,0,case,0,NWAID,0,NWUSE,0
$Boost, hotstart*5A
048313.996,HBD,IF1,AGP,BOOST,Posdiff:157625098436608.000000,0.000000,num:0,PosConverge,0,BoostRemT,20.000
$LOC_Cache_BIT,00000000*7F
$DBnm_NLP,[24.975710,121.327984,0,25.000000][2016/1/25,19:55:55][0][0]*3C
$NLP_from_file,[24.975710,121.327984,0,25.000000][2016/1/25,19:55:55][1881,158172.000000]*7A
$cache_pos,-3007983.222123,4941821.391456,2676700.814600,[1137786972]*69
$Cache_age,11,NLP_age,12,NV_age,11*15
$NLP_Aid*41
#DBTP 11 1 9 2497570 12132798 152 1881 158183889 1137786968 &AE

#MZYQ.C@1C3&18
048314.000,HBD,IF1,AGP,AGPSMGN,Posdiff:157625098436608.000000,0.000000,num:0,PosConverge,0,AGPSRemT,16.000

#MZYQ.AA1D3&18
048314.000,HBD,IF1,GPS,EpoLoad,HOST_EPO,BAD_Load,ffffffff,316050,45
048314.000,HBD,IF1,TIM,RstFSAg,0.0

#MZYQ.AE1I3&21

#XPda.@@BC3&42
048314.000,HBD,IF1,GPS,FTModeC,FT_Mode,1,Send_Comd
048314.000,HBD,IF1,AGP,AGPSMGN,AGPSMode:-1,AGPSTimer:0.000
$PMTK015,48313999,10,11,AMode,-1,ATimer,0.000,Remain,16.000*6C
$PMTK015,48313999,6,11,NACQ,0,NBS,0,NSFS,0,NEXS,0*62
$HBD,INF,RTC,F,0,Y,16,M,1,D,25,H,19,M,56,Sec,6,Sub,28279,T,1,SM,7456*39
$DBts1,TSOK,0,WNSet,1,TOWS,9,WN,1881,BAcc,1183216.000,TAcc,1220038.000,*68
$DBts2,TTK,11,TOW,158183.889000000,B,-0.000432352,D,0.000001147,*20
048314.000,HBD,IF1,ALO,CdmPvtU,
$HBD,INF,RTC,F,0,Y,16,M,1,D,25,H,19,M,56,Sec,6,Sub,28279,T,1,SM,7456*39
$PMTK013,11,set epo bitmap,R:0,F:1 *1E
$GNGGA,195606.889,2458.5426,N,12119.6791,E,0,0,,137.3,M,15.0,M,,*56
$GPGSA,A,1,,,,,,,,,,,,,99.99,99.99,1.00*01
$GLGSA,A,1,,,,,,,,,,,,,99.99,99.99,1.00*1D
$GPGSV,3,1,12,193,73,083,,28,66,195,,17,57,005,,19,54,357,*42
$GPGSV,3,2,12,06,45,290,,03,32,044,,23,17,103,,09,16,140,*7B
$GPGSV,3,3,12,02,14,263,,01,09,055,,30,05,192,,11,04,077,*7A
$GLGSV,1,1,0*55
$GNRMC,195606.889,V,2458.5426,N,12119.6791,E,0.000,0.00,250116,,,N*50
$GNVTG,0.00,T,,M,0.000,N,0.000,K,N*2C
$GNACCURACY,39.2*2E
$PMTKDGP,0*4D
$PMTKDBG,11,0,1,0,0,0,1,0,0,0,1,0,0,0,0,0,0,0,0,1,1,1,1,1,0,0,0,0,1,0,0,0,0,0026,0014,0002,0000,0000,0022,0001,0000,0.0000,1.1466,0.0000,0.0000,0.0000,0.0000,*44
$PMTKDB2,0000,0000,0000,0000,0000,0000,0000,0100,1538.85,0000.00,11466.09,1220038.00,0000.00,-432.35,00-0.30,0000.00,*1E
$PMTKEPH,17,1,3,6,7,8,9,11,16,17,19,22,23,26,27,28,30,193*60
$PMTKALM,32,1,2,3,5,6,7,8,9,10,11,12,13,14,15,16,17,18,19,20,21,22,23,24,25,26,27,28,29,30,31,32,193*51

#WXM[.?0A2C4E6G8I:K<M>O@QBSDUFWHYJ[L]N_PaRcTeVgXiZk\m^o`qbsdufwhyj{l}npy&39

#NM^Z.BB1CD4F6G8I:K<M>&DD
#\XOU.AF1B3D5F7H9JKLM>O@QBSDUFWHYJ[L]^_`QbSdUfWhijk\m^o`qbstuvgxizk|m~oq&32
#\XOU.BG1B3D5F7H9JKLM>O@QBSDUFWHYJ[L]^_`QbSdUfWhijk\m^o`qbstuvgxizk|m~oq&34
#\XOU.CH1B3D5F7H9JKLM>O@QBSDUFWHYJ[L]^_`QbSdUfWhijk\m^o`qbstuvgxizk|m~oq&36

#NM`a.@A1C3D5F7H9J;L=NOPQRSTUFWHYJ&F1

#NMMN.@0>CKDK6KHRL;MN>PPVVXYEWXHYJdL^cgaiealmoWhY&06
#KL_c.@0BEFJJLH8FNNSR>PUQBXUWFXHYJc\]aO&3F
#KL_c.A0BEFLFGN8FRR<NSO@VSUDUFWHaZ[]M&D8
#KL_c.B0BEGHGIP8FNOSU>PUQBXUWFXHYJc\]_O&44
#KL_c.E0BEGKJNK8FKKLQ>PUQBXUWFXHYJc\]_O&3B
#KL_c.H0BEFMHGJ8MST<NSO@VSUDVFWHaZ[_M&EB
#KL_c.@A1CFGILKK9GOOOQ?QVRCYVXGYIZKd]^bP&68
#KL_c.@G1CFHMNGO9GPTQ>PUQBXUWFXHYJc\]_O&48
#KL_c.@I1CFHNFLI9GRUR>PUQBXUWFXHYJc\]_O&46
#KL_c.AC1CFGMKPM9GOSR>PUQBXUWFXHYJc\]aO&49
#KL_c.AH1CFIFJLN9GMUTP?QVRCYVXGYIZKd]^`P&77
#KL_c.B@1CFGJKON9GNUVV?QVRCYVXGYIZKd]^bP&81
#KL_c.@ID2DFNGNMN:HNSOU@RWSDZWYHZJ[Le^_aQ&AA
#KLbg.?0BD3ENI7JQ:LS=OX@WBVDWYGaI[K_]N`aQdS&AD
#KLbg.@0BF3FEG7JIL;NMQ?RQVCVU[GZY`K^]eObajSfeoWjjj[nno_rrtcvvygzz~k&20

#NMO_.UVWXYZ[\7^_`abcde@ghijklmnIpqrstuvwRyz{|W~`e&3B

#NM`].@A1C3M5HKQPORL=OQQTTZ]]FX][J\de_OafjdlhnoqYklotuwvzx{drx}~j{l&20
#NP\U.@0BCFKLNMQKS;`SSOPQBSDUFWHYJb^coqPiRdifigXpoon^qtw}ew~|kry˧ͽŵѼ&BE
#NP\U.B0BCFKLNMQKS;`SSOPQBSDUFWHYJ^d_dpsQxyxiV}|}l]qwpvrtdxxkrxġ˿ʴ޺&E9
#NP\U.E0BCFKLNMQKS;`SSOPQBSDUFWHYJ``_dpsQeiTfgyjmn[qqqpbu~i{~pw~ʩ°۷Ͼ&DD
#NP\U.F0BCFKLNKMKS;`SSOPQBSDUFWHYJ]d_dpsQxyzhVj|~snl]pwprtdw{krx¿òɹ&4D
#NLXZ.@0AB3EMNH8MKMUMO?TfRhUXFml]o[\Mo``tvvT{{z{{s[mprbyz|{hzz{|n&60
#NLXZ.A0AB3EMNH8MLR`^U?TfRSWVFml\o[\Mo``ufiT{zg|pq[}trxtbtyi~|}p&C6
#NLXZ.B0AB3EMNH8MMKNTS?TfRdiUFml^k[\Mo``uvtTgojk~q[sttqtbzzwwip&E8
#NLXZ.D0AB3EMNH8MOMQVQ?TfRU[gFml]m[\Mo``ugwTgnzpqs[mpwpxbz{~i|}p&A3
#NLXZ.E0AB3EMNH8MPKNOP?TfRgj^Fml]o[\Mo``tseT{{nlzk[}quosybvzuyi{||}p&9A
048314.000,HBD,IF1,COM,WtDtCnt,3
$[AGT],GSET=0
$[AGT],rm,1,rt,7
$[AGT],fgFirstReq:1
$[AGT],bitmap,old:   0,new: 308
$[AGT],inco
$[AGT],srm,1,dsm,4,tp,7,length,12
$[AGT],tp,776,wn,1881,tw,158183,si,12
$[AGT],rm,2
$[AGT],state:7
$[AGT],wn:1881, tw:158183
$[AGT],ergt
$[AGT],
$[AGT],Esgt 1137715200
$[AGT],epegt
$[AGT],gfisiz()
$[AGT],egtEf,1140307200
$Rdon
$[AGT],res,1137786983,sst,1137715200,egsn,1140307200
$[AGT],wk,epo
$[AGT],s,1,m,1
$[AGT],idle
$@#$^ [AGNT] pEd
$[AGT],opmode GLO(1),GEL(0),DB(0)
$[AGT],tw,158183,gs,1137786983
$[AGT],eextd
$[AGT]start verify
$[AGT],gfisiz()
$[AGT]FileType:GPS+GLO
$[AGT],
$[AGT],epegt
$[AGT],gfisiz()
$[AGT],Extract epo done
048314.004,HBD,IF1,MSG,AidEPO,SV,1,ret,1
$[AGT],GSET=0
$[AGT],rm,4,rt,8
$[AGT],inco
$[AGT],srm,4,dsm,4,tp,8,length,12
048314.004,HBD,IF1,MSG,AidEPO,SV,2,ret,1
048314.004,HBD,IF1,MSG,AidEPO,SV,3,ret,1
048314.004,HBD,IF1,MSG,AidEPO,SV,4,path_2NG,ValidEPO,1,u4CurrGpsSecs,1137786983,u4GpsSecs,1137780000,seq,45,NAseq,0,Age_Epo,15,Naage,0,NaValidGEPO,0
048314.004,HBD,IF1,MSG,AidEPO,SV,5,ret,1
$[AGT],tp,776,wn,1881,tw,158183,si,12
$[AGT],rm,3
$[AGT],state:6
048314.004,HBD,IF1,MSG,AidEPO,SV,6,ret,1
$[AGT],wn:1881,tw:158183
048314.004,HBD,IF1,MSG,AidEPO,SV,7,ret,1
048314.004,HBD,IF1,MSG,AidEPO,SV,8,ret,1
048314.004,HBD,IF1,MSG,AidEPO,SV,9,ret,1
048314.004,HBD,IF1,MSG,AidEPO,SV,10,ret,1
$[AGT],BGAI
$[AGT],0,av:71,b_sky:0
$[AGT],1,av:81,b_sky:1
048314.004,HBD,IF1,MSG,AidEPO,SV,11,ret,1
$[AGT],2,av:117,b_sky:0
$[AGT],3,av:0,b_sky:1
$[AGT],4,av:81,b_sky:0
$[AGT],5,av:73,b_sky:0
$[AGT],6,av:71,b_sky:0
$[AGT],7,av:71,b_sky:0
$[AGT],8,av:69,b_sky:0
048314.008,HBD,IF1,MSG,AidEPO,SV,12,ret,1
$[AGT],9,av:65,b_sky:0
048314.008,HBD,IF1,MSG,AidEPO,SV,13,ret,1
$[AGT],10,av:71,b_sky:0
048314.008,HBD,IF1,MSG,AidEPO,SV,14,ret,1
$[AGT],11,av:113,b_sky:0
048314.008,HBD,IF1,MSG,AidEPO,SV,15,ret,1
$[AGT],12,av:0,b_sky:0
$[AGT],13,av:65,b_sky:0
$[AGT],14,av:111,b_sky:0
$[AGT],15,av:69,b_sky:0
$[AGT],16,av:71,b_sky:0
$[AGT],17,av:63,b_sky:0
$[AGT],18,av:73,b_sky:0
$[AGT],19,av:81,b_sky:0
$[AGT],20,av:67,b_sky:0
$[AGT],21,av:71,b_sky:0
$[AGT],22,av:119,b_sky:0
$[AGT],23,av:61,b_sky:0
$[AGT],24,av:65,b_sky:0
$[AGT],25,av:69,b_sky:0
$[AGT],26,av:69,b_sky:0
$[AGT],27,av:73,b_sky:0
$[AGT],28,av:115,b_sky:0
$[AGT],29,av:73,b_sky:0
$[AGT],30,av:67,b_sky:0
$[AGT],31,av:115,b_sky:0
$[AGT],Eend:1, Send:1, ct:1
$[AGT],wkbee
$[AGT],s,1,m,2
$[AGT],idle
$@#$^ [AGNT] sBi
048314.008,HBD,IF1,MSG,AidEPO,SV,16,ret,1
048314.008,HBD,IF1,MSG,AidEPO,SV,17,ret,1
048314.008,HBD,IF1,MSG,AidEPO,SV,18,ret,1
048314.008,HBD,IF1,MSG,AidEPO,SV,19,ret,1
048314.008,HBD,IF1,MSG,AidEPO,SV,20,ret,1
048314.008,HBD,IF1,MSG,AidEPO,SV,21,ret,1
048314.008,HBD,IF1,MSG,AidEPO,SV,22,ret,1
048314.008,HBD,IF1,MSG,AidEPO,SV,23,ret,1
048314.008,HBD,IF1,MSG,AidEPO,SV,24,ret,1
048314.008,HBD,IF1,MSG,AidEPO,SV,25,ret,1
048314.008,HBD,IF1,MSG,AidEPO,SV,26,ret,1
048314.008,HBD,IF1,MSG,AidEPO,SV,27,ret,1
048314.008,HBD,IF1,MSG,AidEPO,SV,28,ret,1
048314.008,HBD,IF1,MSG,AidEPO,SV,29,ret,1
048314.008,HBD,IF1,MSG,AidEPO,SV,30,ret,1
048314.008,HBD,IF1,MSG,AidEPO,SV,31,ret,1
048314.008,HBD,IF1,MSG,AidEPO,SV,32,path_2NG,ValidEPO,2,u4CurrGpsSecs,1137786983,u4GpsSecs,1137780000,seq,45,NAseq,0,Age_Epo,15,Naage,0,NaValidGEPO,0
048314.008,HBD,IF1,MSG,AidGLEP,SV,1,ret,1
048314.008,HBD,IF1,MSG,AidGLEP,SV,2,ret,1
048314.008,HBD,IF1,MSG,AidGLEP,SV,3,ret,1
048314.008,HBD,IF1,MSG,AidGLEP,SV,4,ret,1
048314.008,HBD,IF1,MSG,AidGLEP,SV,5,ret,1
048314.008,HBD,IF1,MSG,AidGLEP,SV,6,ret,1
048314.008,HBD,IF1,MSG,AidGLEP,SV,7,ret,1
048314.008,HBD,IF1,MSG,AidGLEP,SV,8,ret,1
048314.008,HBD,IF1,MSG,AidGLEP,SV,9,ret,1
048314.008,HBD,IF1,MSG,AidGLEP,SV,10,ret,1
048314.008,HBD,IF1,MSG,AidGLEP,SV,11,ret,1
048314.008,HBD,IF1,MSG,AidGLEP,SV,12,ret,1
048314.008,HBD,IF1,MSG,AidGLEP,SV,13,ret,1
048314.008,HBD,IF1,MSG,AidGLEP,SV,14,ret,1
048314.008,HBD,IF1,MSG,AidGLEP,SV,15,ret,1
048314.008,HBD,IF1,MSG,AidGLEP,SV,16,ret,1
048314.008,HBD,IF1,MSG,AidGLEP,SV,18,ret,1
048314.008,HBD,IF1,MSG,AidGLEP,SV,19,ret,1
048314.008,HBD,IF1,MSG,AidGLEP,SV,20,ret,1
048314.008,HBD,IF1,MSG,AidGLEP,SV,21,ret,1
048314.008,HBD,IF1,MSG,AidGLEP,SV,22,ret,1
048314.008,HBD,IF1,MSG,AidGLEP,SV,23,ret,1
048314.008,HBD,IF1,MSG,AidGLEP,SV,24,ret,1
048314.996,HBD,IF1,TIM,DSP,u1ChnNum,37,u2DataSize,57
048314.996,HBD,IF1,COM,BinDecX,65065
048314.996,HBD,IF1,TIM,DSP,u1ChnNum,48,u2DataSize,57
048315.000,HBD,IF1,COM,BinDecX,65065
048315.000,HBD,IF1,GPS,TkDltIn,11,13,2
048315.000,HBD,IF1,TIM,AcRCCEr,33,745,728,17,61,97
048315.000,HBD,IF1,TIM,NWloc,fgfirstUseNW,0,case,0,NWAID,0,NWUSE,0
048315.000,HBD,IF1,AGP,BOOST,Posdiff:84.296379,0.089786,num:0,PosConverge,0,BoostRemT,19.000
$LOC_Cache_BIT,00000002*7D
$DBnm_NLP,[24.975710,121.327984,0,25.000000][2016/1/25,19:55:55][0][1]*3D
$cache_pos,-3007983.222123,4941821.391456,2676700.814600,[1137786972]*69
$cache,1,17,0.175568*61
$cache,2,28,0.703552*60
$cache,3,6,-0.328445*7A
$DO_Err,mean,0.183558,std,0.421349*7E
$Cache_age,12,NLP_age,-99,NV_age,16*3F
048315.000,HBD,IF1,AGP,AGPSMGN,Posdiff:84.296379,0.089786,num:0,PosConverge,0,AGPSRemT,16.000
048315.000,HBD,IF1,TIM,RstFSAg,1.0

#MZYQ.AE1E3&1D

#XPda.A@BC3&43
048315.000,HBD,IF1,AGP,AGPSMGN,AGPSMode:-1,AGPSTimer:0.000
$PMTK015,48315001,10,1021,AMode,-1,ATimer,0.000,Remain,16.000*60
$PMTK015,48315001,6,1021,NACQ,3,NBS,3,NSFS,0,NEXS,0*6E
$HBD,INF,RTC,F,0,Y,16,M,1,D,25,H,19,M,56,Sec,7,Sub,28346,T,1003,SM,8350*08
$DBts1,TSOK,0,WNSet,1,TOWS,5,WN,1881,BAcc,285.201,TAcc,9999000.000,*6C
$DBts2,TTK,1011,TOW,158184.889000000,B,-0.000448653,D,0.000001162,*28
048315.000,HBD,IF1,ALO,CdmPvtU,
$HBD,INF,RTC,F,0,Y,16,M,1,D,25,H,19,M,56,Sec,7,Sub,28346,T,1003,SM,8350*08
$GNGGA,195607.889,2458.5408,N,12119.6752,E,0,0,,137.3,M,15.0,M,,*54
$GPGSA,A,1,,,,,,,,,,,,,2.30,2.07,1.00*05
$GLGSA,A,1,,,,,,,,,,,,,2.30,2.07,1.00*19
$GPGSV,3,1,12,193,73,083,36.0,28,66,195,35.1,17,57,005,35.5,19,54,357,*5D
$GPGSV,3,2,12,06,45,290,30.9,03,32,044,,23,17,103,,09,16,140,*6F
$GPGSV,3,3,12,02,14,263,,01,09,055,,30,05,192,,11,04,077,*7A
$GLGSV,3,1,9,71,50,149,,70,47,061,,85,38,038,,86,30,332,*50
$GLGSV,3,2,9,75,25,229,,76,25,289,,72,10,186,,84,10,083,*59
$GLGSV,3,3,9,69,03,026,*64
$GNRMC,195607.889,V,2458.5408,N,12119.6752,E,0.174,338.92,250116,,,N*53
$GNVTG,338.92,T,,M,0.174,N,0.323,K,N*2F
$GNACCURACY,21.9*2C
$PMTKDGP,0*4D
$PMTKDBG,1011,0,1,0,0,0,0,0,0,0,1,0,1,0,0,0,0,0,0,1,1,1,1,0,0,0,0,0,0,0,0,0,0,0028,0014,0002,0004,0004,0000,0001,0000,0.0000,1.1621,0.0000,0.0000,0.0000,0.0000,*4A
$PMTKDB2,0C1C,0000,0000,0000,0000,0000,0000,0000,0483.96,0000.00,11621.54,9999000.32,0000.11,-448.65,00-0.30,0000.00,*16
$PMTKEPH,41,1,-2.2.4,3,6,7,8,9,11,16,17,19,22,23,26,27,28,30,193,-65.2.4,-66.2.4,-67.2.4,-68.2.4,-69.2.4,-70.2.4,-71.2.4,-72.2.4,-73.2.4,-74.2.4,-75.2.4,-76.2.4,-77.2.4,-78.2.4,-79.2.4,-80.2.4,-82.2.4,-83.2.4,-84.2.4,-85.2.4,-86.2.4,-87.2.4,-88.2.4*5A
$PMTKALM,32,1,2,3,5,6,7,8,9,10,11,12,13,14,15,16,17,18,19,20,21,22,23,24,25,26,27,28,29,30,31,32,193*51

#WXM[.?0A2C4E6G8I:K<M>O@QBSDUFWHYJ[L]N_PaRcTeVgXiZk\m^o`qbsdufwhyj{l}npy&39
#NMQR.A0AC3D5FHMI^Qa^PSPgR[TUVWna_[\^_svebyezm{j}nns^sqt}{x|¶ǶϼѾհ³Ŷɹмο&D6
#NMQR.A0AD3H5FHMI^Qa^PSPgRUTUVWaac[`rdavabygg|lkijqn^qy{xxĵŹϿϾհ³Ŷʹͼο&97
#NMQR.A0AE3D5FHMI^Qa^PSPgfWjkVW]Ynqrq^g`fbyl{mxkkqt^tqrtuy}ôǿνξհ³Ŷ˹ͼο&77
#NMQR.A0AG3D5FHMI^Qa^PSPgSiTUVWnl[[qpeb`ebymkkiknq|^sqttxuzzyŷǽϽѾհ³Ŷȹ̼ο&23
#NMQR.A0AH3D5FHMI^Qa^PSPgUYTUVWkal[]^e`vcbyhzxnj|opt^sqryuz{}}øϾϾհ³Ŷȹ˼ο&52
#NMQR.A0AI3D5FHMI^Qa^PSPghVjkVW`lod_q_d`bbydf{jj~mt^qvwuwzz~|ŵϼξհ³Ŷȹ˼ο&C9
#NMQR.A0AJ3D5FHMI^Qa^PSPghVjkVW`a]]rqravsbyulzzklosno^rvqrzyǺ˻Ͼհ³Ŷȹμο&FF
#NMQR.A0AK3D5FHMI^Qa^PSPgVWTUVWklb]\d^_vvbykikjkrot}p^xqrzv|zĹǻƾհ³Ŷɹͼο&05
#NMQR.A0BB3D5FHMI^Qa^PSPghUjkVWaY`\\cqg`dbywnjpkkprq^xqqrytuy|ŽǿϿýƾհ³Ŷʹμο&56
#NMQR.A0BC3D5FHMI^Qa^PSPggijkVWilbnmqcavabydkgzliqqpm^qz|zw~|}ŷȷǷпľհ³Ŷ̹Ҽο&17
#NMQR.A0BD3D5FHMI^Qa^PSPgSZTUVWXak`^sgt`vbyzhymjr{pln^qqqtux}óñϾհ³Ŷ˹ϼο&8C
#NMQR.A0BE3D5FHMI^Qa^PSPgg\jkVW]]^lqebdvubyfmlikmkoqt^qtz|xy|²Ǿҿհ³Ŷȹμο&57
#NMQR.A0BF3D5FHMI^Qa^PSPggfjkVWkYom\]q`vubykh|mknnk^vqvxx|źǽϻľհ³Ŷȹ˼ο&D5
#NMQR.A0BG3D5FHMI^Qa^PSPghSjkVWmlaapfsfvvbyigk{kk|q^qqv||ƶɽǸϺѾհ³Ŷɹμο&A9
#NMQR.A0BH3D5FHMI^Qa^PSPgSfTUVWYa[[rnfr`tbymynkjrn^qvuy~ǼϿξհ³Ŷȹͼο&1A
#NMQR.A0BI3D5FHMI^Qa^PSPgh\jkVWl]ndqbs_vjbykkxykinrn^oqwszzzõʻǼϻžհ³Ŷȹ̼ο&FC
#NMQR.A0BJ3D5FHMI^Qa^PSPgTUTUVWiaam_rbq`ebyvjolk|{mu^tqz{uy{{ǼǷýƾհ³Ŷɹмο&A6
#NMQR.A0BK3D5FHMI^Qa^PSPghijkVWi]]onorcvibydjzokjm}t^rqqwuyǹŶǻϺհ³Ŷȹ̼ο&E1
#NMQR.A0CB3D5FHMI^Qa^PSPgS[TUVW_ao^___r`ebyilxkkrk|mq^sqtu{uy||ȸǼϻѾհ³Ŷɹ̼ο&D0
#NMQR.A0CC3D5FHMI^Qa^PSPggijkVW^abcnq``vebyxnmgkolrms^rq{{{Ŷǹհ³Ŷ̹Ҽο&24
#NMQR.A0CD3D5FHMI^Qa^PSPgfUjkVWX]^q_bo_`ebylyzhkznq^psqu||uz~|ùǻϺƾհ³Ŷɹ˼ο&7A
#NMQR.A0CE3D5FHMI^Qa^PSPggijkVWnaa^qospvubyhgo|kz|qq^tqw{ǻϼƾհ³Ŷɹͼο&86
#NMQR.A0CF3D5FHMI^Qa^PSPghejkVWkYb_rrs_vwbyfnlzkkktt^ssqtx}}}}·´пƾհ³Ŷɹμο&17
#NMQR.A0CG3D5FHMI^Qa^PSPgeZjkVWXl\cr_ps`vbyxn|jj|mruv^uqtttuyz}}òĶǿϾμξհ³Ŷɹͼο&7E
#NMQR.A0CH3D5FHMI^Qa^PSPgYSjkVWkY^lq_dp`ubywkoikikrq^qrwuuy{³ƺĶǾüžհ³Ŷȹ̼ο&58
#NMQR.A0CI3D5FHMI^Qa^PSPgSiTUVW\Y`p\doavsbyklk{kjjmor^prqsw{{{úǼ̿Ͼհ³Ŷȹ̼ο&D4
#NMQR.A0CJ3D5FHMI^Qa^PSPgSZTUVWY]^\`^tr`vbymiipj{sn^utq|u|~|~ųĴǻǽλϾհ³Ŷɹ̼ο&9A
#NMQR.A0CK3D5FHMI^Qa^PSPgR[TUVW\abnabgbvrbyx{j}kjrn^oqrszǵǻϾžհ³ŶʹԼο&BB
#NMQR.A0DB3D5FHMI^Qa^PSPgT[TUVW^ak[\otr`abydh{ikjo^tqrwuw|ǿϼоհ³Ŷȹ˼ο&59
#NMQR.A0DC3D5FHMI^Qa^PSPghUjkVWYa`n^bdf`abyde|kj|q^pqvt|uwyz{ǳϿžհ³Ŷȹ˼ο&6A
#NMQR.A0GG3D5FHMI^Qa^PSPgRWTUVW]ampqpcu`cbykzwzijmkp^uqrxuw~~~ŸȹȹϼľհóŶȹмӿ&0D
#NMQR.A0GH3D5FHMI^Qa^PSPgSSTUVWmal_]cdr`cbywyhxii~~n^tqruw|ĸɸȺϼ¾հƳŶȹмӿ&2B

#NM^Z.BB1CCEF6H8JKM<NNT@QBSD&08
#\XOU.?0BKF4HO7H9PO<ROQaARCX]VG\aZKaM``PbbhhjlWoqjmsn^vstscqv}zyz{nqv{~&2A
#\XOU.@0BI3HE6G8ON;QNP`@QBXXUF\\YJ`L_`OaaggikVokpmmp]bpw~}x}|l~osx{&D9
#\XOU.A0CJ3GN6G8ON;QNP`@QBWVUF[ZYJ`L__OaaggikVokrsrn]ywbpu~|}~||mpuz}&56
#\XOU.B0G2FH5F7NM:QQO_?PAS[TEW_XI_KbM__eegiTmilhpr[u`nxzv}w|j|mqvy}&91
#\XOU.C0BK3GF6G8MQ;SNPQ@QBSDUF\HZJ\\bbdfQjfkjloXlku]kttsxxwy~gyj||nsvz|&FF
#\XOU.D0CE3D5F7H9JKLM>O@QBSDXFWHYJ\\`baedRcdefWhYkkmn^o`qrstevgxizk|}~prtvxz&FD
#\XOU.AF1B3D5F7H9JKLM>O@QBSDUFWHYJ[L]^_`QbSdUfWhijk\m^o`qbstuvgxizk|m~oq&32
#\XOU.BG1DCF5F7H9J;QMNO@QBSDUFZHYJ[L_ahdaeSwexhXfmslrnqprxcuxfwhyz{|m~oqsxz}&30
#\XOU.CH1E3D5F7H9\LLM>O@QBSDXFWHZZ``bdOhddefjViynp[iowxqxs{xufx|izk|}~prtv{}&B8

#NM`a.@@BC3E5F7H9J;L=N?PQRSTUVWHYJ[L&52
#NLPT.@ID2DG5FGHL:PNNWMYARQTUXG[ba]LZb]haRcbefgXrhoq]&C6
#NLPT.@G1CF4EFGK9OMNSLU@QPSTVFXa`\KYa\gdQbadfmWqgnm\&92
#NLPT.AH1CF4EFGK9OMNRLT@QPSTVFZa`\KYb\bfQbaghnWqgnq\&9C
#NLPT.E0BE3DEFJ8NLMNKR?PORTTE_[XY`KYa\bcQbadklWiqhsu]&C3
#NLPT.@I1D3&0C
#NLPT.AC1C3&06

#NMMN.@0>CKGE6JQRP;MMOP@RRXXZ\GYZJ[LbN`eickhcnoqYj[&6E
#KL_c.@0IDHDLL7EMMTU=SV@ZBTDUF_XY]K&8F
#KL_c.A0IDIJHF7EJKL<RU?XATCTE^WX\J&47
#KL_c.B0IEEKJJ7EMOKO=SV@YBTDUF_XY[K&82
#KL_c.E0IEIEEG7EJJMU=SV@XBTDUF_XY[K&7A
#KL_c.H0IDJLHG7LPN;QT>W@RBSD]VW[I&30
#KL_c.@A1JEGFKO8FNNPT>TWA[CUEVG`YZ^L&B8
#KL_c.@G1JFKHHK8FPKU=SV@XBTDUF_XY[K&87
#KL_c.@I1JFKJLO8FRML=SV@XBTDUF_XY[K&8E
#KL_c.AC1JEKFGI8FOKL=SV@YBTDUF_XY]K&77
#KL_c.AH1JFMNMI8FLTUU>TWAYCUEVG`YZ\L&D1
#KL_c.B@1JEHFFH8FNKNP>TWAZCUEVG`YZ^L&A4
#KL_c.@ID2JLEHNI9GMRQO?UXBZDVFWHaZ[]M&E8
#KL_c.A@J2GEGNPO9GPRPW?UXBXDWFWHaZ[_M&F7
#KL_c.A@E2GENLHJ9GMUOS?UXBXDWFWHaZ[]M&E3
#KL_c.AAD2GENNNQ9RST=SV@VBUDUF_XY[K&9B
#KL_c.AAE2GEIHLM9LPNS>TWAWCVEVG`YZ^L&B4
#KL_c.A@I2GEKLIN9GPLPW?UXBXDWFWHaZ[_M&EA
#KL_c.A@H2GEKOJK9GMNMQ?UXBXDWFWHaZ[_M&E0
#KL_c.AAA2GEIFOH9GNPNN?UXBXDWFWHaZ[_M&D2
#KL_c.AAC2GEMKLN9GMLOU?UXBXDWFWHaZ[]M&E1
#KL_c.A@F2GELKPQ9GOLN>TWAWCVEVG`YZ^L&B5
#KLbg.?0CC3ENI7JQ:LS=OX@SSVDWV[H_J]]_NbPcbhTgfoXkjr\oq_yatcvvzgzzzk}mpsw&1D
#KLbg.@0C2EDG6IHL:&5E

#\Qpou/EAD3EGFPH9LO<M>V@SRY\EWZa]J^Ldb`bQigelVnlps[sqwq`qte{~j~oty~&C2

#NM`].@@BC3E5K7JMSRQTN?QSSVV\__HZ_]L^fgaQchlfnkpqs[mnqvwyx|z}ftzl}n&7E
#NP\U.G0BCFKLNKILN;`SROPQBSDUFWHYJ]m_dpsQxyzhV}|llm]pvydxzz}{kryų˿ɹ˪ű̸տ&E8
#NP\U.H0BCFKLMMHJJ;`SSOPQBSDUFWHYJ`m_btqQfgTlni{|Zp}oau|xz}{hov}ƳԱ۸ѿ&29
#NP\U.@A1CDGLMONRLT<aTTPQRCTEVGXIZKa^`eqtRyzz|Wy}r~oq^tqrezx}|lsz¸Ģʻȹѿٷо&E5
#NP\U.@F1CDGLMNNKJP<aTSQQRCTEVGXIZKc_`curRdwU|xiiks\tpouxcv~{~jqw~Ǵճɺ&2D
#NLXZ.F0AB3EMNH8MQO]NN?TfSSe[Fml^_[\Mo``ubkTl|ol}[uovxbuw|i}|}p&BA
#NLXZ.G0AB3EMNH8MRKaUT?TfRf][Fml\Z[\Mo``tstTyixkj{[rtrb{xwwyi|}~p&BE
#NLXZ.H0AB3EMNH8MSKQMT?TfR[Z[Fml\`[\Mo``tteTjip}k~[pvsbxywxi{|o&52
#NLXZ.@@1BC4FNOI9N\LU`V@UgSfUiGnm_d\]NpaavdwUhphrj\uvtscv|zjp&DD
#NLXZ.@A1BC4FNOI9N]TQca@UghU]]GnmZa\]NpaautjU{}{{|l\pc{yj}~q&5C
#NLXZ.@B1BC4FNOI9N^NcQ`@UgTjW[Gnm`l\]NpaaucfUwyk~n~\nssuwcz{xj}}~q&EC
$[AGT],GSET=1
$[AGT],rm,1,rt,1
$[AGT],fsm,wm,2
$[AGT],rv PMTKRQTEPH,1881,158184,2,2,4
$[AGT],GSET=1
$[AGT],rm,1,rt,7
$[AGT],fgFirstReq:0
$[AGT],bitmap,old: 308,new: 108
$[AGT],skip re_agps_req
$[AGT],GSET=1
$[AGT],rm,4,rt,9
$[AGT],inco
$[AGT],sel SI
$[AGT],rm,4
$[AGT],state:4
$[AGT],state:4
$[AGT],wkssi
$[AGT],s,1,m,3
$[AGT],idle
$[AGT],send aosp AGPS req
048315.008,HBD,IF1,BOT,MNLVer,AXN_3.70,1312,MNL_VER_15091601ALPS05_3.70_03,39,76
048316.000,HBD,IF1,TIM,DSP,u1ChnNum,37,u2DataSize,57
048316.000,HBD,IF1,COM,BinDecX,65065
048316.000,HBD,IF1,TIM,DSP,u1ChnNum,48,u2DataSize,57
048316.000,HBD,IF1,COM,BinDecX,65065
048316.000,HBD,IF1,GPS,TkDltIn,1011,1016,5
048316.000,HBD,IF1,TIM,NWloc,fgfirstUseNW,0,case,0,NWAID,0,NWUSE,0
048316.000,HBD,IF1,AGP,BOOST,Posdiff:154.762115,0.672110,num:7,PosConverge,1,BoostRemT,18.000
$Boost, flag on*64
$MTK_GPS_BEST,5,2011,PR,7,TT4SV,1011*24
$LOC_Cache_BIT,00000002*7D
$DBnm_NLP,[24.975710,121.327984,0,25.000000][2016/1/25,19:55:55][0][1]*3D
$cache_pos,-3007983.222123,4941821.391456,2676700.814600,[1137786972]*69
$cache,1,17,0.414871*66
$cache,2,28,-0.319519*4D
$cache,3,6,0.053192*57
$cache,4,19,-0.853577*44
$cache,5,23,-0.179214*4F
$cache,6,3,0.459045*52
$DO_Err,mean,-0.070867,std,0.450618*58
$Cache_age,13,NLP_age,-99,NV_age,17*3F
048316.574,HBD,IF1,AGP,AGPSMGN,Posdiff:154.762115,0.672110,num:0,PosConverge,0,AGPSRemT,16.000
048316.574,HBD,IF1,TIM,RstFSAg,2.0

#XPda.B@BC3&44

#MZYQ.@B1UFE5H7KPN_<&E1

#MZYQ.AH1HG4&57
048316.574,HBD,IF1,AGP,AGPSMGN,AGPSMode:-1,AGPSTimer:0.000
$PMTK015,48316574,10,2581,AMode,-1,ATimer,0.000,Remain,16.000*68
048316.574,HBD,IF1,AGP,AGPSMGN,DOP.H :1.316264,PosCon:0,[35.817829,30.604919,3.578584]
$PMTK015,48316574,6,2581,NACQ,6,NBS,6,NSFS,0,NEXS,0*66
$HBD,INF,RTC,F,0,Y,16,M,1,D,25,H,19,M,56,Sec,8,Sub,28385,T,2004,SM,11629*3F
$DBts1,TSOK,1,WNSet,1,TOWS,9,WN,1881,BAcc,19.671,TAcc,19.671,*6D
$DBts2,TTK,2011,TOW,158185.889000000,B,-0.000447475,D,0.000001168,*29
048316.574,HBD,IF1,TIM,HALTIME,0,
048316.574,HBD,IF1,TIM,HALTSTA,0,
$RtcAcc,InitTick,1.000000000,InitTow,158183.879432363,Accus,-17.458*34
048316.574,HBD,IF1,ALO,CdmPvtU,
$HBD,INF,RTC,F,0,Y,16,M,1,D,25,H,19,M,56,Sec,8,Sub,28385,T,2004,SM,11629*3F
$GNGGA,195608.889,2458.5473,N,12119.6769,E,1,7,1.32,137.0,M,15.0,M,,*44
$GPGSA,A,3,193,17,28,06,19,23,03,,,,,,1.60,1.32,0.91*36
$GLGSA,A,3,,,,,,,,,,,,,1.60,1.32,0.91*11
$GPGSV,3,1,12,193,73,083,34.0,28,66,195,34.2,17,57,005,34.4,19,54,357,29.8*40
$GPGSV,3,2,12,06,45,290,29.6,03,32,044,31.3,23,17,103,34.4,09,16,140,*6A
$GPGSV,3,3,12,02,14,263,,01,09,055,,30,05,192,,11,04,077,*7A
$GLGSV,3,1,9,71,50,149,,70,47,061,,85,38,038,,86,30,332,*50
$GLGSV,3,2,9,75,25,229,,76,25,289,,72,10,186,,84,10,083,*59
$GLGSV,3,3,9,69,03,026,*64
$GNRMC,195608.889,A,2458.5473,N,12119.6769,E,1.306,179.08,250116,,,A*42
$GNVTG,179.08,T,,M,1.306,N,2.420,K,A*24
$GNACCURACY,6.8*18
$PMTKDGP,0*4D
$PMTKDBG,2011,1,1,0,0,0,0,0,1,0,0,0,0,0,0,0,0,0,0,1,1,1,1,1,0,0,0,0,0,0,0,0,1,0028,0035,0002,0007,0007,0000,0001,0000,0.0000,1.1675,0.0000,0.0000,0.0000,0.0000,*4B
$PMTKDB2,0D11,0000,0000,0000,0000,0000,0000,0000,0047.11,1167.96,11675.92,0019.67,00-0.20,-447.47,00-0.30,0000.00,*4D
$PMTKEPH,41,1,-2.2.4,3,6,7,8,9,11,16,17,19,22,23,26,27,28,30,193,-65.2.4,-66.2.4,-67.2.4,-68.2.4,-69.2.4,-70.2.4,-71.2.4,-72.2.4,-73.2.4,-74.2.4,-75.2.4,-76.2.4,-77.2.4,-78.2.4,-79.2.4,-80.2.4,-82.2.4,-83.2.4,-84.2.4,-85.2.4,-86.2.4,-87.2.4,-88.2.4*5A
$PMTKALM,32,1,2,3,5,6,7,8,9,10,11,12,13,14,15,16,17,18,19,20,21,22,23,24,25,26,27,28,29,30,31,32,193*51

#WXM[.?0A2C4E6G8I:K<M>O@QBSDUFWHYJ[L]N_PaRcTeVgXiZk\m^o`qbsdufwhyj{l}npy&39
#NMQR.A0GI3D5FHMI^Qa^PSPgR\TUVW\]pd\dth`bbyumy|ii~tr^orqrwuwzz{ȺνհǳŶȹмӿ&1A
#NMQR.A0GJ3D5FHMI^Qa^PSPgRhTUVWjY^a]a_g`cbylygkii~rr^qrsvux||}³ȻοհȳŶȹмӿ&F3
#NMQR.A0GK3D5FHMI^Qa^PSPghYjkVWma[m\]rh`cbyxzl}ijp~ut^vqrwwuxy|~·ĶȺϾ¾հóŶɹмӿ&D7
#NMQR.A0HB3D5FHMI^Qa^PSPgRXTUVWmln[\nar`dbymh{lijpov^usqrwvux}ƻȺϻýþհƳŶȹмӿ&F6
#NMQR.A0HC3D5FHMI^Qa^PSPghhjkVWZl^]rsbc`cbyfk{|iiov^yqrswux|~ȻϼýþհǳŶȹмӿ&D7
#NMQR.A0HD3D5FHMI^Qa^PSPgRSTUVWiYa_rpsq`bbyywxoii~nlo^qruw}ǼȺýþհȳŶȹмӿ&4D
#NMQR.A0HE3D5FHMI^Qa^PSPgR\TUVWYY^m\`fb`gbymenohrlqnq^pqsu{{~÷ȽϿξհĳŶȹмӿ&A2
#NMQR.A0HF3D5FHMI^Qa^PSPgRZTUVWklma\]ts`fbydxmohopmt^qru{{~}÷ƶȿϽžհɳŶȹмӿ&62
#NMQR.A0HG3D5FHMI^Qa^PSPgRYTUVWnlp`\_sh`gbyiz|pho}r^rqqruwu|ȿϾľհ³Ŷȹмӿ&BB
#NMQR.A0HH3D5FHMI^Qa^PSPgReTUVWYa`d\a`u`hbywlzxhq|osp^uyqsvu|yǹȾȽžհóŶȹмӿ&46
#NMQR.A0HI3D5FHMI^Qa^PSPghgjkVWZYaa\^gf`gbyxzwmhpqsq^xyqrtwu|}|ĸǻȾƾհĳŶȹмӿ&9E
#NMQR.A0HJ3D5FHMI^Qa^PSPgTeTUVW[ln\^`gr`gbylwnnhonstr^uxqryu|zòùȿϽƾհɳŶȹмӿ&73
#NMQR.A0HK3D5FHMI^Qa^PSPgRYTUVWna\c\era`fbyykl}hoonqm^vqszu{y{}ðľհ³Ŷȹмӿ&D3
#NMQR.A0IB3D5FHMI^Qa^PSPgRdTUVWmlnn\`aa`gbyig{phq}o^qqsyu{{{óŹȾͿžհóŶȹмӿ&63
#NMQR.A0ID3D5FHMI^Qa^PSPgRiTUVWml^p\occvhbymvgkh|~pqu^qrx}~w}|ɻȹϻҽհųŶȹмӿ&84
#NMQR.A0IE3D5FHMI^Qa^PSPgh[jkVWZYmdqpdcvhbyvfynhzp~^tqryy~}{|ŶȺҿհųŶɹмӿ&D6
#NMQR.A0IF3D5FHMI^Qa^PSPghSjkVWa]kdq`ebvhbyiik{h{~nor^vqr{t~{ĶºƹȺҿհĳŶɹмӿ&6D
#NMQR.A0IG3D5FHMI^Qa^PSPgRhTUVW\l__\cecvhbymxhih}tnt^tyqrw~{{z´ŴȹοҽհƳŶȹмӿ&D9
#NMQR.A0IH3D5FHMI^Qa^PSPgReTUVWZan`]efavgbydxyzh{opv^wqs|}|}|ǷǷȺϿҾհųŶɹмӿ&28
#NMQR.A0II3D5FHMI^Qa^PSPgffjkVWXY^nrcstvgbyufwhh{|pu^pxqr}}zy{ĴȺ̿ҾհųŶɹмӿ&93
#NMQR.A0IJ3D5FHMI^Qa^PSPghgjkVW`lbnqrcrvhbymhjxh|l~u^uqrw~ĹȹϿҾհĳŶɹмӿ&64

#NM^Z.BB1DCEF6H8JKN<NNT@QBSD&0A
#\XOU.?0BKF4HM7H9PO<SQQcARCUXXWHZ]]\McObhRddjjloYlqtttx`yzesx||psx}&FD
#\XOU.@0BI3GM6G8ON;RNPb@QBTW[VGY\`[LbNafQcciiknXllptor_xudrzw~z~nqv{~&66
#\XOU.A0CJ3GL6G8ON;RNPb@QBTVYVGY[^[LbNaeQcciiknXllsptn_yxdrw~{}~orw|&C7
#\XOU.B0G2FH5F7NM:RQO_?PASTTUFXYYZKaM_aPbbhhjmWkknqln^tsqcq{}y|~mpuz}&E9
#\XOU.C0BK3GF6G8ON;RNP`@QB[\UF_`YJ`L^^OaaggilVjjojqt]wprubpyyvx~|}}l~osx{&46
#\XOU.D0CE3GM6G8ON;QNP`@QBY\UF]`YJ`L_cOaaggilVjinpln]uzbpwxx}}}lnrwz~&C1
#\XOU.E0D2FG5F7NM:RMO_?PAYUTE]YXI_K]^N``ffhkUiiikol\aou}z~yz}l~oty|&72
#\XOU.F0DB3D5F7H9\LLM>O@QBSDXFWHZZ``beOcbdhmfVnizn[iotvpv{utufy~i}{l}~qsuw|~&0F
#\XOU.G0J2C4E6G8[KKL=N?PARCWEVGYY__adNbageehUjkh|Zmsssuqztc}evgxyz{l}nprwy|~&F9
#\XOU.H0C2FE5F7LP:SMOP?PARCTE[GYI[[aacfPdchehfWzi{~\juxxq{x{exh|k|}~pswy~&A7
#\XOU.@@1C3D5F7H9\LLM>O@QBSDXFWHZZ``beOcbehjkVjklk[iowpwqrzw{fyizk|}~prtv{}&98
#\XOU.@E1DDG5K7H9MM<_OOPARCTEVG]IZKd_cehQfdmkhjXzol}]rvpuyy}{fxyiwnsuwy~&D7
#\XOU.@F1DDG5F7H9J;UNNO@QBSDUFZHYJc^bdgPecllllWlprq\rvpyv{y|egxiz{|}nprty{~&A4
#\XOU.@G1DCH5HL8I:NN=WPPQBSDUFWH^J[Le`dfiRgenlgoYjqlr^lqyv|yw}|yi{}l~qvxz|&4C
#\XOU.@H1DCH5F7H9J;UNNO@QBSDUFZHYJc^bdgPecljenWil{\joxqw{u|uvgizk|}~prtv{}&FF
#\XOU.@I1DCI5HH8I:NN=WPPQBSDUFWH^J[Le`dfiRgelkplYnlv^lqzxzwyzwhz|k}otvxz&EE
#\XOU.A@1DCI5HJ8I:NN=WPPQBSDUFWH^J[Le`dfiRgelkpnYqq^lqzyu}}wwhz}k~}nsuwy~&C3
#\XOU.AA1DCI5F7H9J;UNNO@QBSDUFZHYJc^bdgPecjinkW|s}\jpurx{|w{fhyj{|}~oqsuz|&EF
#\XOU.AB1DCL5F7H9J;UNNO@QBSDUFZHYJc^bdgPecijggWnrq\jqrpsux}uzgizk|}~prtv{}&EF
#\XOU.AC1DCK5F7H9J;UNNO@QBSDUFZHYJc^bdgPecimgoWl~ml\josttyx|u~gizk|}~prtv{}&F7
#\XOU.AD1DDH5F7H9J;UNNO@QBSDUFZHYJc^bdgPecgfjhW{{o\nttuuu|w{fhyj{|}~oqsuz|&DF
#\XOU.AE1DDD5F7H9J;UNNO@QBSDUFZHYJc^bdgPecgdlkW}}ko\jpqsuyz{{vgizk|}~prtv{}&F8
#\XOU.AF1D3D5F7H9SLLM>O@QBSD[FWHZZ``beOcbgdgeV}}lm[itpvtu{ydw~gxiz{|}nqsuz|&94
#\XOU.BG1DDF5F7H9J;UNNO@QBSDUFZHYJc^bdgPeckgefWm}o\jorryvtx|xgizk|}~prtv{}&F8
#\XOU.CH1K3D5F7H9QLLM>O@QBSD[FWHZZ``beOcbgemkVpjjo[pmpryrrwdw~gxiz{|}nprty{~&4A

#NM`a.A@BC3E5F7H9J;L=N?PQRSTUVWHYJ[L&53
#NLPT.@ID2DG5FGHL:HOKR?POTYYEWW_YJ[Z^bO`_bdhUjepoZ&1F
#NLPT.@G1CF4EFGK9LIO=NMPUTCUU]WHVZY]]N_^akiTidonY&E7
#NLPT.AH1CF4EFGK9KIM=NMPTUCUU]WHVZY]^N_^aegTidonY&DF
#NLPT.E0BE3DEFJ8FJIR=NMPV[CUVYXHYX[dM^]`abSicljX&B0
#NLPT.@I1CF4EFGK9LSJN>PNRTTDW[_[I[Y^^N`^abcTfgepqZ&20
#NLPT.AC1CF4EFGK9OIO=NMPXWCVUZ^HYX[^M^]`abSmcnoX&BE
#NLPT.B0BE3DEFJ8JHO<MLOWSBUUU\GUYX[_M^]`ccSeednlY&D6
#NLPT.B@1C3&04
#NLPT.H0B2&DA
#NLPT.A0C2&D4
#NLPT.@0B2&D2
#NLPT.AAD2E4&38
#NLPT.AAD2F4&39
#NLPT.A@E2E4&38
#NLPT.A@E2F4&39
#NLPT.A@F2F4&3A
#NLPT.A@F2E4&39
#NLPT.A@F2F4&3A
#NLPT.A@I2D4&3B
#NLPT.A@H2D4&3A
#NLPT.AAE2D4&38
#NLPT.AAA2D4&34
#NLPT.A0D2&D5

#NMMN.@0>CKGN6JQQK;NMOP@RRXXZ]GYZJ[LfN`eickicnoqYj[&78
#KL_c.@0DCFILI7EMNLL=RQ@UBTDXF_XY]K&71
#KL_c.A0DCHEHF7EJKT<QP?TWBUDUF_XY]K&6F
#KL_c.B0DDDFJG7EMOLO=RQ@UBTDXF_XY[K&6D
#KL_c.E0DDGJEG7EJJNS=RQ@UBTDXF_XY[K&70
#KL_c.H0DCIGHG7LOS;PO>S@RBVD]VW[I&21
#KL_c.@A1EDEKKL8FNNQS>SRAVCUEYG`YZ^L&AA
#KL_c.@G1EEIMHK8FPLU=RQ@UBTDXF_XY[K&7F
#KL_c.@I1EEJELO8FRNL=RQ@UBTDXF_XY[K&7D
#KL_c.AC1EDIKGI8FOKT=RQ@UBTDXF_XY]K&75
#KL_c.AH1EELIMG8FMKLQ>SRAVCUEYG`YZ\L&A8
#KL_c.B@1EDFJOP8FNKNT>SRAVCUEYG`YZ^L&AE
#KL_c.@ID2EJMMMQ9GMRQW?TSBWDVFZHaZ[]M&F7
#KL_c.A@J2GEGNPM9GPRRO?TSBWDWFZHaZ[_M&EB
#KL_c.A@E2GENLHI9GMUPR?TSBWDWFZHaZ[]M&DE
#KL_c.AAD2GENNNQ9RSN=RQ@UBUDXF_XY[K&91
#KL_c.AAE2GEIHLM9LPNN>SRAVCVEYG`YZ^L&AB
#KL_c.A@I2GEKLIM9GPLQS?TSBWDWFZHaZ[_M&E2
#KL_c.A@H2GEKOJJ9GMNNQ?TSBWDWFZHaZ[_M&DC
#KL_c.AAA2GEIFNQ9GNPNV?TSBWDWFZHaZ[_M&DE
#KL_c.AAC2GEMKLM9GMLPU?TSBWDWFZHaZ[]M&DD
#KL_c.A@F2GELKPQ9GOMO>SRAVCVEYG`YZ^L&B3
#KLbg.?0CC3ENI7JQ:LS=OX@SSVDWV[H_J]]_NbPcbhTgfoXkjr\oq_yatcvvzgzzzk}mpsw&1D
#KLbg.@0C2EDG6IHL:&5E

#\Qpou/AIC3EGFPK9L;L=N?PASW]]VGYY_^Ldb_bQigkgVnqlj[sutq`qtue}j~oty~&BA
#NP\U.@G1CDGLMONRLT<aTTPQRCTEVGXIZK]r`eqtRyz{oW}n~t}q^p{wteyw|{{lszǽºĵϼ&A0
#NP\U.@I1CDGLMONRLT<aTTPQRCTEVGXIZKbf`eqtRyz{|Wz{mu^uy{vweyx|lszǣү׶ͽ&17
#NP\U.AB1CDGLMNNNOK<aTSPQRCTEVGXIZK^q`curRyzyhWknnlq^qqwyvey~l~syšʸ½ӯٶͽ&AA
#NP\U.AC1CDGLMONRLT<aTSPQRCTEVGXIZK^f`eqtRyzz|W}{qntm^qyteylszɹ°˷Ӿ&A6
#NLXZ.@C1BC4FNOI9N_NSQV@UgTWXXGnm^_\]NpaavcdUkooop|\rnrxvcuujq&F4
#NLXZ.@D1BC4FNOI9N`PQNP@UgSiYgGnm]p\]NpaavgdUkm~|l~\nxuvcy~}zjo&B3
#NLXZ.@E1BC4FNOI9NaPNbc@Ugi\^_Gnm\\\]NpaavvhUkhqq||\nqtxwcw|~j}~q&0E
#NLXZ.@F1BC4FNOI9OKPRRX@UgTj\_Gnm`d\]NpaavgiUwzhjk\upb{y}i|}p&CA
#NLXZ.@G1BC4FNOI9OLQVae@UgTYWgGnm]n\]NpaaulyUzlzo{n\nrqcyx|yj}~q&04
#NLXZ.@H1BC4FNOI9OMTTWQ@UgiX]lGnm]p\]NpaauwgUhohp|\osxc}}|~j~}~q&05
$[AGT],GSET=2
$[AGT],rm,1,rt,7
$[AGT],fgFirstReq:0
$[AGT],bitmap,old: 108,new: 108
$[AGT],fsm,wm,3
$[AGT],skip
048317.000,HBD,IF1,TIM,DSP,u1ChnNum,37,u2DataSize,57
048317.000,HBD,IF1,COM,BinDecX,65065
048317.000,HBD,IF1,TIM,DSP,u1ChnNum,48,u2DataSize,57
048317.000,HBD,IF1,COM,BinDecX,65065
048317.000,HBD,IF1,GPS,TkDltIn,2011,2592,581
048317.000,HBD,IF1,TIM,NWloc,fgfirstUseNW,0,case,0,NWAID,0,NWUSE,0
048317.004,HBD,IF1,AGP,BOOST,Posdiff:0.352798,0.188527,num:8,PosConverge,1,BoostRemT,17.000
$Boost, flag on*64

#MZYQ.C@1B3&17
$LOC_Cache_BIT,00000002*7D
048317.004,HBD,IF1,AGP,AGPSMGN,Posdiff:0.352798,0.188527,num:0,PosConverge,0,AGPSRemT,16.000
048317.004,HBD,IF1,TIM,RstFSAg,3.0

#MZYQ.AE1B3&1A

#XPda.CACD3&48

#MZYQ.@B1CCEN6I8LRSL=&F6

#MZYQ.AH1HG4&57
048317.004,HBD,IF1,AGP,AGPSMGN,AGPSMode:-1,AGPSTimer:0.000
$PMTK015,48317004,10,3011,AMode,-1,ATimer,0.000,Remain,16.000*66
048317.004,HBD,IF1,AGP,AGPSMGN,DOP.H :1.151700,PosCon:0,[22.689720,18.140533,3.027336]
$PMTK015,48317005,6,3011,NACQ,8,NBS,8,NSFS,0,NEXS,0*69
$HBD,INF,RTC,F,0,Y,16,M,1,D,25,H,19,M,56,Sec,9,Sub,28416,T,3005,SM,10919*3E
$DBts1,TSOK,1,WNSet,1,TOWS,9,WN,1881,BAcc,14.456,TAcc,14.456,*6D
$DBts2,TTK,3011,TOW,158186.889000000,B,-0.000446305,D,0.000001171,*22
$RtcUpdate,TOW,158186.889000000,*00
048317.004,HBD,IF1,TIM,HALTIME,0,
048317.004,HBD,IF1,TIM,HALTSTA,0,
048317.004,HBD,IF1,TIM,HALTIME,2,REST
$RtcAcc,InitTick,1.000000000,InitTow,158183.879432363,Accus,-17.468*37
048317.004,HBD,IF1,ALO,CdmPvtU,
$HBD,INF,RTC,F,0,Y,0,M,0,D,0,H,0,M,0,Sec,0,Sub,0,T,0,SM,0*02
$GNGGA,195609.889,2458.5476,N,12119.6771,E,1,8,1.15,137.2,M,15.0,M,,*41
$GPGSA,A,3,193,17,28,06,19,23,03,02,,,,,1.41,1.15,0.81*33
$GLGSA,A,3,,,,,,,,,,,,,1.41,1.15,0.81*16
$GPGSV,3,1,12,193,73,083,33.0,28,66,195,33.0,17,57,005,33.5,19,54,357,28.4*49
$GPGSV,3,2,12,06,45,290,29.2,03,32,044,29.8,23,17,103,33.5,09,16,140,*6A
$GPGSV,3,3,12,02,14,263,27.8,01,09,055,20.1,30,05,192,,11,04,077,*74
$GLGSV,3,1,9,71,50,149,,70,47,061,,85,38,038,,86,30,332,*50
$GLGSV,3,2,9,75,25,229,,76,25,289,,72,10,186,,84,10,083,*59
$GLGSV,3,3,9,69,03,026,*64
$GNRMC,195609.889,A,2458.5476,N,12119.6771,E,0.366,183.42,250116,,,A*43
$GNVTG,183.42,T,,M,0.366,N,0.679,K,A*24
$GNACCURACY,5.4*17
$PMTKDGP,0*4D
$PMTKDBG,3011,1,1,0,1,0,0,0,1,0,0,0,0,0,0,0,0,0,0,1,1,1,1,1,0,0,0,0,0,0,0,0,1,0028,0035,0002,0008,0008,0000,0001,0000,0.0000,1.1714,0.0000,0.0000,0.0000,0.0000,*4D
$PMTKDB2,0D13,0000,0000,0000,0000,0000,0000,0700,0029.05,0000.00,11714.61,0014.46,00-0.15,-446.31,00-0.30,0000.00,*49
$PMTKEPH,41,1,-2.2.4,3,6,7,8,9,11,16,17,19,22,23,26,27,28,30,193,-65.2.4,-66.2.4,-67.2.4,-68.2.4,-69.2.4,-70.2.4,-71.2.4,-72.2.4,-73.2.4,-74.2.4,-75.2.4,-76.2.4,-77.2.4,-78.2.4,-79.2.4,-80.2.4,-82.2.4,-83.2.4,-84.2.4,-85.2.4,-86.2.4,-87.2.4,-88.2.4*5A
$PMTKALM,32,1,2,3,5,6,7,8,9,10,11,12,13,14,15,16,17,18,19,20,21,22,23,24,25,26,27,28,29,30,31,32,193*51

#WXM[.?0A2C4E6G8I:K<M>O@QBSDUFWHYJ[L]N_PaRcTeVgXiZk\m^o`qbsdufwhyj{l}npy&39

#NM^Z.BB1ECEF6H8JKN<NNT@QBSD&0B
#\XOU.?0BKF4HL7H9PO<SQQcARCVV\WH[[a\McObcRddjjloYkmunuuxaruufty~{qty~&2F
#\XOU.@0BI3GK6G8ON;QNPb@QBUVUVGZ[Z[LbNacQcciiknXjmotups`svsyes{x|{orw|&97
#\XOU.A0CJ3GK6G8ON;RNPb@QBUT]VGZYb[LbNacQcciiknXjmpmqtw`vvxesx~~psx}&99
#\XOU.B0G2FG5F7NM:RQO_?PATS\UFYXaZKaM__PbbhhjmWilnrrmn_xzxdr||}nqv{~&4E
#\XOU.C0BK3GF6G8ON;SNP`@QBT\]VGYab[LbNfPbbhhjmWilntlsv_psvwdr{{z}}~nqv{~&EA
#\XOU.D0CE3GL6G8ON;RNPb@QBTYUVGY^Z[LbNacQcciiknXjmntsoq`s{||esz{}}oqv{~&B0
#\XOU.E0D2FG5F7NM:RMO_?PASYZUFX^_ZKaM_aPbbhhjmWilnonqv_vdrx~z~~orw|&25
#\XOU.F0DB3D5F7H9\LLM>O@QBSDXFWHZZ``beOadehimnW|mr\jpupryz}wvgzj~|m~rtvx}&66
#\XOU.G0J2C4E6G8[KKL=N?PARCWEVGYY__adN`cdkffiVpmm[oqsrwuyud~fwhyz{|m~oqsxz}&38
#\XOU.H0C2EM5F7NM:SMO_?PA[WTE_[XI_KbM__eegjTfijpjmk\vnsao{u|w}~jl~pux|&25
#\XOU.@@1C3FH6G8NR;]RP`@QBUTEXWH^J\L^^ddfiSehimmpj[utt`nt{}w|yy|k~nsx{&F9
#\XOU.@E1DDG5O7H9KR<_OQRARCTEVG]I[Kd_ceiQfdmkhjX}}]ruvtxxzufxyiw|}otvy{&5F
#\XOU.@F1DDF5GG8I:LT=WPRSBSDUFWH^J\Le`dfjRgemkjiYqsn^lqtvz|yzx~ik}puwz|&65
#\XOU.@G1DCH5HJ8I:NN=WPPQBSDUFWH^J[Le`dfjRgenlgnYkso^lqyvxvu|}i{|lqvxz|&57
#\XOU.@H1DCH5GO8I:NN=WPPQBSDUFWH^J[Le`dfjRgenlhhYqnr^lqywsu~~yi{l~qvxz|&46
#\XOU.@I1DCI5HG8I:NN=WPPQBSDUFWH^J[Le`dfjRgelkplY~|s^lqzvyy|}~hz{kotvxz&27
#\XOU.A@1DCI5HI8I:NN=WPPQBSDUFWH^J[Le`dfjRgelkpnYpp^lqzxx{{||hz|kotvxz&0B
#\XOU.AA1DCI5HI8I:NN=`PPQBSDUFWH^J[Le`dfjRgeljmmYq|tm^lqyrzu}}yhzknsuwy~&C5
#\XOU.AB1DCH5HJ8I:NN=WPPQBSDUFWH^J[Le`dfjRgenlgpYsl~^lqywtxuxzyik~otvxz&FD
#\XOU.AC1DDG5F7H9J;^PNO@QBSDUFZHYJc^bdhPecllllWln{t\ruwpsyxvexyhyj{|}~oqsuz|&D4
#\XOU.AD1DCH5F7H9J;^PNO@QBSDUFZHYJc^bdhPecljemWiprs\joxrszuzwzgzzj{l}~qsuw|~&1E
#\XOU.AE1DDF5F7H9J;^PNO@QBSDUFZHYJc^bdhPeckijgWmjs\jorsu{y|xxgyj{l}~qsuw|~&30
#\XOU.AF1B3D5F7H9JKLM>O@QBSDUFWHYJ[L]^_`QbSdUfWhijk\m^o`qbstuvgxizk|m~oq&32
#\XOU.BG1DCL5F7H9J;UPNO@QBSDUFZHYJc^bdhPecigknWnz{k\jqrpwt|uwvgy~j{l}~qsuw|~&27
#\XOU.CH1K3D5F7H9QLLM>O@QBSD[FWHZZ``beOadekfnlW~qm}\qnqszssxe~gxiz{|}nprty{~&70

#NM`a.B@BC3E5F7H9J;L=N?PQRSTUVWHYJ[L&54
#NLPT.@ID2DG5FGHL:HQKU?POSS\E\Y^IW\Zb`O`_dlgUgepqZ&2E
#NLPT.@G1CF4EFGK9GLJQ>ONQSSD[X]HV[Y\dN_^aihTfdooY&E7
#NLPT.AH1CF4EFGK9JIP=NMPSTCZW\GU[X\\M`]gacSecnoX&B8
#NLPT.E0BE3DEFJ8FKIQ=NMPQWCZ]]GUZX_aM^]cbcSfcmmX&BB
#NLPT.@I1CF4EFGK9KRJV>ONUVVDV\W`IW[Zf^O`_bcdUleqrZ&30
#NLPT.AC1CF4EFGK9NIM=NMRQVCUU]YHV[YdeN_^ghlTidooY&FD
#NLPT.B0BE3DEFJ8FMIM=NMPYTCUVYXHV[Y\_N_^adeTjdmkY&D3
#NLPT.B@1C3&04
#NLPT.H0B2&DA
#NLPT.A0BE3LEFJ8FMIT=NMPQXCYZWZHV[Y\cN_^accTfjeprZ&1E
#NLPT.@0BE3DEFG8IHK<MLOPQBSDUTWXIZY\]^O`_bcT&BB
#NLPT.AAD2E4&38
#NLPT.AAC2E4&37
#NLPT.A@E2E4&38
#NLPT.A@E2F4&39
#NLPT.A@F2F4&3A
#NLPT.A@F2E4&39
#NLPT.A@F2F4&3A
#NLPT.A@E2F4&39
#NLPT.AAD2F4&39
#NLPT.A@E2F4&39
#NLPT.AAC2F4&38

#NMMN.@0>CKHJ6JQPL;OMOP@RRXXZ]GYZJ[LfN`eickjcnoqYj[&77
#KL_c.@0BEFJJMG8FNOMQ>RPAVCUEYG`YZ^L&A5
#KL_c.A0BEFLFIG8FKMQ=QO@UXCVEVG`YZ^L&9F
#KL_c.B0BEGHGJO8FNPMU>RPAVCUEYG`YZ\L&AB
#KL_c.E0BEGKKFG8FKKPP>RPAVCUEYG`YZ\L&9F
#KL_c.H0BEFMHII8MPL<PN?TASCWE^WX\J&4D
#KL_c.@A1CFGILLJ9GOOSP?SQBWDVFZHaZ[_M&D7
#KL_c.@G1CFHMNIL9GQNQ>RPAVCUEYG`YZ\L&AE
#KL_c.@I1CFHNFMO9GSOR>RPAVCUEYG`YZ\L&B4
#KL_c.AC1CFGMLHJ9GPMR>RPAVCUEYG`YZ^L&A6
#KL_c.AH1CFIFJMP9GNLNP?SQBWDVFZHaZ[]M&D8
#KL_c.B@1CFGJKPN9GOLPT?SQBWDVFZHaZ[_M&DE
#KL_c.@ID2DFNGNNP:HNSST@TRCXEWG[Ib[\^N&1C
#KL_c.A@J2GEGNPK9GPRRS?SQBWDWFZHaZ[_M&EA
#KL_c.A@E2GENLHH9GMUQO?SQBWDWFZHaZ[]M&D8
#KL_c.AAD2GENNNQ9RRO=QO@UBUDXF_XY[K&8E
#KL_c.AAE2GEIHLN9LPMP>RPAVCVEYG`YZ^L&AA
#KL_c.A@I2GEKLIK9GPLRQ?SQBWDWFZHaZ[_M&DC
#KL_c.A@H2GEKOJJ9GMNNW?SQBWDWFZHaZ[_M&DF
#KL_c.AAA2GEIFNP9GNPOS?SQBWDWFZHaZ[_M&D8
#KL_c.AAC2GEMKLM9GMLQP?SQBWDWFZHaZ[]M&D6
#KL_c.A@F2GELKPQ9GOMS>RPAVCVEYG`YZ^L&B4
#KLbg.?0CC3ENI7JQ:LS=OX@SSVDWV[H_J]]_NbPcbhTgfoXkjr\oq_yatcvvzgzzzk}mpsw&1D
#KLbg.@0C2EDG6IHL:&5E

#\Qpou/AJJ3EFONH9KN<M>O@QBTX^Y_HZ\\_Mcd`cRhgnnWomjk\tqqraruxf{kpuz&E9
#NP\U.AF1CDGLMNHIRN<aTSPQRCTEVGXIZKc_aahQxykeV|jm}p]uppv{cwuw}jqw~ɿůɶս&8C
#NP\U.AG1CDGLMNNNOK<aTSPQRCTEVGXIZK^_`curRdzUmm}mj[norqbvvvy~i{{pw~ɶû˴ͻ&0A
#NP\U.AH1CDGLMONRLT<aTTPQRCTEVGXIZK]f`eqtRdkUjhlj|o\nwoucv~{xj}qw~ȺԱȸ׿&35
#NP\U.B@1CDGLMONRLT<aTTPQRCTEVGXIZK^a`eqtRelUxxiqj[nqnpbvtyipv}űʼϾԲѹ&ED
#NLXZ.@I1BC4FNOI9ONQ`RU@UgTWY^Gnm]l\]NpabkdxUznzorq\nwpc|{j}~q&00
#NLXZ.A@1BC4FNOI9OONUVX@UgiY[[Gnm]q\]NpaavdfUhl}rq}\psvcwwyj~}~q&C6
#NLXZ.AA1BC4FNOI9OP^`_S@UgifgjGnm]d\]NpaavchU|{qlpo\sqttcvzjq&71
#NLXZ.AB1BC4FNOI9OQObOR@UgiWW^Gnm]l\]NpabjhkUhoh\~vrc{y{{{j~q&0F
#NLXZ.AC1BC4FNOI9ORQRVV@UgSV]XGnm\p\]NpaavidUkj}irn\vsvvzrcv|jq&F9
#NLXZ.AD1BC4FNOI9OSNOQX@UgSYfVGnm^a\]NpaautwUm{yks\qpwrbtuz}}i|}p&8E
$[AGT],GSET=2
$[AGT],rm,1,rt,7
$[AGT],fgFirstReq:0
$[AGT],bitmap,old: 108,new: 108
$[AGT],fsm,wm,3
$[AGT],skip
$[AGT],GSET=3
$[AGT],rm,6,rt,3
$[AGT],receive pmtk
$PMTK015,48317461,4,3471,PMTK290,1,1,0*2C
$PMTK730,0,0,0,1,0,0,0,0,1*2A
$PMTK015,48317462,4,3471,PMTK730,0,0,0,1,0,0,0,0,1*20
$PMTK001,290,3*3B
$[AGT],GSET=3
$[AGT],rm,6,rt,3
$[AGT],receive pmtk
$PMTK015,48317557,4,3561,PMTK712,1881,158187.360000,3000.000,0,0,0,0.000*3D
$AGPS,3561,TimeCompensate,0.900,WN,1881,TOW,158188.260000*71
Use_New_Time,0,count,1,821,12013,Local,1881,158186.889000 &4C
TimeSetOK,0,WeekNO,1881,TOW,158188.260000,RMS,3.000000,TTick,3561 &88
SetNATime,1137786988 &5D
$PMTK001,712,3*34
$[AGT],GSET=3
$[AGT],rm,6,rt,3
$[AGT],receive pmtk
$PMTK015,48317558,4,3561,PMTK710,01,001000,000000,000000,000000,00000B,0726AB,000008,015130,07F431,2DF249,017AE2,F5A002,8F6A8B,15A8A1,0D4AB3,26AB7C,FFDAFE,DA3BE1,003027,4803FE,168B13,4DA041,FFA986,07FB8C*1A
#DEPH 1 1137786486 1000 0 0 0 B 726AB 8 15130 7F431 2DF249 17AE2 F5A002 8F6A8B 15A8A1 D4AB3 26AB7C FFDAFE DA3BE1 3027 4803FE 168B13 4DA041 FFA986 7FB8C &50
$PMTK001,710,3*36
$[AGT],GSET=3
$[AGT],rm,6,rt,3
$[AGT],receive pmtk
$PMTK015,48317559,4,3561,PMTK710,03,001000,000000,000000,000000,000004,3826AC,00FFD4,FDDE1C,380501,32DCBA,8EE7C2,03E900,27C581,13BAA1,0E3CE2,26AC7C,FFFC29,41421D,001627,13B501,190577,06057E,FFA85D,381B54*12
#DEPH 3 1137786486 1000 0 0 0 4 3826AC FFD4 FDDE1C 380501 32DCBA 8EE7C2 3E900 27C581 13BAA1 E3CE2 26AC7C FFFC29 41421D 1627 13B501 190577 6057E FFA85D 381B54 &6D
$PMTK001,710,3*36
$[AGT],GSET=3
$[AGT],rm,6,rt,3
$[AGT],receive pmtk
$PMTK015,48317560,4,3571,PMTK710,06,001000,000000,000000,000000,000009,5426AC,000036,11B244,54F20E,2CCD79,C02C1B,F40B00,216F04,16C7A1,0D1216,26AC7C,0006FE,8221A1,001127,4671EB,1554A3,6627AE,FFAA42,54FB9C*66
#DEPH 6 1137786486 1000 0 0 0 9 5426AC 36 11B244 54F20E 2CCD79 C02C1B F40B00 216F04 16C7A1 D1216 26AC7C 6FE 8221A1 1127 4671EB 1554A3 6627AE FFAA42 54FB9C &66
$PMTK001,710,3*36
$[AGT],GSET=3
$[AGT],rm,6,rt,3
$[AGT],receive pmtk
$PMTK015,48317560,4,3571,PMTK710,07,001000,000000,000000,000000,0000E8,2826AC,00FFF3,3DE930,28012A,2E9D2C,B77C88,017104,A0B782,182EA1,0D743C,26AC7C,00107F,925394,003527,719443,144092,C24BD1,FFA9B4,28E5E8*60
#DEPH 7 1137786486 1000 0 0 0 E8 2826AC FFF3 3DE930 28012A 2E9D2C B77C88 17104 A0B782 182EA1 D743C 26AC7C 107F 925394 3527 719443 144092 C24BD1 FFA9B4 28E5E8 &20
$PMTK001,710,3*36
$[AGT],GSET=3
$[AGT],rm,6,rt,3
$[AGT],receive pmtk
$PMTK015,48317561,4,3571,PMTK710,08,000000,000000,000000,000000,00000A,2A26AC,00FFF3,FD322C,2AFB46,3435D1,FDE0AA,FC1A00,E782B0,039AA1,0D135D,26AC7C,0013D3,B1553C,000E27,2F9B1B,2BAEC5,48C445,FFA307,2AFCD8*10
#DEPH 8 1137786486 0 0 0 0 A 2A26AC FFF3 FD322C 2AFB46 3435D1 FDE0AA FC1A00 E782B0 39AA1 D135D 26AC7C 13D3 B1553C E27 2F9B1B 2BAEC5 48C445 FFA307 2AFCD8 &F7
$PMTK001,710,3*36
$[AGT],GSET=3
$[AGT],rm,6,rt,3
$[AGT],receive pmtk
$PMTK015,48317561,4,3571,PMTK710,0B,001000,000000,000000,000000,0000E6,5126AC,00FFEF,AD8C34,51F0BB,41DC31,86DBFE,F23F08,4E2DEE,0DF2A1,0D392C,26AC7C,FF70EF,DAD9DC,FF6B24,7F37C1,1B7F3C,F44D43,FF9CF1,51F56C*65
#DEPH 11 1137786486 1000 0 0 0 E6 5126AC FFEF AD8C34 51F0BB 41DC31 86DBFE F23F08 4E2DEE DF2A1 D392C 26AC7C FF70EF DAD9DC FF6B24 7F37C1 1B7F3C F44D43 FF9CF1 51F56C &B0
$PMTK001,710,3*36
$[AGT],GSET=3
$[AGT],rm,6,rt,3
$[AGT],receive pmtk
$PMTK015,48317562,4,3571,PMTK710,11,001000,000000,000000,000000,0000E9,1E26AC,00FFF9,E5D9A4,1EF940,3042A0,D6B9D3,FA5105,9C060E,033EA1,0D05B0,26AC7C,0032D5,C49A20,FFD927,B90954,2C9CB0,294BF4,FFA6C0,1EFC10*10
#DEPH 17 1137786486 1000 0 0 0 E9 1E26AC FFF9 E5D9A4 1EF940 3042A0 D6B9D3 FA5105 9C060E 33EA1 D05B0 26AC7C 32D5 C49A20 FFD927 B90954 2C9CB0 294BF4 FFA6C0 1EFC10 &6E
$PMTK001,710,3*36
$[AGT],GSET=3
$[AGT],rm,6,rt,3
$[AGT],receive pmtk
$PMTK015,48317563,4,3571,PMTK710,13,001000,000000,000000,000000,0000DF,6926AC,00FFFF,BB3D9C,69F933,31AB2F,F20855,FA5205,C58EB8,04BEA1,198212,26AC7C,FF9ED7,C483DE,001727,9AE4BD,2B601B,7AD271,FFA3D2,69F184*16
#DEPH 19 1137786486 1000 0 0 0 DF 6926AC FFFF BB3D9C 69F933 31AB2F F20855 FA5205 C58EB8 4BEA1 198212 26AC7C FF9ED7 C483DE 1727 9AE4BD 2B601B 7AD271 FFA3D2 69F184 &F1
$PMTK001,710,3*36
$[AGT],GSET=3
$[AGT],rm,6,rt,3
$[AGT],receive pmtk
$PMTK015,48317563,4,3571,PMTK710,17,000000,000000,000000,000000,0000D5,2926AC,00FFEF,EB7380,29FDC0,3AAC6D,23F342,FDEC05,58E29A,09A6A1,0DD4C0,26AC7C,FFC353,EECB81,FFAC26,8E7F53,23D395,738A16,FFA4FC,29F8A8*6D
#DEPH 23 1137786486 0 0 0 0 D5 2926AC FFEF EB7380 29FDC0 3AAC6D 23F342 FDEC05 58E29A 9A6A1 DD4C0 26AC7C FFC353 EECB81 FFAC26 8E7F53 23D395 738A16 FFA4FC 29F8A8 &DF
$PMTK001,710,3*36
$[AGT],GSET=3
$[AGT],rm,6,rt,3
$[AGT],receive pmtk
$PMTK015,48317564,4,3571,PMTK710,1C,001000,000000,000000,000000,0000E9,1926AC,000017,4141B4,190F4F,2951BF,2EB399,0DD10A,3F58BB,0D71A1,0D0897,26AC7C,0060AC,44133C,010328,4FB3F8,2235BD,B16891,FFAA09,190B84*67
#DEPH 28 1137786486 1000 0 0 0 E9 1926AC 17 4141B4 190F4F 2951BF 2EB399 DD10A 3F58BB D71A1 D0897 26AC7C 60AC 44133C 10328 4FB3F8 2235BD B16891 FFAA09 190B84 &03
$PMTK001,710,3*36
$[AGT],GSET=3
$[AGT],rm,6,rt,3
$[AGT],receive pmtk
$PMTK015,48317565,4,3571,PMTK710,1E,001000,000000,000000,000000,000007,2426AC,000028,0BA180,2401FE,30CB2E,B785C5,01D000,DA7A9A,18D2A1,0D3863,26AC7C,001681,70BE4A,FFE026,DD5DF4,11FB7C,628CA9,FFA8FA,24E98C*60
#DEPH 30 1137786486 1000 0 0 0 7 2426AC 28 BA180 2401FE 30CB2E B785C5 1D000 DA7A9A 18D2A1 D3863 26AC7C 1681 70BE4A FFE026 DD5DF4 11FB7C 628CA9 FFA8FA 24E98C &74
$PMTK001,710,3*36
$[AGT],GSET=3
$[AGT],rm,6,rt,3
$[AGT],receive pmtk
$PMTK015,48317565,4,3571,PMTK711,01,59,412901,4E0E13,FD4E00,A10CDC,FECCB9,134ABF,066F64,01000C*46
$PMTK001,711,3*37
$[AGT],GSET=3
$[AGT],rm,6,rt,3
$[AGT],receive pmtk
$PMTK015,48317566,4,3571,PMTK711,02,59,427DA8,4E0032,FD3E00,A10D46,FD0D76,A7494D,1AF3CF,4E0014*33
$PMTK001,711,3*37
$[AGT],GSET=3
$[AGT],rm,6,rt,3
$[AGT],receive pmtk
$PMTK015,48317566,4,3571,PMTK711,03,59,430275,4E0AE0,FD5A00,A10DDA,2933E7,77E513,76F10E,FDFFF8*45
$PMTK001,711,3*37
$[AGT],GSET=3
$[AGT],rm,6,rt,3
$[AGT],receive pmtk
$PMTK015,48317567,4,3571,PMTK711,05,59,452594,4E027B,FD4C00,A10D5D,28C889,13C808,7E69B6,EC0024*36
$PMTK001,711,3*37
$[AGT],GSET=3
$[AGT],rm,6,rt,3
$[AGT],receive pmtk
$PMTK015,48317567,4,3571,PMTK711,06,59,460222,4E0DF9,FD4E00,A10CA2,FE74A1,A47038,360CE2,11005C*37
$PMTK001,711,3*37
$[AGT],GSET=3
$[AGT],rm,6,rt,3
$[AGT],receive pmtk
$PMTK015,48317568,4,3571,PMTK711,07,59,474A10,4E10A6,FD5500,A10D08,7F84FC,92C78A,EA01F4,3D001C*4C
$PMTK001,711,3*37
$[AGT],GSET=3
$[AGT],rm,6,rt,3
$[AGT],receive pmtk
$PMTK015,48317568,4,3571,PMTK711,08,59,480E86,4E0C96,FD3000,A10CAA,D3A319,C56C2F,8F3100,FD0004*49
$PMTK001,711,3*37
$[AGT],GSET=3
$[AGT],rm,6,rt,3
$[AGT],receive pmtk
$PMTK015,48317568,4,3571,PMTK711,09,59,490506,4E0866,FD3600,A10CB2,539E2D,4CE73F,5D4C00,070054*4F
$PMTK001,711,3*37
$[AGT],GSET=3
$[AGT],rm,6,rt,3
$[AGT],receive pmtk
$PMTK015,48317569,4,3571,PMTK711,0A,59,4A08B7,4E0B0C,FD5900,A10D1C,29090E,885C2B,B168E1,06FFEC*31
$PMTK001,711,3*37
$[AGT],GSET=3
$[AGT],rm,6,rt,3
$[AGT],receive pmtk
$PMTK015,48317569,4,3571,PMTK711,0B,59,4B84EB,4EE186,FD0600,A10CA6,EFCBB0,3CFDDB,EED416,AD0010*3B
$PMTK001,711,3*37
$[AGT],GSET=3
$[AGT],rm,6,rt,3
$[AGT],receive pmtk
$PMTK015,48317570,4,3581,PMTK711,0C,59,4C2F3A,4E1F25,FD6A00,A10C02,AB3E4C,1A4346,DB4409,2F0038*4F
$PMTK001,711,3*37
$[AGT],GSET=3
$[AGT],rm,6,rt,3
$[AGT],receive pmtk
$PMTK015,48317570,4,3581,PMTK711,0D,59,4D2637,4E1333,FD4400,A10D00,58766B,50F274,10DDEF,E8FFE8*46
$PMTK001,711,3*37
$[AGT],GSET=3
$[AGT],rm,6,rt,3
$[AGT],receive pmtk
$PMTK015,48317571,4,3581,PMTK711,0E,59,4E4402,4E0E4A,FD3E00,A10D40,56FC2D,B0955A,5B8B51,00FFFC*4B
$PMTK001,711,3*37
$[AGT],GSET=3
$[AGT],rm,6,rt,3
$[AGT],receive pmtk
$PMTK015,48317571,4,3581,PMTK711,0F,59,4F41DE,4EF898,FD2100,A10DC4,5198BA,13586D,3AF5B6,D9000C*42
$PMTK001,711,3*37
$[AGT],GSET=3
$[AGT],rm,6,rt,3
$[AGT],receive pmtk
$PMTK015,48317572,4,3581,PMTK711,10,59,504549,4E1F7A,FD6900,A10D45,AC01F0,0CF60F,85D7DF,FA0024*30
$PMTK001,711,3*37
$[AGT],GSET=3
$[AGT],rm,6,rt,3
$[AGT],receive pmtk
$PMTK015,48317572,4,3581,PMTK711,11,59,5159CF,4E152B,FD3C00,A10C9E,D5B6A2,B031CC,5E2591,E5001C*43
$PMTK001,711,3*37
$[AGT],GSET=3
$[AGT],rm,6,rt,3
$[AGT],receive pmtk
$PMTK015,48317573,4,3581,PMTK711,12,59,528792,4EF48E,FD3E00,A10CD3,2807C0,B1ED25,9D75A5,3E0034*33
$PMTK001,711,3*37
$[AGT],GSET=3
$[AGT],rm,6,rt,3
$[AGT],receive pmtk
$PMTK015,48317573,4,3581,PMTK711,13,59,535C47,4E1348,FD3A00,A1191D,D7B686,1B80AD,EC64C9,BB0008*4E
$PMTK001,711,3*37
$[AGT],GSET=3
$[AGT],rm,6,rt,3
$[AGT],receive pmtk
$PMTK015,48317574,4,3581,PMTK711,14,59,542889,4EF565,FD3F00,A10D12,25E97B,35DAE4,3FD018,330020*33
$PMTK001,711,3*37
$[AGT],GSET=3
$[AGT],rm,6,rt,3
$[AGT],receive pmtk
$PMTK015,48317574,4,3581,PMTK711,15,59,55BCA5,4EFBBC,FD3900,A10D04,FD9364,B5243B,C14EED,BDFFF0*4E
$PMTK001,711,3*37
$[AGT],GSET=3
$[AGT],rm,6,rt,3
$[AGT],receive pmtk
$PMTK015,48317575,4,3581,PMTK711,16,59,563E14,4EF327,FD3A00,A11857,280FEF,AD7AA0,745493,35FFE8*49
$PMTK001,711,3*37
$[AGT],GSET=3
$[AGT],rm,6,rt,3
$[AGT],receive pmtk
$PMTK015,48317576,4,3581,PMTK711,17,59,575587,4E0283,FD2E00,A10D60,53E084,95768F,2A6AD8,EBFFEC*48
$PMTK001,711,3*37
$[AGT],GSET=3
$[AGT],rm,6,rt,3
$[AGT],receive pmtk
$PMTK015,48317576,4,3581,PMTK711,18,59,582239,4E05A0,FD4600,A10CAC,7DAF19,0E3171,1157C6,FE0010*4B
$PMTK001,711,3*37
$[AGT],GSET=3
$[AGT],rm,6,rt,3
$[AGT],receive pmtk
$PMTK015,48317577,4,3581,PMTK711,19,59,592935,4E178D,FD6100,A10C32,A93A25,1C4000,C2090E,F2FFC0*4C
$PMTK001,711,3*37
$[AGT],GSET=3
$[AGT],rm,6,rt,3
$[AGT],receive pmtk
$PMTK015,48317578,4,3581,PMTK711,1A,59,5A0643,4E0BD6,FD5000,A10D3E,A8F2A8,F851A8,AE3D64,E1FF9C*3E
$PMTK001,711,3*37
$[AGT],GSET=3
$[AGT],rm,6,rt,3
$[AGT],receive pmtk
$PMTK015,48317578,4,3581,PMTK711,1B,59,5B1959,4E11DA,FD3700,A10C9E,D3B535,087975,5F411B,070030*39
$PMTK001,711,3*37
$[AGT],GSET=3
$[AGT],rm,6,rt,3
$[AGT],receive pmtk
$PMTK015,48317578,4,3581,PMTK711,1C,59,5CA3DB,4E1E9C,FD6900,A10CAF,AC3701,BDB64E,7C7FE0,41002C*31
$PMTK001,711,3*37
$[AGT],GSET=3
$[AGT],rm,6,rt,3
$[AGT],receive pmtk
$PMTK015,48317579,4,3581,PMTK711,1D,59,5D084B,4E15C7,FD3C00,A10C91,D61AD2,E81626,C7514C,550014*3C
$PMTK001,711,3*37
$[AGT],GSET=3
$[AGT],rm,6,rt,3
$[AGT],receive pmtk
$PMTK015,48317579,4,3581,PMTK711,1E,59,5E0DA8,4E0763,FD4900,A10CC1,816329,7C4388,EC2B3C,0B0038*39
$PMTK001,711,3*37
$[AGT],GSET=3
$[AGT],rm,6,rt,3
$[AGT],receive pmtk
$PMTK015,48317580,4,3591,PMTK711,1F,59,5F4464,4E13D0,FD5B00,A10D17,7FE0DB,EDEE13,E8BBA5,25000C*3B
$PMTK001,711,3*37
$[AGT],GSET=3
$[AGT],rm,6,rt,3
$[AGT],receive pmtk
$PMTK015,48317581,4,3591,PMTK711,20,59,605D02,4E02B9,FD4C00,A10C99,2C6915,08D3A6,FAA240,0C0090*41
$PMTK001,711,3*37
$[AGT],GSET=3
$[AGT],rm,6,rt,3
$[AGT],receive pmtk
$PMTK015,48317581,4,3591,PMTK713,24.975750,121.327990,100.0,537.6,537.6,0,990.5,39*3B
#DBTP 3011 1 9 2497575 12132799 100 1881 158186889 1137786486  &2E
$PMTK001,713,3*35
$[AGT],GSET=3
$[AGT],rm,6,rt,3
$[AGT],receive pmtk
$PMTK015,48317582,4,3591,PMTK715,13,-1,-1,1,56,-8,-4,11*07
$PMTK001,715,3*33
$[AGT],GSET=3
$[AGT],rm,6,rt,3
$[AGT],receive pmtk
$PMTK015,48317582,4,3591,PMTK716,6,-1,228,96,17,159,3,17*2B
$PMTK013,Err,716,Tot=933888,Range[0-602112]*74
$PMTK001,716,2*31
048318.113,HBD,IF1,TIM,DSP,u1ChnNum,37,u2DataSize,57
048318.113,HBD,IF1,COM,BinDecX,65065
048318.113,HBD,IF1,GPS,TkDltIn,3011,3021,10
$QEPO_Request*05
$[AGT],GSET=3
$[AGT],rm,1,rt,10
$[AGT],set Qepo req
$[AGT],TSETe=3
$[AGT],inco
$[AGT],rm,0
$[AGT],remd == 0
048318.113,HBD,IF1,TIM,NWloc,fgfirstUseNW,0,case,0,NWAID,0,NWUSE,0
048318.113,HBD,IF1,AGP,BOOST,Posdiff:6.536477,0.370001,num:9,PosConverge,1,BoostRemT,15.889
$Boost, flag on*64
$LOC_Cache_BIT,00000002*7D
048318.113,HBD,IF1,AGP,AGPSMGN,Posdiff:6.536477,0.370001,num:0,PosConverge,0,AGPSRemT,15.348

#MZYQ.AE1E3&1D

#XPda.DACD3&49

#MZYQ.C@1C3&18

#MZYQ.@B1CGDF6I8LS]S=&03

#MZYQ.AH1HG4&57
048318.113,HBD,IF1,AGP,AGPSMGN,AGPSMode:3,AGPSTimer:0.653
$PMTK015,48318114,10,4122,AMode,3,ATimer,0.653,Remain,15.347*43
048318.113,HBD,IF1,AGP,AGPSMGN,DOP.H :1.090742,PosCon:0,[26.308083,18.352970,4.963376]
$PMTK013,CHK,Loc,Dif_m,52.7*57
$PMTK013,4122,INF,TA,ENTRY,TS,9,TOW,158188.000000000,CB,-0.000444998,AGPSM,1*23
$PMTK013,4122,INF,TA,CTk,4122,CPage,23,CSF,5,CSFT,4.000,SFNumSent,0*51
$PMTK013,4122,INF,TA,NPage,24,NSF,1,NSFTow,158190.000000000,NZCNT,26366,NSFTk,6121*4B
$PMTK013,4122,INF,TA,TAEnableList*77
$PMTK015,48318114,5,4122,TA_Aiding*62
$PMTK015,48318114,6,4122,NACQ,8,NBS,8,NSFS,0,NEXS,0*61
$HBD,INF,RTC,F,0,Y,16,M,1,D,25,H,19,M,56,Sec,10,Sub,3057,T,4115,SM,6880*0F
$DBts1,TSOK,1,WNSet,1,TOWS,9,WN,1881,BAcc,16.287,TAcc,16.287,*6D
$DBts2,TTK,4122,TOW,158188.000000000,B,-0.000444998,D,0.000001181,*20
048318.113,HBD,IF1,TIM,HALTIME,0,
048318.113,HBD,IF1,TIM,HALTSTA,0,
$RtcAcc,InitTick,1.000000000,InitTow,158183.879432363,Accus,-17.501*39
048318.113,HBD,IF1,ALO,CdmPvtU,
$HBD,INF,RTC,F,0,Y,16,M,1,D,25,H,19,M,56,Sec,10,Sub,3057,T,4115,SM,6880*0F
$PMTK730,0,0,0,0,0,0,0,0,1*2B
$PMTK015,48318115,4,4122,PMTK730,0,0,0,0,0,0,0,0,1*2F
$GNGGA,195611.000,2458.5479,N,12119.6785,E,1,9,1.09,137.3,M,15.0,M,,*48
$GPGSA,A,3,193,17,28,06,19,23,03,02,01,,,,1.33,1.09,0.76*32
$GLGSA,A,3,,,,,,,,,,,,,1.33,1.09,0.76*16
$GPGSV,3,1,12,193,73,083,33.0,28,66,195,33.3,17,57,005,34.7,19,54,357,27.8*4C
$GPGSV,3,2,12,06,45,290,30.7,03,32,044,30.0,23,17,103,32.7,09,16,140,*64
$GPGSV,3,3,12,02,14,263,29.0,01,09,055,21.7,30,05,192,,11,04,077,*75
$GLGSV,3,1,9,71,50,149,,70,47,061,,85,38,038,,86,30,332,*50
$GLGSV,3,2,9,75,25,229,,76,25,289,,72,10,186,,84,10,083,*59
$GLGSV,3,3,9,69,03,026,*64
$GNRMC,195611.000,A,2458.5479,N,12119.6785,E,0.719,230.75,250116,,,A*44
$GNVTG,230.75,T,,M,0.719,N,1.332,K,A*2C
$GNACCURACY,5.6*15
$PMTKDGP,0*4D
$PMTKDBG,4122,1,1,0,1,0,0,0,1,0,0,0,0,0,0,0,0,0,0,1,1,1,1,1,0,0,0,0,0,0,0,0,1,0099,0035,0002,0009,0009,0000,0000,0000,0.0000,1.1807,0.0000,0.0000,0.0000,0.0000,*4D
$PMTKDB2,0D17,0000,0000,0000,0000,0000,0000,0700,0032.08,0000.00,11807.33,0016.29,0000.05,-445.00,00-0.30,0000.00,*56
$PMTKEPH,41,1,-2.2.4,3,6,7,8,9,11,16,17,19,22,23,26,27,28,30,193,-65.2.4,-66.2.4,-67.2.4,-68.2.4,-69.2.4,-70.2.4,-71.2.4,-72.2.4,-73.2.4,-74.2.4,-75.2.4,-76.2.4,-77.2.4,-78.2.4,-79.2.4,-80.2.4,-82.2.4,-83.2.4,-84.2.4,-85.2.4,-86.2.4,-87.2.4,-88.2.4*5A
$PMTKALM,32,1,2,3,5,6,7,8,9,10,11,12,13,14,15,16,17,18,19,20,21,22,23,24,25,26,27,28,29,30,31,32,193*51

#WXM[.?0A2C4E6G8I:K<M>O@QBSDUFWHYJ[L]N_PaRcTeVgXiZk\m^o`qbsdufwhyj{l}npy&39

#NM^Z.BB1FDFG6H8JKQ<NNT@QBSD&12
#\XOU.?0BKF4HL7H9PO<RQQcARCWWXWH\\]\McOecRddjjlpYrtouox`r{sxesx~|||psy~&1A
#\XOU.@0BI3GM6G8ON;QNPb@QBVVYVG[[^[LbNdbQcciikoXrokttt_rdrzx{nqv{~&2A
#\XOU.A0CJ3GK6G8ON;QNPb@QBVUYVG[Z^[LbNdbQcciikoXronqnw_ywydrw}}|}orx}&AE
#\XOU.B0G2FH5F7NM:PQOa?PAT\XUFYa]ZKaMb_PbbhhjnWqmsqqo^uwzcq{y}~mpuz}&22
#\XOU.C0BK3GE6G8ON;RNPb@QBUZ[VGZ_`[LbNacQcciikoXrolmon_vwsvdr{||}nqv{}&C9
#\XOU.D0CE3GK6G8ON;QNPb@QBUYWVGZ^\[LbNdaQcciikoXrnkrsr_ydry{}}}nqv{~&E0
#\XOU.E0D2FG5F7NM:PMOa?PATXVUFY][ZKaMb`PbbhhjnWqmpmuu^vtcqw~z}}nqw|~&6E
#\XOU.F0DB3D5F7H9\LLM>O@QBSDXFWHZZ``bfOidiigmV}onp[iotoqxy|vufxi}{l}~qsuw|~&2D
#\XOU.G0J2C4E6G8[KKL=N?PARCWEVGYY__aeNhdbejkU|njzZnprqvtxtcvufwhyz{|m~oqsxz}&41
#\XOU.H0C2FF5F7NM:PMO_?PASY\UFX^aZKaM`bPbbhhjnWqmjltp^vpvcq~v{|l~osxz~&43
#\XOU.@@1C3FJ6G8ON;URP`@QB\\UF``YJ`L`N``ffhlUojpolk\oaou|~~|{l~oty|&C2
#\XOU.@A1CD4E6G8I:]OMN?PARCTEYGXI[[aacgPjeijngW~i}|\jpwuyx{txxgyj{l}~qsuw|~&0C
#\XOU.@E1DCK5F7H9J;^PNO@QBSDUFZHYJc^be_PeifjioWk|m\josuutww}zgzjx}puwy{&23
#\XOU.@F1DCL5F7H9J;^PNO@QBSDUFZHYJc^be_PeifghoWlkon\jqrqrwvxu~gzj|otvxz&EB
#\XOU.@G1DCH5HH8I:OR=`PRSBSDUFWH^J\Le`dgaRgkkiinYllnp^lqyuyxv~}i{}lqvx{}&9B
#\XOU.@H1DCH5GP8I:NN=WPPQBSDUFWH^J[Le`dgaRgkkijhYqns^lqyvyuw{zyi{}lqvxz|&36
#\XOU.@I1DCI5GO8I:MS=`PRSBSDUFWH^J\Le`dgaRgkiihmY|tr^lqzxxuu|whzkotvy{&59
#\XOU.A@1DCI5GO8I:MM=`PRSBSDUFWH^J\Le`dgaRgkiihoYn|s^lqztz{xy}hzkotvy{&5D
#\XOU.AA1DCI5GP8I:NN=`PPQBSDUFWH^J[Le`dgaRgkigonYpktt^lqzuv|xxwhzkotvxz&E2
#\XOU.AB1DCH5HI8I:NN=WPPQBSDUFWH^J[Le`dgaRgkkiipYssu^lqyv{{vvx~i{lqvxz|&48
#\XOU.AC1DDG5F7H9J;^PNO@QBSDUFZHYJc^be_PeiiinmWqnro\ruwpsyxvewzhyj{|}~oqsuz|&C6
#\XOU.AD1DCH5F7H9J;^PNO@QBSDUFZHYJc^be_PeiiggmWh}kl\joxrszuzwzgy{j{l}~qsuw|~&16
#\XOU.AE1DDF5F7H9J;^PNO@QBSDUFZHYJc^be_PeihflgWyoo\jorsu{y|xxgyyj{l}~qsuw|~&30
#\XOU.AF1DCF5F7H9J;QMNO@QBSDUFZHYJ[L^^_dbcSyh|kXoptstuxrassdufwxyzk|m~oqvx{}&E8
#\XOU.BG1EJ4E6G8I:PLMN?PARCTEYGXIZK]d`bggRcfxiWnmlmqovo`szctevwxyj{l}npuwz|~&74
#\XOU.CH1B3D5F7H9JKLM>O@QBSDUFWHYJ[L]^_`QbSdUfWhijk\m^o`qbstuvgxizk|m~oq&36

#NM`a.CACD3E5F7H9J;L=N?PQRSTUVWHYJ[L&58
#NLPT.@ID2DG5FGHL:HPKT?POTY]E\Y^IW^ZbcO`_hjgUgepjZ&34
#NLPT.@G1CF4EFGK9GNJQ>ONQXWD[X]HV\YcaN_^chlTfdoiY&F6
#NLPT.AH1CF4EFGK9GKJN>ONQT\D[X]HV\Ye^N_^acfTfdoiY&E5
#NLPT.E0BE3DEFJ8FLIQ=NMPRTCZ[XGU[Xa\M^]`dfSfcinX&B0
#NLPT.@I1CF4EFGK9KPJS>ONUTVDVW]\IW^Z]aO`_bcgUiekpZ&1B
#NLPT.AC1CF4EFGK9LIS=NMQXZCZW^GU[XcdM^]acdSecnhX&C9
#NLPT.B0BE3DEFJ8FOIM=NMSVTCZ]]GU\X^bM^]ahcSfcimX&BF
#NLPT.B@1C3&04
#NLPT.H0B2&DA
#NLPT.A0BE3LEFJ8FKNJP>ONSVVDV_X_IW]Z`eO`_bciUleliZ&1E
#NLPT.@0BE3DEFJ8FMIQ=NMPQSC][^W^IW\ZcdO`_eijUigfip[&53
#NLPT.@A1C3&03
#NLPT.A@H2D4&3A
#NLPT.A@I2D4&3B
#NLPT.A@E2E4&38
#NLPT.A@E2F4&39
#NLPT.A@F2F4&3A
#NLPT.A@F2F4&3A
#NLPT.A@F2E4&39
#NLPT.A@E2F4&39
#NLPT.AAD2D4&37
#NLPT.A@E2F4&39
#NLPT.AAC2D4&36

#NMMN.@0>CKJE6JQOS;PNPQ@RRXXZ^GYZJ[LfN`eicklcfghYj[&68
#KL_c.@0JEKJGF7EMNNL=PV@UBTDXF_XY]K&7C
#KL_c.A0JFCEMI7EJMT<OU?TATCWE^WX\J&4D
#KL_c.B0JFIFNN7EMONQ=PV@UBTDXF_XY[K&8C
#KL_c.E0JFLJJH7EJJPT=PV@UBTDXF_XY[K&89
#KL_c.H0JFDGMK7LMO;NT>S@RBVD]VW[I&2B
#KL_c.@A1KFJLFI8FNNSU>QWAVCUEYG`YZ^L&B7
#KL_c.@G1KHDMMM8FPOL=PV@UBTDXF_XY[K&87
#KL_c.@I1KHEFHG8FRPM=PV@UBTDXF_XY[K&7C
#KL_c.AC1KGDKLK8FONM=PV@UBTDXF_XY]K&7F
#KL_c.AH1KHGJGP8FMKNU>QWAVCUEYG`YZ\L&B9
#KL_c.B@1KFKKJM8FNKQM>QWAVCUEYG`YZ^L&B3
#KL_c.@ID2KMHNHQ9GMRTO?RXBWDVFZHaZ[]M&F5
#KL_c.A@J2GJNLHJ9GPRTO?RXBWDWFZHaZ[_M&EF
#KL_c.A@E2GKKIJH9GMURV?RXBWDWFZHaZ[]M&E8
#KL_c.AAD2GKKLGI9RPS=PV@UBUDXF_XY[K&88
#KL_c.AAE2GKEONP9LOUU>QWAVCVEYG`YZ^L&C9
#KL_c.A@I2GKHIKJ9GPLSV?RXBWDWFZHaZ[_M&E9
#KL_c.A@H2GKHLLJ9GMNPR?RXBWDWFZHaZ[_M&E4
#KL_c.AAA2GKEMPO9GNPQO?RXBWDWFZHaZ[_M&E6
#KL_c.AAC2GKJHNM9GMLRW?RXBWDWFZHaZ[]M&E6
#KL_c.A@F2GKIIIH9GOON>QWAVCVEYG`YZ^L&A8
#KLbg.?0CC3ENI7JQ:LS=OX@SSVDWV[H_J]]_NbPcbhTgfoXkjr\oq_yatcvvzgzzzk}mpsw&1D
#KLbg.@0C2EDG6IHL:&5E

#\Qpou/AFC3EGGIP9R;L=N?PASXT^[GYY^dL`_bgQedilVmpkj[rtts`qt{ewj~oty~&B7
#NP\U.BC1CDGLMOLOJS<aTUPQVC\UVWXYJ[L]NueQuffk{lXkmp_s{f{z|mt{ƴʥȸѬӱ˸ο&C5
#NLXZ.AE1BC4FNOI9OTNVQT@UgT[]jGnm`\\]NpaauffUwpkzlp\nspqrcwvxj~q&C7
#NLXZ.AF1BC4FNOI9O\LSRQ@UgSfi[Gnm_[\]NpaavfyUwo~k{s\vtqzcy~}j}q&39
#NLXZ.AG1BC4FNOI9O]MVSX@UgTUigGnm]b\]NpaaulyUzjznmp\uuxwvbxywxi{|~o&56
#NLXZ.AH1BC4FNOI9O^]Pb`@UgTi^iGnm`d\]NpaautzUwzkpjm\vuc{}yj}}~q&4A
#NLXZ.AI1BC4FNOI9O_LUR`@UgTYh\Gnm]n\]NpaauleUzmiz~m\vpvsxc|{x|j}~q&CC
#NLXZ.B@1BC4FNOI9O`La_W@UgS[[YGnm^d\]NpaauveUnhnllt\tssyzcx{j|}p&A0
048319.113,HBD,IF1,TIM,DSP,u1ChnNum,37,u2DataSize,57
048319.113,HBD,IF1,COM,BinDecX,65065
048319.113,HBD,IF1,GPS,TkDltIn,4122,4129,7

#MZYQ.DB1B3&1A
048319.113,HBD,IF1,TIM,NWloc,fgfirstUseNW,0,case,0,NWAID,0,NWUSE,0
048319.113,HBD,IF1,AGP,BOOST,Posdiff:0.079633,0.148684,num:9,PosConverge,1,BoostRemT,14.889
$Boost, flag on*64
$LOC_Cache_BIT,00000002*7D
048319.113,HBD,IF1,AGP,AGPSMGN,Posdiff:0.079633,0.148684,num:0,PosConverge,0,AGPSRemT,14.347
048319.113,HBD,IF1,TIM,NWloc,Core_Save,fgHaveNWloc,1,fgHaveSaved,0
048319.113,HBD,IF1,TIM,NWloc,NWloc_match,0,oldest_gpssec_index,3,num_NV_NWlocData,6
048319.113,HBD,IF1,TIM,NWloc,Core_Save,NV_index,0,fgUsage,1

#XPda.EACD3&4A

#MZYQ.@B1CJYN6I8L[`b=&3D

#MZYQ.AH1HG4&57
048319.117,HBD,IF1,AGP,AGPSMGN,AGPSMode:3,AGPSTimer:1.654
$PMTK015,48319115,10,5122,AMode,3,ATimer,1.654,Remain,14.346*44
048319.117,HBD,IF1,AGP,AGPSMGN,DOP.H :1.090835,PosCon:0,[18.368109,13.014890,3.518047]
$PMTK013,5122,INF,TA,ENTRY,TS,9,TOW,158189.000000000,CB,-0.000443813,AGPSM,1*26
$PMTK013,5122,INF,TA,CTk,5122,CPage,23,CSF,5,CSFT,5.000,SFNumSent,0*50
$PMTK013,5122,INF,TA,NPage,24,NSF,1,NSFTow,158190.000000000,NZCNT,26366,NSFTk,6121*4A
$PMTK013,5122,INF,TA,TAEnableList*76
$PMTK015,48319115,5,5122,TA_Aiding*63
$PMTK015,48319115,6,5122,NACQ,8,NBS,8,NSFS,0,NEXS,0*60
$HBD,INF,RTC,F,0,Y,16,M,1,D,25,H,19,M,56,Sec,11,Sub,3059,T,5115,SM,8061*08
$DBts1,TSOK,1,WNSet,1,TOWS,9,WN,1881,BAcc,15.517,TAcc,15.517,*6D
$DBts2,TTK,5122,TOW,158189.000000000,B,-0.000443813,D,0.000001184,*20
048319.117,HBD,IF1,TIM,HALTIME,0,
048319.117,HBD,IF1,TIM,HALTSTA,0,
$RtcModel,Rtc1,158171.093353271,Tow1,158188.993936306,Tick1,5115.492485,_dfPreRtcTow,158170.093292236,_dfPreGpsTow,158187.993865338,Rtcppm,-9.933*0E
$SaveRtcAcc,TOW,158188.993936306,RtcD,-9.933*72
$RtcAcc,InitTick,1.000000000,InitTow,158183.879432363,Accus,-17.516*3F
048319.117,HBD,IF1,GPS,UpdtNVS,
048319.117,HBD,IF1,GPS,NVFile,Opened
048319.117,HBD,IF1,GPS,UpdtNVC,
048319.117,HBD,IF1,GPS,UpdtNVE,
048319.117,HBD,IF1,ALO,CdmPvtU,
$HBD,INF,RTC,F,0,Y,16,M,1,D,25,H,19,M,56,Sec,11,Sub,3059,T,5115,SM,8061*08
$GNGGA,195612.000,2458.5478,N,12119.6785,E,1,9,1.09,137.3,M,15.0,M,,*4A
$GPGSA,A,3,193,17,28,06,19,23,03,02,01,,,,1.33,1.09,0.76*32
$GLGSA,A,3,,,,,,,,,,,,,1.33,1.09,0.76*16
$GPGSV,3,1,12,193,73,083,34.0,28,66,195,34.7,17,57,005,34.4,19,54,357,28.3*4F
$GPGSV,3,2,12,06,45,290,31.3,03,32,044,30.5,23,17,103,35.1,09,16,140,*65
$GPGSV,3,3,12,02,14,263,29.1,01,09,055,21.7,30,05,192,,11,04,077,*74
$GLGSV,3,1,9,71,50,149,,70,47,061,,85,38,038,,86,30,332,*50
$GLGSV,3,2,9,75,25,229,,76,25,289,,72,10,186,,84,10,083,*59
$GLGSV,3,3,9,69,03,026,*64
$GNRMC,195612.000,A,2458.5478,N,12119.6785,E,0.289,230.75,250116,,,A*4A
$GNVTG,230.75,T,,M,0.289,N,0.535,K,A*20
$GNACCURACY,4.7*15
$PMTKDGP,0*4D
$PMTKDBG,5122,1,1,0,1,0,0,0,1,0,0,0,0,0,0,0,0,0,0,1,1,1,1,1,0,0,0,0,0,0,0,0,1,0099,0035,0002,0009,0009,0000,0000,0000,0.0000,1.1844,0.0000,0.0000,0.0000,0.0000,*4B
$PMTKDB2,0D12,0000,0000,0000,0000,0000,0000,0700,0022.51,0000.00,11844.02,0015.52,0000.07,-443.81,00-0.30,0000.00,*59
$PMTKEPH,41,1,-2.2.4,3,6,7,8,9,11,16,17,19,22,23,26,27,28,30,193,-65.2.4,-66.2.4,-67.2.4,-68.2.4,-69.2.4,-70.2.4,-71.2.4,-72.2.4,-73.2.4,-74.2.4,-75.2.4,-76.2.4,-77.2.4,-78.2.4,-79.2.4,-80.2.4,-82.2.4,-83.2.4,-84.2.4,-85.2.4,-86.2.4,-87.2.4,-88.2.4*5A
$PMTKALM,32,1,2,3,5,6,7,8,9,10,11,12,13,14,15,16,17,18,19,20,21,22,23,24,25,26,27,28,29,30,31,32,193*51

#WXM[.?0A2C4E6G8I:K<M>O@QBSDUFWHYJ[L]N_PaRcTeVgXiZk\m^o`qbsdufwhyj{l}npy&39

#NM^Z.BB1GDFG6H8JKR<NNT@QBSD&14
#\XOU.?0BKF4HM7H9PO<RQQcARCXU^WH]Zc\McObbRddjjlqYmsnpov`vesx~~}~psy~&BE
#\XOU.@0BI3GM6G8ON;QNPb@QBWT]VG\Yb[LbNadQcciikpXmmtott_tuw|drzy|z|nqv{~&6D
#\XOU.A0CJ3GM6G8ON;QNPb@QBV]WVG[b\[LbNacQcciikpXmnmlnu_yudrwyorx}&B9
#\XOU.B0G2FH5F7NM:QQOa?PAU[ZUFZ`_ZKaM_aPbbhhjoWllrlqo^rutxcq{|~|mpuz}&E6
#\XOU.C0BK3GF6G8ON;SNPb@QBVY]VG[^b[LbNhPbbhhjoWllsqmv^vxcqz|yx}~~}mpuz}&F5
#\XOU.D0CE3GM6G8ON;QNPb@QBVW]VG[\b[LbN`iQcciikpXmltmsr_wqszdry|z||~}nqv{~&F3
#\XOU.E0D2FH5F7NM:QMOa?PAUWZUFZ\_ZKaM_aPbbhhjoWllnrur^xtcqw~}nqw|&C0
#\XOU.F0DB3D5F7H9\LLM>O@QBSDXFWHZZ``bgOdchdgkVmkoj[iotoqxy|vufxi}{l}~qsuw|~&07
#\XOU.G0J2C4E6G8[KKL=N?PARCWEVGYY__afNcbjjjlUj|yzZnprqvtxtcvufwhyz{|m~oqsxz}&54
#\XOU.H0C2FF5F7NM:RMOa?PATWXUFY\]ZKaMeOaagginVkjqpso]swwybp}|zy~{zk}nrwz~&45
#\XOU.@@1C3FJ6G8ON;URP`@QBT]YVGYb^[LbNbPbbhhjoWlkqlmt^rvcqwwxz{|}nqw|&F3
#\XOU.@E1DCK5F7H9J;^PNO@QBSDUFZHYJc^be`PeifjinWpo\josuutww}zgzjx}puwy{&2E
