$[AGT],ipath,/data/misc/
$[AGT],GSET=0
$[AGT],rm,6,rt,4
$[AGT],SAP,Eidle
$[AGT],e=1,b=1,s=1,aosp=1
$PMTK013,AgpsMachine,set,0,result,0*17
033679.113,HBD,IF1,BOT,UInitCf,1,0,0,16,100,0,255,2000,26000000,115200,1000,0,-2147483456,ffff6753,2

033679.113,HBD,IF1,BOT,MNLVer,_u1MTKChipID=1
033679.113,HBD,IF1,GPS,NVFile,Opened
033679.113,HBD,IF1,GPS,NVFile,g_BMAP_NVfile_Operation_load,0
033679.113,HBD,IF1,ALO,AlcInit,
033679.117,HBD,IF1,ALO,AlSCIni,
033679.117,HBD,IF1,ALO,PMCmod4,0
033679.117,HBD,IF1,ALO,EdInitD,
033679.117,HBD,IF1,ALO,PmcInit,
033679.117,HBD,IF1,ALO,VtCfgDb,20,20,4294967295
033679.117,HBD,IF1,BOT,InitCfg,1,115200,115200,26000000,255,0,0,0.000000,0.000000
033679.117,HBD,IF1,BOT,BotUrV2,BINFO(): x,-2147483456,y,ffff6753,
033679.117,HBD,IF1,BOT,BotUrV2,BINFO(): MT6753_ DSP
033679.117,HBD,IF1,BOT,BotUrV2,_BINFO(): B,-149904296,L,61448
033679.117,HBD,IF1,BOT,BotUrV2,RFG,3,0,3
033679.641,HBD,IF1,BOT,ClkType,255
$PMTK015,33679642,1,GPS_INIT_DONE*7D
033679.641,HBD,IF1,MSG,MNLInit,OK
$[AGT],GSET=0
$[AGT],rm,1,rt,11
$[AGT],inco
$[AGT],rm,0
$[AGT],remd == 0

#MZYQ.D@1C3&19

$PMTK010,001*2E

$PMTK010,002*2D
$PMTK013,INF,0,128,4,128*59
$PMTK015,33679645,4,33679640,PMTK764,0,0,0,2,0,128,4,128*36
$$PMTK764,0,0,0,2,0,128,4,128*15
033679.648,HBD,IF1,GPS,FrstDtt,00,00
$PMTK015,33679646,2,FIRST_DBTT*27
033679.648,HBD,IF1,GPS,TkDltIn,0,0,0

#MZYQ.@@1B3D5&64
$SELF_ATOW,0,1*4F
033679.648,HBD,IF1,TIM,HALTIME,0,
033679.648,HBD,IF1,TIM,HALTSTA,0,
033679.648,HBD,IF1,TIM,IdbtsDa,RTCstatusA,0,fgSysTimeOK,1,UseSystime,0,LoadRTCUpdateOK,RTC_age,6
033679.648,HBD,IF1,TIM,IdbtsDa,RTCstatusB,0,fgSysTimeOK,1,UseSystime,0
033679.648,HBD,IF1,TIM,DtsAcRT,PRTC,Load,Wn,1881,Tow,143537.994066197,RtcD,-9.672,
$IRTC,i2RtcTimeLastWn,1881,dfRtcTimeLastTow,143520.984589,*22
$IRTC,i2RtcTimeLastWn,1881,dfRtcTimeLastTow,143537.984830,*2B
$IRTC,dfDltTow1,11.537994,*28
$IRTC,dfDltTow2,11.538106,*27
$IRTC,i2GpsWn2,1881,dfGpsTow2,143549.532172,*2C
033679.648,HBD,IF1,TIM,DtsAcRT,PRTC,Load,GWn,1881,GTow,143549.532172182,RWn,1881,RTow,143537.984830346,RtcD,-9.672,
$IRTC,dfDltTow,11.538106,HTTFF_163,0,_fgEnableAccIGPST,1*7C

#MZYQ.D@1B3&18
033679.648,HBD,IF1,TIM,IdtsAcT,1,1881,143549.532000000,9,11.5,

#MZYQ.DD1B3&1C

#MZYQ.CB1D3&1B
$QEPO_Request*05
$[AGT],GSET=0
$[AGT],rm,1,rt,10
$[AGT],inco
$[AGT],rm,0
$[AGT],remd == 0

#MZYQ.DB1C3&1B
033679.648,HBD,IF1,TIM,NWloc,fgfirstUseNW,0,case,0,NWAID,0,NWUSE,0
$Boost, hotstart*5A
033679.648,HBD,IF1,AGP,BOOST,Posdiff:157624997773312.000000,0.000000,num:0,PosConverge,0,BoostRemT,20.000
$LOC_Cache_BIT,00000000*7F
$DBnm_NLP,[24.975746,121.327988,0,20.000000][2016/1/25,15:52:3][0][0]*0E
$NLP_from_file,[24.975746,121.327988,0,20.000000][2016/1/25,15:52:3][1881,143540.000000]*47
$cache_pos,-3007976.632008,4941815.970193,2676698.751754,[1137772338]*61
$Cache_age,11,NLP_age,10,NV_age,11*17
$NLP_Aid*41
#DBTP 11 1 9 2497574 12132798 144 1881 143549542 1137772337 &96

#MZYQ.C@1C3&18
033679.648,HBD,IF1,AGP,AGPSMGN,Posdiff:157624997773312.000000,0.000000,num:0,PosConverge,0,AGPSRemT,16.000

#MZYQ.AA1D3&18
033679.648,HBD,IF1,GPS,EpoLoad,HOST_EPO,BAD_Load,ffffffff,316043,45
033679.648,HBD,IF1,TIM,RstFSAg,0.0

#MZYQ.AE1I3&21

#XPda.@@BC3&42
033679.648,HBD,IF1,GPS,FTModeC,FT_Mode,1,Send_Comd
033679.648,HBD,IF1,AGP,AGPSMGN,AGPSMode:-1,AGPSTimer:0.000
$PMTK015,33679649,10,11,AMode,-1,ATimer,0.000,Remain,16.000*6B
$PMTK015,33679649,6,11,NACQ,0,NBS,0,NSFS,0,NEXS,0*65
$HBD,INF,RTC,F,0,Y,16,M,1,D,25,H,15,M,52,Sec,12,Sub,17124,T,1,SM,7638*09
$DBts1,TSOK,0,WNSet,1,TOWS,9,WN,1881,BAcc,1183216.000,TAcc,1220038.000,*68
$DBts2,TTK,11,TOW,143549.542000000,B,0.000294472,D,0.000001168,*0D
033679.648,HBD,IF1,ALO,CdmPvtU,
$HBD,INF,RTC,F,0,Y,16,M,1,D,25,H,15,M,52,Sec,12,Sub,17124,T,1,SM,7638*09
$PMTK013,11,set epo bitmap,R:1,F:1 *1F
$GNGGA,155212.541,2458.5448,N,12119.6793,E,0,0,,129.1,M,15.0,M,,*55
$GPGSA,A,1,,,,,,,,,,,,,99.99,99.99,1.00*01
$GLGSA,A,1,,,,,,,,,,,,,99.99,99.99,1.00*1D
$GPGSV,4,1,15,11,84,241,,01,63,179,,07,62,286,,08,45,024,*78
$GPGSV,4,2,15,193,37,139,,30,35,313,,27,20,048,,16,16,101,*40
$GPGSV,4,3,15,22,13,085,,32,13,132,,09,11,226,,28,08,307,*7F
$GPGSV,4,4,15,03,07,165,,23,05,193,,17,05,252,*42
$GLGSV,1,1,0*55
$GNRMC,155212.541,V,2458.5448,N,12119.6793,E,0.000,0.00,250116,,,N*5E
$GNVTG,0.00,T,,M,0.000,N,0.000,K,N*2C
$GNACCURACY,39.2*2E
$PMTKDGP,0*4D
$PMTKDBG,11,0,1,0,0,0,1,0,0,0,1,0,0,0,0,0,0,0,0,1,1,1,1,1,0,0,0,0,1,0,0,0,0,0026,0014,0002,0000,0000,0022,0001,0000,0.0000,1.1681,0.0000,0.0000,0.0000,0.0000,*4F
$PMTKDB2,0000,0000,0000,0000,0000,0000,0000,0100,1538.85,0000.00,11681.16,1220038.00,0000.00,0294.47,0000.05,0000.00,*12
$PMTKEPH,17,1,3,7,8,9,11,14,16,21,22,23,26,27,29,30,31,32*67
$PMTKALM,32,1,2,3,5,6,7,8,9,10,11,12,13,14,15,16,17,18,19,20,21,22,23,24,25,26,27,28,29,30,31,32,193*51

#WXM[.?0A2C4E6G8I:K<M>O@QBSDUFWHYJ[L]N_PaRcTeVgXiZk\m^o`qbsdufwhyj{l}npy&39

#NM^Z.BB1CD4F6G8I:K<M>&DD
#\XOU.AF1B3D5F7H9JKLM>O@QBSDUFWHYJ[L]^_`QbSdUfWhijk\m^o`qbstuvgxizk|m~oq&32
#\XOU.BG1B3D5F7H9JKLM>O@QBSDUFWHYJ[L]^_`QbSdUfWhijk\m^o`qbstuvgxizk|m~oq&34
#\XOU.CH1B3D5F7H9JKLM>O@QBSDUFWHYJ[L]^_`QbSdUfWhijk\m^o`qbstuvgxizk|m~oq&36

#NM`a.@A1C3D5F7H9J;L=NOPQRSTUFWHYJ&F1

#NMMN.@0>CKHE6KHRL;MN>XUW[\DVZGXIcK]aaddj`hhgVgX&DB
#KL_c.@0JKHHLG7EJK;MRN?URTCUEVG`YZ\L&A6
#KL_c.B0JJCHKN7MJQ;MRN?URTCUEVG`YZ^L&B8
#KL_c.F0JKHJKH7EJJNR=OTPAWTVEWGXIb[\^N&16
#KL_c.G0JKDIMF7ELOLU=OTPAWTVEWGXIb[\^N&1A
#KL_c.H0JJDKKM7ELRSO=OTPAWTVEWGXIb[\`N&27
#KL_c.@A1KLJMON8FKMUO>PUQBXUWFXHYJc\]_O&50
#KL_c.@F1KKFLFL8FMSNS>PUQBXUWFXHYJc\]aO&4B
#KL_c.@G1KJMEJJ8JSO<NSO@VSUDUFWHaZ[]M&E8
#KL_c.AB1KKFIGP8FKMRM>PUQBXUWFXHYJc\]aO&40
#KL_c.AC1KKDFGO8FMTRQ>PUQBXUWFXHYJc\]aO&48
#KL_c.AG1KKHMIJ8FNMUN>PUQBXUWFXHYJc\]aO&4E
#KL_c.AH1KJMJIK8LMT<NSO@VSUDUFWHaZ[]M&F0
#KL_c.B@1KKMGNO8OOR<NSO@VSUDVFWHaZ[]M&F4
#KL_c.BB1KKGGLM8LMP<NSO@VSUDVFWHaZ[_M&E7
#KL_c.@ID2LGNNNI9GLSRN?QVRCYVXGXIZKd]^`P&7E
#KLbg.?0BG3EF6H8P:S<PN?RXBTZEXYH\\KeMaObdRdmhVipYkr\&46
#KLbg.@0BF3FEG7JIL;NMQ?RQVCVU[GZY`K^]eObajSfeoWjjj[nno_rrtcvvygzz~k&20

#NMO_.UVWXYZ[\7^_`abcde@ghijklmnIpqrstuvwRyz{|W~`e&3B

#NM`].@A1C3M5HKQPORP=OQQTTZ]]FX\]J\de_OaeehhnkkjYklotuvrtuzdy|zhyj&A3
#NP\U.@0BCFKLMIJRR;`SROPQBSDUFWHYJ^d_aahQjSejfypYmsoqx`syg|~nu|ɨ׶&DF
#NP\U.B0BCFKLLHQLL;`SSOPQBSDUFWHYJ^a__efQxyxiV}|~k}l]qtputtdxy}{|krxƻºЭɴ̻&D0
#NP\U.F0BCFKLMIJRR;`SSOPQBSDUFWHYJd^``gPwxygUi{}r~\vnobu|~i|~pu|ù±ܸ&66
#NP\U.G0BCFKLMIJRR;`SSOPQBSDUFWHYJ\o_aahQxyzhV}|ll]oydxzk~ryʾʽİڷϾ&82
#NLXZ.@0AB3EMNH8MKMUMN?TfRhUXFml]o[\Mo``tvvT{{z{{s[mprbyz|{hzz{|n&5E
#NLXZ.A0AB3EMNH8MLR`^U?TfRSWVFml\o[\Mo``ufiT{zg|pq[}trxtbtyi~|}p&C6
#NLXZ.B0AB3EMNH8MMKNTS?TfRdiUFml^k[\Mo``uvtTgojk~p[sttqsbzzwwip&F0
#NLXZ.D0AB3EMNH8MOMQVQ?TfRU[gFml]m[\Mo``ugwTgnzpqs[mpwpxbz{~i|}p&A3
#NLXZ.E0AB3EMNH8MPKNOP?TfRgj^Fml]o[\Mo``tseT{{nlzk[}quosybvzuyi{||}p&9A
033679.648,HBD,IF1,COM,WtDtCnt,3
$[AGT],GSET=0
$[AGT],rm,1,rt,7
$[AGT],fgFirstReq:1
$[AGT],bitmap,old:   0,new: 308
$[AGT],inco
$[AGT],srm,1,dsm,4,tp,7,length,12
$[AGT],tp,776,wn,1881,tw,143549,si,12
$[AGT],rm,2
$[AGT],state:7
$[AGT],wn:1881, tw:143549
$[AGT],ergt
$[AGT],
$[AGT],Esgt 1137715200
$[AGT],epegt
$[AGT],gfisiz()
$[AGT],egtEf,1140307200
$Rdon
$[AGT],res,1137772349,sst,1137715200,egsn,1140307200
$[AGT],wk,epo
$[AGT],s,1,m,1
$[AGT],idle
$@#$^ [AGNT] pEd
$[AGT],opmode GLO(1),GEL(0),DB(0)
$[AGT],tw,143549,gs,1137772349
$[AGT],eextd
$[AGT]start verify
$[AGT],gfisiz()
$[AGT]FileType:GPS+GLO
$[AGT],
$[AGT],epegt
$[AGT],gfisiz()
$[AGT],Extract epo done
033679.652,HBD,IF1,MSG,AidEPO,$[AGT],GSET=0
$[AGT],rm,4,rt,8
$[AGT],inco
$[AGT],srm,4,dsm,4,tp,8,length,12
SV,1,ret,1
$[AGT],tp,776,wn,1881,tw,143549,si,12
$[AGT],rm,3
$[AGT],state:6
$[AGT],wn:1881,tw:143549
033679.652,HBD,IF1,MSG,AidEPO,SV,2,ret,1
033679.652,HBD,IF1,MSG,AidEPO,SV,3,ret,1
$[AGT],BGAI
$[AGT],0,av:89,b_sky:0
$[AGT],1,av:85,b_sky:0
$[AGT],2,av:121,b_sky:0
$[AGT],3,av:0,b_sky:1
$[AGT],4,av:85,b_sky:0
$[AGT],5,av:85,b_sky:0
$[AGT],6,av:73,b_sky:0
$[AGT],7,av:73,b_sky:0
$[AGT],8,av:73,b_sky:0
$[AGT],9,av:69,b_sky:1
$[AGT],10,av:73,b_sky:0
$[AGT],11,av:117,b_sky:0
$[AGT],12,av:0,b_sky:0
$[AGT],13,av:69,b_sky:0
$[AGT],14,av:115,b_sky:0
$[AGT],15,av:71,b_sky:0
$[AGT],16,av:81,b_sky:1
$[AGT],17,av:67,b_sky:0
$[AGT],18,av:83,b_sky:0
$[AGT],19,av:85,b_sky:0
$[AGT],20,av:71,b_sky:0
$[AGT],21,av:69,b_sky:0
$[AGT],22,av:121,b_sky:0
$[AGT],23,av:65,b_sky:0
$[AGT],24,av:69,b_sky:0
$[AGT],25,av:71,b_sky:0
$[AGT],26,av:73,b_sky:0
$[AGT],27,av:81,b_sky:1
$[AGT],28,av:119,b_sky:0
$[AGT],29,av:73,b_sky:0
$[AGT],30,av:71,b_sky:0
$[AGT],31,av:119,b_sky:0
$[AGT],Eend:1, Send:1, ct:3
$[AGT],wkbee
$[AGT],s,1,m,2
033679.652,HBD,IF1,MSG,AidEPO,$[AGT],idle
$@#$^ [AGNT] sBi
SV,4,path_2NG,ValidEPO,1,u4CurrGpsSecs,1137772349,u4GpsSecs,1137758400,seq,45,NAseq,0,Age_Epo,14,Naage,0,NaValidGEPO,0
033679.656,HBD,IF1,MSG,AidEPO,SV,5,ret,1
033679.656,HBD,IF1,MSG,AidEPO,SV,6,ret,1
033679.656,HBD,IF1,MSG,AidEPO,SV,7,ret,1
033679.656,HBD,IF1,MSG,AidEPO,SV,8,ret,1
033679.656,HBD,IF1,MSG,AidEPO,SV,9,ret,1
033679.656,HBD,IF1,MSG,AidEPO,SV,10,ret,1
033679.656,HBD,IF1,MSG,AidEPO,SV,11,ret,1
033679.656,HBD,IF1,MSG,AidEPO,SV,12,ret,1
033679.656,HBD,IF1,MSG,AidEPO,SV,13,ret,1
033679.656,HBD,IF1,MSG,AidEPO,SV,14,ret,1
033679.656,HBD,IF1,MSG,AidEPO,SV,15,ret,1
033679.656,HBD,IF1,MSG,AidEPO,SV,16,ret,1
033679.656,HBD,IF1,MSG,AidEPO,SV,17,ret,1
033679.656,HBD,IF1,MSG,AidEPO,SV,18,ret,1
033679.656,HBD,IF1,MSG,AidEPO,SV,19,ret,1
033679.656,HBD,IF1,MSG,AidEPO,SV,20,ret,1
033679.656,HBD,IF1,MSG,AidEPO,SV,21,ret,1
033679.656,HBD,IF1,MSG,AidEPO,SV,22,ret,1
033679.656,HBD,IF1,MSG,AidEPO,SV,23,ret,1
033679.656,HBD,IF1,MSG,AidEPO,SV,24,ret,1
033679.656,HBD,IF1,MSG,AidEPO,SV,25,ret,1
033679.656,HBD,IF1,MSG,AidEPO,SV,26,ret,1
033679.656,HBD,IF1,MSG,AidEPO,SV,27,ret,1
033679.656,HBD,IF1,MSG,AidEPO,SV,28,ret,1
033679.656,HBD,IF1,MSG,AidEPO,SV,29,ret,1
033679.656,HBD,IF1,MSG,AidEPO,SV,30,ret,1
033679.656,HBD,IF1,MSG,AidEPO,SV,31,ret,1
033679.656,HBD,IF1,MSG,AidEPO,SV,32,path_2NG,ValidEPO,2,u4CurrGpsSecs,1137772349,u4GpsSecs,1137758400,seq,45,NAseq,0,Age_Epo,14,Naage,0,NaValidGEPO,0
033679.656,HBD,IF1,MSG,AidGLEP,SV,1,ret,1
033679.656,HBD,IF1,MSG,AidGLEP,SV,2,ret,1
033679.656,HBD,IF1,MSG,AidGLEP,SV,3,ret,1
033679.656,HBD,IF1,MSG,AidGLEP,SV,4,ret,1
033679.656,HBD,IF1,MSG,AidGLEP,SV,5,ret,1
033679.656,HBD,IF1,MSG,AidGLEP,SV,6,ret,1
033679.656,HBD,IF1,MSG,AidGLEP,SV,7,ret,1
033679.656,HBD,IF1,MSG,AidGLEP,SV,8,ret,1
033679.656,HBD,IF1,MSG,AidGLEP,SV,9,ret,1
033679.656,HBD,IF1,MSG,AidGLEP,SV,10,ret,1
033679.656,HBD,IF1,MSG,AidGLEP,SV,11,ret,1
033679.656,HBD,IF1,MSG,AidGLEP,SV,12,ret,1
033679.656,HBD,IF1,MSG,AidGLEP,SV,13,ret,1
033679.656,HBD,IF1,MSG,AidGLEP,SV,14,ret,1
033679.656,HBD,IF1,MSG,AidGLEP,SV,15,ret,1
033679.656,HBD,IF1,MSG,AidGLEP,SV,16,ret,1
033679.656,HBD,IF1,MSG,AidGLEP,SV,18,ret,1
033679.656,HBD,IF1,MSG,AidGLEP,SV,19,ret,1
033679.656,HBD,IF1,MSG,AidGLEP,SV,20,ret,1
033679.656,HBD,IF1,MSG,AidGLEP,SV,21,ret,1
033679.656,HBD,IF1,MSG,AidGLEP,SV,22,ret,1
033679.656,HBD,IF1,MSG,AidGLEP,SV,23,ret,1
033679.656,HBD,IF1,MSG,AidGLEP,SV,24,ret,1
033680.648,HBD,IF1,TIM,DSP,u1ChnNum,37,u2DataSize,57
033680.648,HBD,IF1,COM,BinDecX,65065
033680.648,HBD,IF1,TIM,DSP,u1ChnNum,48,u2DataSize,57
033680.648,HBD,IF1,COM,BinDecX,65065
033680.648,HBD,IF1,GPS,TkDltIn,11,12,1
033680.648,HBD,IF1,TIM,AcRCCEr,11,507,495,12,57,100
033680.648,HBD,IF1,TIM,NWloc,fgfirstUseNW,0,case,0,NWAID,0,NWUSE,0
033680.652,HBD,IF1,AGP,BOOST,Posdiff:2152.131348,0.875301,num:0,PosConverge,0,BoostRemT,19.000
$MTK_GPS_BEST,5,1011,PR,6,TT4SV,1011*26
$LOC_Cache_BIT,00000002*7D
$DBnm_NLP,[24.975746,121.327988,0,20.000000][2016/1/25,15:52:3][0][1]*0F
$cache_pos,-3007976.632008,4941815.970193,2676698.751754,[1137772338]*61
$cache,0,11,0.533691*65
$cache,1,7,0.544403*5A
$cache,2,1,0.362231*5A
$cache,3,8,0.291016*58
$cache,4,30,1.023781*67
$cache,5,16,-1.052246*47
$DO_Err,mean,0.283813,std,0.641503*73
$Cache_age,12,NLP_age,-99,NV_age,13*3A
033680.652,HBD,IF1,AGP,AGPSMGN,Posdiff:2152.131348,0.875301,num:0,PosConverge,0,AGPSRemT,16.000
033680.652,HBD,IF1,TIM,RstFSAg,1.0

#MZYQ.AE1E3&1D

#XPda.A@BC3&43

#MZYQ.@B1GYY5G7\KKP<&F3

#MZYQ.AH1HG4&57
033680.652,HBD,IF1,AGP,AGPSMGN,AGPSMode:-1,AGPSTimer:0.000
$PMTK015,33680652,10,1011,AMode,-1,ATimer,0.000,Remain,16.000*66
033680.652,HBD,IF1,AGP,AGPSMGN,DOP.H :1.453145,PosCon:0,[255.826614,97.557526,4.998016]
$PMTK015,33680652,6,1011,NACQ,6,NBS,6,NSFS,0,NEXS,0*68
$HBD,INF,RTC,F,0,Y,16,M,1,D,25,H,15,M,52,Sec,13,Sub,17198,T,1003,SM,12056*06
$DBts1,TSOK,0,WNSet,1,TOWS,5,WN,1881,BAcc,118.566,TAcc,9999000.000,*6D
$DBts2,TTK,1011,TOW,143550.476829324,B,0.000283678,D,0.000001188,*04
033680.652,HBD,IF1,ALO,CdmPvtU,
$HBD,INF,RTC,F,0,Y,16,M,1,D,25,H,15,M,52,Sec,13,Sub,17198,T,1003,SM,12056*06
$GNGGA,155213.476,2458.5199,N,12119.6705,E,1,6,1.45,129.1,M,15.0,M,,*4E
$GPGSA,A,3,11,07,01,08,30,16,,,,,,,1.72,1.45,0.92*07
$GLGSA,A,3,,,,,,,,,,,,,1.72,1.45,0.92*11
$GPGSV,4,1,15,11,84,241,31.6,01,63,179,31.7,07,62,286,36.2,08,45,024,32.7*78
$GPGSV,4,2,15,193,37,139,,30,35,313,29.2,27,20,048,,16,16,101,23.3*4B
$GPGSV,4,3,15,22,13,085,,32,13,132,,09,11,226,,28,08,307,*7F
$GPGSV,4,4,15,03,07,165,,23,05,193,,17,05,252,*42
$GLGSV,2,1,6,73,84,091,,84,59,286,,83,38,016,,74,37,336,*5A
$GLGSV,2,2,6,80,32,146,,85,20,239,*5E
$GNRMC,155213.476,A,2458.5199,N,12119.6705,E,1.701,113.69,250116,,,A*4F
$GNVTG,113.69,T,,M,1.701,N,3.151,K,A*2E
$GNACCURACY,16.5*24
$PMTKDGP,0*4D
$PMTKDBG,1011,0,1,0,0,0,0,0,1,0,1,0,0,0,0,0,0,0,0,1,1,1,1,1,0,0,0,0,0,0,0,0,0,0028,0014,0002,0006,0006,0000,0001,0000,0.0000,1.1877,0.0000,0.0000,0.0000,0.0000,*46
$PMTKDB2,0C13,0000,0000,0000,0000,0000,0000,0000,0273.80,1186.76,11877.21,9999000.32,0000.39,0283.68,0000.05,0000.00,*68
$PMTKEPH,43,1,3,7,8,9,-10.2.4,11,14,16,-17.2.4,21,22,23,26,27,-28.2.4,29,30,31,32,-65.2.4,-66.2.4,-67.2.4,-68.2.4,-69.2.4,-70.2.4,-71.2.4,-72.2.4,-73.2.4,-74.2.4,-75.2.4,-76.2.4,-77.2.4,-78.2.4,-79.2.4,-80.2.4,-82.2.4,-83.2.4,-84.2.4,-85.2.4,-86.2.4,-87.2.4,-88.2.4*60
$PMTKALM,32,1,2,3,5,6,7,8,9,10,11,12,13,14,15,16,17,18,19,20,21,22,23,24,25,26,27,28,29,30,31,32,193*51

#WXM[.?0A2C4E6G8I:K<M>O@QBSDUFWHYJ[L]N_PaRcTeVgXiZk\m^o`qbsdufwhyj{l}npy&39
#NMQR.A0AC3D5FHMI^Q]QOePfR[TUVW\a_[\^asvcbxmywxj~rmq^qttzz~zϾϾ԰³Ŷɹмο&5D
#NMQR.A0AD3D5FHMI^Q]QOePfRUTUVW_Yc[`robvebxvgnjknr~}p^xqqyxu|zx}ŲǻϾ԰³Ŷʹͼο&85
#NMQR.A0AE3D5FHMI^Q]QOePffWjkVWm]o]rqc_`ebxd{x{klrsno^uuqrvtuzx}Ǿýξ԰³Ŷ˹ͼο&33
#NMQR.A0AG3D5FHMI^Q]QOePfSiTUVW^lZpqpdq`ebxejzxko|pv^qqtuuyįǽνľ԰³Ŷȹ̼ο&E5
#NMQR.A0AH3D5FHMI^Q]QOePfUYTUVW]]kn]^otvdbxwzgojomo^vqr{z~{}}Ŵо԰³Ŷȹ˼ο&0F
#NMQR.A0AI3D5FHMI^Q]QOePfhVjkVWi]ol_q`d`bbxlfxlj{o|lm^xpqvuv{|ŵϼо԰³Ŷȹ˼ο&AD
#NMQR.A0AJ3D5FHMI^Q]QOePfhVjkVWa]]^rqervrbxfk{jkm~qm^qru}ŷǹϾ԰³Ŷȹμο&1D
#NMQR.A0AK3D5FHMI^Q]QOePfVWTUVW[Yao\depvvbxziykkplosv^upqrw{õƷƷǻ˿԰³Ŷɹͼο&C5
#NMQR.A0BB3H5FHMI^Q]QOePfhUjkVWja`]\c`h`fbxhnjkkl{~ru^rpqr||uzw{µóɻǿϿνϾ԰³Ŷʹμο&08
#NMQR.A0BC3D5FHMI^Q]QOePfgijkVWXlbpmq^evabxlkjhlkjq}~^tqzuy|}ȷҿ԰³Ŷ̹Ҽο&26
#NMQR.A0BD3D5FHMI^Q]QOePfSZTUVWZ]k^^s_g`vbxkgkxjrp}r^rqtxuu}³Ƶͻ԰³Ŷ˹ϼο&6D
#NMQR.A0BE3D5FHMI^Q]QOePfg\jkVW[l^nqepgvtbxum||kl~~mu^sqtz|}ķŲǼϽҽ԰³Ŷȹμο&17
#NMQR.A0BF3D5FHMI^Q]QOePfgfjkVW^]oo\]tbvtbxzhzjknqtn^qqqvtw|~|źɹǻϼӾ԰³Ŷȹ˼ο&99
#NMQR.A0BG3D5FHMI^Q]QOePfhSjkVW\Yacpfeuvvbxxgfxkosuq^xvqvuv~|ĶȻϼ԰³Ŷɹμο&E8
#NMQR.A0BH3D5FHMI^Q]QOePfSfTUVWklZornrb`wbxeyfkjz|lnu^vrqvuu{~ǼɺϾ԰³Ŷȹͼο&8D
#NMQR.A0BI3H5FHMI^Q]QOePfh\jkVW^anlqb^uvrbxzjw|kjmn^qw{}ĲŴǺϾ԰³Ŷȹ̼ο&9E
#NMQR.A0BJ3D5FHMI^Q]QOePfTUTUVWllac_rfa`fbxgijlkz|}rv^qzzuzz{ŴǻǾлž԰³Ŷɹмο&81
#NMQR.A0BK3D5FHMI^Q]QOePfhijkVWXa]pnoghvibxlikhkjq}pm^rqww}zļǼϼҾ԰³Ŷȹ̼ο&30
#NMQR.A0CB3D5FHMI^Q]QOePfS[TUVW_lo\__p``ebxxlnyk{jlp^uwqtzxuz{ǼǺϻýþ԰³Ŷɹ̼ο&0F
#NMQR.A0CC3D5FHMI^Q]QOePfgijkVWlYbdnqbavbbximopklnpu^rqvx~{Ʋμ԰³Ŷ̹Ҽο&DA
#NMQR.A0CD3D5FHMI^Q]QOePffUjkVWkl_]_bbs`fbxdxygk|ql^pquywuzǺ̻о԰³Ŷɹ˼ο&F5
#NMQR.A0CE3D5FHMI^Q]QOePfgijkVW^Ya`qoaevvbxwfg|k{krp^qwyzøŹǸлҾ԰³Ŷɹͼο&9A
#NMQR.A0CF3D5FHMI^Q]QOePfhejkVWZab`rrbb`abxumi}kj|pm^wqtz{}}ôǿλž԰³Ŷɹμο&98
#NMQR.A0CG3D5FHMI^Q]QOePfeZjkVWkY\nr_da`vbxinm}j{rt~t^wuqt|uu~|ĵĽͻ԰³Ŷɹͼο&16
#NMQR.A0CH3D5FHMI^Q]QOePfYSjkVWal_aq_caaabxhkwhki}on^uqrzu~~ĳǽϿ԰³Ŷȹ̼ο&7A
#NMQR.A0CI3D5FHMI^Q]QOePfSiTUVWj]`m\dgqvrbxzkkiklj|~^pqst}~úĴǺûξ԰³Ŷȹ̼ο&76
#NMQR.A0CJ3H5FHMI^Q]QOePfSZTUVWil]p`^dd`ubxeihzjrl~q^ovqtyu}~ĴʸϿν԰³Ŷɹ̼ο&A0
#NMQR.A0CK3D5FHMI^Q]QOePfR[TUVWiYbmabshvibxizwmkimso^wqrt{~÷ƵɸǼϾ԰³ŶʹԼο&4C
#NMQR.A0DB3D5FHMI^Q]QOePfT[TUVWYaco\o`f`cbxlhkzjrqs^wqr{uw}~ôѾ԰³Ŷȹ˼ο&DF
#NMQR.A0DC3D5FHMI^Q]QOePfhUjkVW\Y`o^bs_`bbxlemjj{qlq^tvqvw|uwzȼҾ԰³Ŷȹ˼ο&8B
#NMQR.A0GG3D5FHMI^Q]QOePfRWTUVWXampqpdf`cbxzkojiknt~p^stqruxy~Ʒȹ԰óŶȹмӿ&39
#NMQR.A0GH3D5FHMI^Q]QOePfSSTUVWall^]cdb`cbxhijoii~~^uqr{uxy|ĵŸȻϿ԰ƳŶȹмӿ&57

#NM^Z.BB1CCEF6H8JKN<NNT@QBSD&09
#\XOU.?0BC3GJ6G8ON;RNP`@QBX\UF\`YJ`L^gOificdUjommjt\noxao{z}~yk}nsx{&B1
#\XOU.@0H2FM5F7NM:PMOa?PAW[TE[_XI_K_eNhehbcTinkipn[mx`nysuww{zj|mqvy}&95
#\XOU.A0B2FI5F7NM:QMO_?PAVWTEZ[XI_K]cNhehbcTinjqqn[lt`nt|vuxxyi{~lotw{~&CE
#\XOU.B0I2FK5F7NM:QMO_?PAUYTEY]XI_K]cNhehbcTinghrj[tqv`ntvv|z{}|kmrwz~&6C
#\XOU.C0DB3GG6G8ON;SNP`@QBTZUFX^YJ`LaNhehbcTimnpij[mr`uryv{{|i|lzqvy}&2F
#\XOU.D0BH3FL6G8OL;SNP`@QB[TE^WH^J]Lfcf`aRgkfhhmYp}}p^lrvtv|x~{|i||lpux|~&8D
#\XOU.AF1DJ4E6G8I:]MMN?PARCTEYGXIc`c]^OdhdkenVk{}l[iovprrv|{{fyzizk|}~prtv{}&D0
#\XOU.BG1DCF5F7H9J;QMNO@QBSDUFZHYJ[L_aghjdSv{{yXfmsntqorurcuwfwhyz{|m~oqsxz}&67
#\XOU.CH1DE4E6G8I:]MMN?PARCTEYGXIc`c]^OdhbgdlVjjk|[iuvqww{|vexwhyj{|}~oqsuz|&8B

#NM`a.@@BC3E5F7H9J;L=N?PQRSTUVWHYJ[L&52
#NLPT.@A1CF4EFGK9MIN=NMPQ[CVVV\HVZY\_N_^abcTffelmZ&FD
#NLPT.F0BE3DEFJ8IHR<MLOPSBT]\XGXW\^L]\_edRlbhlW&8F
#NLPT.@0BE3DEFJ8IHR<MLOPRBWUU[GUYX\aM^]`cbSeedliY&CC
#NLPT.G0BE3DEFJ8JHR<MLOPQBWTY\GUYX[`M^]`acSmcooX&B7
#NLPT.B@1CF4EFGK9KIT=NMPQRC]YZ_\IW[Z_^O`_bdkUhmfqp[&53
#NLPT.@F1CF4EFGK9GLNKS?PORS\EWX\[ZaL]\`dQbadekWlphqq]&AF
#NLPT.AG1C3&0A

#NMMN.@0>CKKF6JQRM;MMOP@ZWZTUFX\IZKaM_ccfgcbimnXiZ&33
#KL_c.@0ECJGFJ7EMN;QQ>T@RBSD]VWYI&0D
#KL_c.B0EBEGFG7LQS;QQ>U@RBSD]VW[I&19
#KL_c.F0ECJIEJ7EJJRM=SS@VBTDUF_XY[K&75
#KL_c.G0ECFHGF7ELOPM=SS@VBTDUF_XY[K&74
#KL_c.H0EBFJEN7ELSLR=SS@WBTDUF_XY]K&84
#KL_c.@A1FDLLIP8FKNNR>TTAWCUEVG`YZ\L&AD
#KL_c.@F1FCHJJL8FMSQP>TTAXCUEVG`YZ^L&B3
#KL_c.@G1FCDMNI8JPK<RR?TWBUDUF_XY]K&80
#KL_c.AB1FCHGLH8FKMTT>TTAXCUEVG`YZ^L&AA
#KL_c.AC1FCENKO8FMTUQ>TTAXCUEVG`YZ^L&BC
#KL_c.AG1FCJKMJ8FNNNN>TTAXCUEVG`YZ^L&B0
#KL_c.AH1FCEHMK8LJO<RR?TWBUDUF_XY]K&7F
#KL_c.B@1FDEFIH8OLL<RR?VASCTE^WXZJ&3B
#KL_c.BB1FCIFFP8LJS<RR?VASCTE^WX\J&49
#KL_c.@ID2FJFMHJ9GLSTW?UUBTY[FWHYJc\]_O&4F
#KL_c.A@G2EEEMOO9GLUTT?UUBWDWFWHaZ[]M&E8
#KL_c.A@B2EDLJJP9KPTV>TTAVCVEVG`YZ\L&B5
#KL_c.A@H2EDKOHP9GPOMO?UUBWDWFWHaZ[]M&DC
#KL_c.AAB2EDLJMQ9GOTVN?UUBWDWFWHaZ[]M&E5
#KL_c.AAA2EDNLJO9GLUOU?UUBWDWFWHaZ[]M&E1
#KL_c.AAC2EDJFGQ9QKR=SS@UBUDUF_XY]K&77
#KLbg.?0CC3EF6IHO:L<T>QQQB[DWWXH[Z\L`^ObaiSflViikZlr]pq`ttc}exh|j}mpt&83
#KLbg.@0C2EDG6IHL:&5E

#\Qpou/FE2DGLMG8J:K<N>TQXBVW^FWH]\`eMbecjRhhlhWmnlt\mpsawyfz|~k}}puz&E6

#NM`].@@BC3E5K7JMSRQTR?QSSVV\__HZ^_L^fgaQcggjkglpp[mnqvwxtvw|f{~|j{l&FE
#NP\U.H0BCFKLMIJRR;`SSOPQBSDUFWHYJ`e_aahQfgTlng}|Zpuurau{twzh}ov}Ƿξֳ̬ʺ&0B
#NP\U.@A1CDGLMNJKSS<aTTPQRCTEVGXIZK^e`bbiRyzz|Wy}rm^qxrwyezzxlsz°Ͼ׵Ӽ&8C
#NP\U.@D1CDGLMLPQQS<aTTPQRCTEVGXIZK^__uqeRyzzyW}}po\oprcwz|j}~qxƴȹʺЫ͹&16
#NP\U.@F1CDGLMNJKSS<aTSPQRCTEVGXIZKbp`bbiRdwU|xhoo\soycv~z|jpv}ĵճ̺&2B
#NLXZ.F0AB3EMNH8MQO]NN?TfSSe[Fml^_[\Mo``ubkTl|ol}[uovxbuw|i}|}p&BA
#NLXZ.G0AB3EMNH8MRKaUT?TfRf][Fml\Z[\Mo``tstTyixkj{[rtrb{xwwyi|}~p&BE
#NLXZ.H0AB3EMNH8RJPLS>SeQZYZElk[_Z^Ln__ssdSiho|j|Zourawxvwhz{n&22
#NLXZ.@@1BC4FNOI9N\LU`V@UgSfUiGnm_d\]NpaavdwUhphrj\uvtscv|zjp&DD
#NLXZ.@A1BC4FNOI9N]TQca@UghU]]GnmZa\]NpaautjU{}{{|l\pc{yj}~q&5C
#NLXZ.@B1BC4FNOI9N^NcQ`@UgTjW[Gnm`l\]NpaaucfUwyk~n~\nssuwcz{xj}}~q&EC
$[AGT],GSET=1
$[AGT],rm,1,rt,1
$[AGT],fsm,wm,2
$[AGT],rv PMTKRQTEPH,1881,143550,4,4,10,17,28
$[AGT],GSET=1
$[AGT],rm,1,rt,7
$[AGT],fgFirstReq:0
$[AGT],bitmap,old: 308,new: 108
$[AGT],skip re_agps_req
$[AGT],GSET=1
$[AGT],rm,4,rt,9
$[AGT],inco
$[AGT],sel SI
$[AGT],rm,4
$[AGT],state:4
$[AGT],state:4
$[AGT],wkssi
$[AGT],s,1,m,3
$[AGT],idle
$[AGT],send aosp AGPS req
033680.660,HBD,IF1,BOT,MNLVer,AXN_3.70,1312,MNL_VER_15091601ALPS05_3.70_03,39,76
033681.656,HBD,IF1,TIM,DSP,u1ChnNum,37,u2DataSize,57
033681.656,HBD,IF1,COM,BinDecX,65065
033681.656,HBD,IF1,TIM,DSP,u1ChnNum,48,u2DataSize,57
033681.656,HBD,IF1,COM,BinDecX,65065
033681.656,HBD,IF1,GPS,TkDltIn,1011,1016,5
033681.656,HBD,IF1,TIM,NWloc,fgfirstUseNW,0,case,0,NWAID,0,NWUSE,0
033681.656,HBD,IF1,AGP,BOOST,Posdiff:3755.396484,0.432280,num:0,PosConverge,0,BoostRemT,18.000

#MZYQ.C@1B3&17
$LOC_Cache_BIT,00000002*7D
033681.656,HBD,IF1,AGP,AGPSMGN,Posdiff:3755.396484,0.432280,num:0,PosConverge,0,AGPSRemT,16.000
033681.656,HBD,IF1,TIM,RstFSAg,2.0

#MZYQ.AE1B3&1A

#XPda.BDHB3&4D

#MZYQ.@B1KTI5G7JMPQ<&D8

#MZYQ.AH1HG4&57
033681.656,HBD,IF1,AGP,AGPSMGN,AGPSMode:-1,AGPSTimer:0.000
$PMTK015,33681657,10,2011,AMode,-1,ATimer,0.000,Remain,16.000*61
033681.656,HBD,IF1,AGP,AGPSMGN,DOP.H :1.241877,PosCon:0,[42.726536,32.372517,3.578233]
$PMTK015,33681657,6,2011,NACQ,7,NBS,7,NSFS,4,NEXS,4*6F
$HBD,INF,RTC,F,0,Y,16,M,1,D,25,H,15,M,52,Sec,14,Sub,17292,T,2006,SM,10101*0F
$DBts1,TSOK,1,WNSet,1,TOWS,9,WN,1881,BAcc,20.286,TAcc,20.286,*6D
$DBts2,TTK,2011,TOW,143551.542000000,B,0.000284818,D,0.000001193,*03
$RtcUpdate,TOW,143551.542000000,*0E
033681.656,HBD,IF1,TIM,HALTIME,0,
033681.656,HBD,IF1,TIM,HALTSTA,0,
033681.656,HBD,IF1,TIM,HALTIME,2,REST
$RtcAcc,InitTick,1.000000000,InitTow,143549.531705540,Accus,-12.041*34
033681.656,HBD,IF1,ALO,CdmPvtU,
$HBD,INF,RTC,F,0,Y,0,M,0,D,0,H,0,M,0,Sec,0,Sub,0,T,0,SM,0*02
$GNGGA,155214.541,2458.5347,N,12119.7032,E,1,7,1.24,129.2,M,15.0,M,,*4A
$GPGSA,A,3,11,07,01,08,30,16,27,,,,,,1.54,1.24,0.92*01
$GLGSA,A,3,,,,,,,,,,,,,1.54,1.24,0.92*12
$GPGSV,4,1,15,11,84,241,29.8,01,64,179,32.0,07,62,286,34.7,08,45,024,31.5*7A
$GPGSV,4,2,15,193,37,139,,30,35,313,29.5,27,20,048,25.0,16,16,101,29.7*5B
$GPGSV,4,3,15,22,13,085,,32,13,132,,09,11,226,,28,08,307,*7F
$GPGSV,4,4,15,03,07,165,,23,05,193,,17,05,252,*42
$GLGSV,2,1,6,73,84,091,,84,59,286,,83,38,016,,74,37,336,*5A
$GLGSV,2,2,6,80,32,146,,85,20,239,*5E
$GNRMC,155214.541,A,2458.5347,N,12119.7032,E,0.840,153.90,250116,,,A*47
$GNVTG,153.90,T,,M,0.840,N,1.556,K,A*26
$GNACCURACY,7.3*12
$PMTKDGP,0*4D
$PMTKDBG,2011,1,1,0,1,0,0,0,1,0,0,0,0,0,0,0,0,0,0,1,1,1,1,1,0,0,0,0,0,0,0,0,0,0028,0014,0002,0007,0007,0000,0001,0000,0.0000,1.1934,0.0000,0.0000,0.0000,0.0000,*42
$PMTKDB2,0C14,0000,0000,0000,0000,0000,0000,0700,0053.61,0000.00,11934.47,0020.29,0000.19,0284.82,0000.05,0000.00,*57
$PMTKEPH,43,1,3,7,8,9,-10.2.4,11,14,16,-17.2.4,21,22,23,26,27,-28.2.4,29,30,31,32,-65.2.4,-66.2.4,-67.2.4,-68.2.4,-69.2.4,-70.2.4,-71.2.4,-72.2.4,-73.2.4,-74.2.4,-75.2.4,-76.2.4,-77.2.4,-78.2.4,-79.2.4,-80.2.4,-82.2.4,-83.2.4,-84.2.4,-85.2.4,-86.2.4,-87.2.4,-88.2.4*60
$PMTKALM,32,1,2,3,5,6,7,8,9,10,11,12,13,14,15,16,17,18,19,20,21,22,23,24,25,26,27,28,29,30,31,32,193*51

#WXM[.?0A2C4E6G8I:K<M>O@QBSDUFWHYJ[L]N_PaRcTeVgXiZk\m^o`qbsdufwhyj{l}npy&39
#NMQR.A0GI3D5FHMI^Q]QOePfR\TUVW`lpc\dg_`cbxe{{{ii}q^xyqrwuxy{Ȼν԰ǳŶȹмӿ&1F
#NMQR.A0GJ3D5FHMI^Q]QOePfRhTUVW`a^`]agg`cbxdjkoijlo^qqqrzuux|x}}ôƸȺϽ¾԰ȳŶȹмӿ&A8
#NMQR.A0GK3D5FHMI^Q]QOePfhYjkVWk][n\]th`bbxik{jikl}^qyqruux~zöźȹν԰óŶɹмӿ&CE
#NMQR.A0HB3D5FHMI^Q]QOePfRXTUVW_ln[\n^t`cbxdvi{iknmu^wqrtux~µǵȵȹ˻԰ƳŶȹмӿ&1B
#NMQR.A0HC3D5FHMI^Q]QOePfhhjkVW^Y^]rsoq`cbxmzzkiim^xqrzuxzx|ƸȻϺ԰ǳŶȹмӿ&02
#NMQR.A0HD3D5FHMI^Q]QOePfRSTUVWala_rpfq`cbxjhjgijt~o^upqrzuxz|ĴȻν԰ȳŶȹмӿ&C4
#NMQR.A0HE3D5FHMI^Q]QOePfR\TUVW]a^l\`_s`hbxdmnjhp|pnr^vuqs{wu|~ĻȾϼľ԰ĳŶȹмӿ&4B
#NMQR.A0HF3D5FHMI^Q]QOePfRZTUVW[ama\]qq`hbxliwlhml}v^uqrsu}}ÿϺо԰ɳŶȹмӿ&58
#NMQR.A0HG3D5FHMI^Q]QOePfRYTUVW_ap`\_of`gbxxjgxhpnrl^qru{~|óĵȿϾ԰³Ŷȹмӿ&0D
#NMQR.A0HH3D5FHMI^Q]QOePfReTUVW[l`c\ags`gbxg{lghqlo^oqqs{u{zŶȾƾ԰óŶȹмӿ&C7
#NMQR.A0HI3D5FHMI^Q]QOePfhgjkVW]aaa\^_``hbxiknjhopo^qtqrxu|yyĲȿž԰ĳŶȹмӿ&2F
#NMQR.A0HJ3D5FHMI^Q]QOePfTeTUVWjlmo^`t_`gbxdgxzhm|ot^qrvu|°ıĳʹϽϾ԰ɳŶȹмӿ&BB
#NMQR.A0HK3D5FHMI^Q]QOePfRYTUVW`Y\c\e_q`ibxizy|hmp}o^qrqswu}x|}ıǹοо԰³Ŷȹмӿ&09
#NMQR.A0IB3D5FHMI^Q]QOePfRdTUVWYlnn\`d_`hbxwnmphqnsu^uqsyvu|}{ǴŶȽοž԰óŶȹмӿ&5E
#NMQR.A0ID3D5FHMI^Q]QOePfRiTUVWjl^o\odavgbxeghph}osnn^xqr||}zɹȸͻҽ԰ųŶȹмӿ&34
#NMQR.A0IE3D5FHMI^Q]QOePfh[jkVWkamdqpt`vfbxfnizh|s}t^wtqr{|y{||ƻȹ̻Ӿ԰ųŶɹмӿ&57
#NMQR.A0IF3D5FHMI^Q]QOePfhSjkVWllklq`rfvfbxwxxoh{{l~q^tqr|{ǻȷȹϺҾ԰ĳŶɹмӿ&EC
#NMQR.A0IG3D5FHMI^Q]QOePfRhTUVWYl_^\cgpvgbxei|ih|qum^ppqr{{}}y{ïŴȹҿ԰ƳŶȹмӿ&D7
#NMQR.A0IH3D5FHMI^Q]QOePfReTUVW\]n_]etqvgbxlin}h|nv^tqqsx}}||øȹ԰ųŶɹмӿ&83
#NMQR.A0II3D5FHMI^Q]QOePfffjkVWn]^prcsevgbxenmkh|nnmp^pvqr|}}{ȳȻȹҿ԰ųŶɹмӿ&89
#NMQR.A0IJ3D5FHMI^Q]QOePfhgjkVWlYbnqrg_vgbxdwhlh|l^pqr|v}¶ĳȺϺ԰ĳŶɹмӿ&C6

#NM^Z.BB1DCEF6H8JKP<NNT@QBSD&0C
#\XOU.?0BC3GH6G8ON;SPPb@QBTXYVGY]^[LbNaaQkhkefWinjspmv_sdr~~}~nqv{~&2F
#\XOU.@0H2FL5F7NM:POOa?PASXTUFX]YZKaMb_PjgjdeVhmiqlsp^uvcq|v~xy{~mpuz}&1E
#\XOU.A0B2FI5F7NM:QOOa?PATWTEX[XI_K^dNhehbcTfkgnrro\mtuvaovyv{}zj|mpux|&06
#\XOU.B0I2FI5F7NM:QOOa?PAST\UFXYaZKaM`dPjgjdeVhmimktu^ruvxcqwyz~}~}|npuz}&64
#\XOU.C0DB3GG6G8ON;RNP`@QBTT]VGYYb[LbN`eQkhkefWinjktmo_uudyvx~|}mp~uz}&E9
#\XOU.D0BH3GG6G8ON;SNP`@QBTTUVGYYZ[LbN`cQkhkefWimsonnp_wxdrx|{|{orw|&48
#\XOU.E0CI3FM6G8ON;TNP`@QBYTUF]XYJ`LbNhehbcTfjpnlnk\uswaou|x~yyzloty|&E8
#\XOU.F0DD3D5F7H9\LLM>O@QBSDXFWHb_b\]N`dcjddgViqn~[msuvwssydv|gxiz{|}nprty{~&58
#\XOU.G0J2C4E6G8[KKL=N?PARCWEVGa^a[\M_cbggllUng~{Zhnsnotwzw|ew|hyj{|}~oqsuz|&A7
#\XOU.H0D2C4E6G8[KKL=N?PARCWEVGa^a[\M_cbfechUjmpkZmtsqxrttcuxfwhyz{|m~oqsxz}&14
#\XOU.@@1DF4E6G8I:]MMN?PARCTEYGXIc`c]^OaedgminWomn~\jpuurw{zz|gy|j{l}~qsuw|~&EF
#\XOU.@E1DCJ5F7H9J;UNNO@QBSDUFZHYJacfacPccckmiWniq~\joqyu{|ux|gi|~nsuwy~&BD
#\XOU.@F1DCE5F7H9J;UNNO@QBSDUFZHYJacfacPcbjhhkWpirl\nnsqtxztyfhyj{|}~oqsuz|&A2
#\XOU.@G1DCK5F7H9J;UNNO@QBSDUFZHYJacfacPcbimfiWmmmk\jqswurywx|gizk|}~prtv{}&DB
#\XOU.@H1DDF5F7H9J;UNNO@QBSDUFZHYJacfacPcbhdelWkqk\qtqvyvtzegxiz{|}nprty{~&88
#\XOU.@I1DCE5GM8I:NN=WPPQBSDUFWH^J[LcehceRedljjqYrtmo^pqqxvy|~xhz|kypuwy{&25
#\XOU.AA1DDD5J7H9MM<_OOPARCTEVG]IZKbdgbdQdcmmkjX}qp]kprrssy~~{hz{kotvxz&F2
#\XOU.AB1DCJ5K7H9KS<VOOPARCTEVG]I[KbdgbdQdddkjgXzkrm]kprryv|}vwhz|k}~puwz|&4A
#\XOU.AC1DDD5F7H9J;UNNO@QBSDUFZHYJacfacPcbljhiWnms\joqvszz||xgizk|}~prtv{}&F6
#\XOU.AF1DK4E6G8I:]MMN?PARCTEYGXIc`c]^OaedflkiWkjjo\nwxrs{wxewyhyj{|}~oqsuz|&7A
#\XOU.BG1DDE5F7H9J;UNNO@QBSDUFZHYJacfacPcbjffhWoprp\jqqpuyttyvgyj{l}~qsuw|~&FF
#\XOU.CH1DE4E6G8I:TMMN?PARCTE\GXIc`c]^OaekememWmqqn\jvtyyuuwwfxizk|}~prtv{}&C0

#NM`a.A@BC3E5F7H9J;L=N?PQRSTUVWHYJ[L&53
#NLPT.@A1CF4EFGK9GQJU>ONQRYDVWZXIW]ZbbOb_bigUkelkZ&13
#NLPT.F0BE3DEFJ8FKMJM>ONVUXDVV^XIW\Z`cO`_bdeUjepkZ&0F
#NLPT.@0BE3DEFJ8FLNJU>ONQYWD^ZWX^JX][ehPa`cgiVhogms\&8D
#NLPT.G0BE3DEFJ8JSIQ=PMQT[CUVYXHV\Yb_N`^ckeTjdjqY&FF
#NLPT.B@1CF4EFGK9GNLKN?UOZVWEW]XbJX][afPa`cfmVmfkr[&55
#NLPT.@F1CF4EFGK9GLMKU?ROT[YEX\`^JX_[`aPb`idnVmfmk[&5E
#NLPT.AG1CF4EFGK9LNJQ>ONQRYD^[XX_JX^[_bPa`cdfVijgnn\&79
#NLPT.BB1C3&06
#NLPT.H0B2&DA
#NLPT.B0B2&D4
#NLPT.AC1C3&06
#NLPT.A@G2F4&3B
#NLPT.A@B2F4&36
#NLPT.A@H2D4&3A
#NLPT.AAC2D4&36
#NLPT.A@B2E4&35
#NLPT.AAA2E4&35
#NLPT.A@G2E4&3A
#NLPT.AAA2F4&36
#NLPT.AH1C3&0B

#NMMN.@0>CKLE6JQQK;NMOP@ZWZTUFX\IZKeM_ccfgdbjjiXiZ&2F
#KL_c.@0BGCJNNK8FOM<PW?TASCWE^WXZJ&4E
#KL_c.B0BFLENNH8MQT<PW?TASCWE^WX\J&62
#KL_c.F0BGCKFMJ8FKKSU>RYAVCUEYG`YZ\L&B4
#KL_c.G0BGCGENO8FMPRN>RYAVCUEYG`YZ\L&B5
#KL_c.H0BFLGGML8FMTNP>RYAVCUEYG`YZ^L&C0
#KL_c.@A1CHDMJGP9GLOPR?SZBWDVFZHaZ[]M&DC
#KL_c.@F1CGMIHHK9GNTSS?SZBWDVFZHaZ[_M&EC
#KL_c.@G1CGMEKLI9KPP=QX@UXCVEVG`YZ^L&B9
#KL_c.AB1CGMHOJH9GLOMN?SZBWDVFZHaZ[_M&DC
#KL_c.AC1CGMFLIM9GOLMP?SZBWDVFZHaZ[_M&DE
#KL_c.AG1CGMKIKH9GOOPP?SZBWDVFZHaZ[_M&E7
#KL_c.AH1CGMFFKL9LTS=QX@UXCVEVG`YZ^L&C1
#KL_c.B@1CHDENGI9PLO=QX@UBTDXF_XY[K&74
#KL_c.BB1CGMIMNQ9LTS=QX@UBTDXF_XY]K&9A
#KL_c.@ID2DHJGJPJ:HMTVX@T[CUZ\GXI]Kd]^`P&89
#KL_c.A@G2EHIFOQ9GLUUS?SZBWDWFZHaZ[]M&F0
#KL_c.A@B2EHEMKI9KPTN>RYAVCVEYG`YZ\L&AD
#KL_c.A@H2EHEHHQ9GPONO?SZBWDWFZHaZ[]M&DB
#KL_c.AAB2EHEMNH9GOUMN?SZBWDWFZHaZ[]M&DB
#KL_c.AAA2EHGOJP9GLUPR?SZBWDWFZHaZ[]M&E6
#KL_c.AAC2EGMIHJ9QKL=QX@UBUDXF_XY]K&7A
#KLbg.?0CC3EF6IHO:L<T>QQQB[DWWXH[Z\L`^ObaiSflViikZlr]pq`ttc}exh|j}mpt&83
#KLbg.@0C2EDG6IHL:&5E

#\Qpou/AB2DGLIK8I:K<M>SPWBUV[FWH[ZdbM`_gaRhjfoWmoqt\mptawzfz|~k}}puz&CF
#NP\U.AA1CDGLMMMIRR<aTSQQRCTEVGXIZKca``fgRyzz|Wz}rtqu^vtstueyz|~lszŸ½ʶԽ&A0
#NP\U.AB1CDGLMNJKSS<aTSPQRCTEVGXIZK]e`bbiRyzyhWknokpq^pxqwx|eyx}lsy°ơƸ¼ѾϯٶϽ&01
#NP\U.AC1CDGLMNJKSS<aTTPQRCTEVGXIZK]e`bbiRyzz|W}{qosm^pxw|ey|{lsz­ǷЮɵ˼&2C
#NP\U.AF1CDGLMNHIRN<aTSPQRCTEVGXIZKc_aahQxykeV|jm}p]uppv{cwuw}jqw~ɿůɶս&8C
#NLXZ.@C1BC4FNOI9N_NSQV@UgTWXXGnm^_\]NpaavcdUkooop|\rnrxvcuujq&F4
#NLXZ.@D1BC4FNOI9N`PQNP@UgSiYgGnm]p\]NpaavgdUkm~|l~\nxuvcy~}zjo&B3
#NLXZ.@E1BC4FNOI9NaPNbc@Ugi\^_Gnm\\\]NpaavvhUkhqq||\nqtxwcw|~j}~q&0E
#NLXZ.@F1BC4FNOI9OKPRRX@UgTj\_Gnm`d\]NpaavgiUwzhjk\upb{y}i|}p&CA
#NLXZ.@G1BC4FNOI9OLQVae@UgTYWgGnm]n\]NpaaulyUzlzo{n\nrqcyx|yj}~q&04
#NLXZ.@H1BC4FNOI9OMTTWQ@UgiX]lGnm]p\]NpaauwgUhohp|\osxc}}|~j~}~q&05
$[AGT],GSET=1
$[AGT],rm,1,rt,7
$[AGT],fgFirstReq:0
$[AGT],bitmap,old: 108,new: 108
$[AGT],fsm,wm,3
$[AGT],skip
$[AGT],GSET=2
$[AGT],rm,6,rt,3
$[AGT],receive pmtk
$PMTK015,33682792,4,3151,PMTK290,1,1,0*21
$PMTK730,0,0,0,1,0,0,0,0,1*2A
$PMTK015,33682792,4,3151,PMTK730,0,0,0,1,0,0,0,0,1*2E
$PMTK001,290,3*3B
033683.113,HBD,IF1,TIM,DSP,u1ChnNum,37,u2DataSize,57
033683.113,HBD,IF1,COM,BinDecX,65065
033683.113,HBD,IF1,GPS,TkDltIn,2011,2021,10
$QEPO_Request*05
$[AGT],GSET=3
$[AGT],rm,1,rt,10
$[AGT],set Qepo req
$[AGT],TSETe=3
$[AGT],inco
$[AGT],rm,0
$[AGT],remd == 0
033683.113,HBD,IF1,TIM,NWloc,fgfirstUseNW,0,case,0,NWAID,0,NWUSE,0
033683.113,HBD,IF1,AGP,BOOST,Posdiff:576.456970,0.265103,num:0,PosConverge,0,BoostRemT,16.541
$LOC_Cache_BIT,00000002*7D
033683.113,HBD,IF1,AGP,AGPSMGN,Posdiff:576.456970,0.265103,num:0,PosConverge,0,AGPSRemT,15.680

#MZYQ.AE1E3&1D

#XPda.CDHB3&4E

#MZYQ.C@1C3&18

#MZYQ.@B1CDKJ6H8KP`^=&14

#MZYQ.AH1HG4&57
033683.113,HBD,IF1,AGP,AGPSMGN,AGPSMode:3,AGPSTimer:0.321
$PMTK015,33683113,10,3470,AMode,3,ATimer,0.321,Remain,15.679*42
033683.113,HBD,IF1,AGP,AGPSMGN,DOP.H :1.242096,PosCon:0,[25.812777,19.686737,4.381298]
$PMTK013,3470,INF,TA,ENTRY,TS,9,TOW,143553.001000000,CB,0.000286625,AGPSM,1*03
$PMTK013,3470,INF,TA,CTk,3470,CPage,11,CSF,1,CSFT,3.001,SFNumSent,0*52
$PMTK013,3470,INF,TA,NPage,11,NSF,2,NSFTow,143556.000000000,NZCNT,23927,NSFTk,6469*4C
$PMTK013,3470,INF,TA,TAEnableList*72
$PMTK015,33683113,5,3470,TA_Aiding*6B
$PMTK015,33683113,6,3470,NACQ,7,NBS,7,NSFS,4,NEXS,4*68
$HBD,INF,RTC,F,0,Y,16,M,1,D,25,H,15,M,52,Sec,15,Sub,14512,T,3466,SM,261*05
$DBts1,TSOK,1,WNSet,1,TOWS,9,WN,1881,BAcc,15.211,TAcc,15.211,*6D
$DBts2,TTK,3470,TOW,143553.001000000,B,0.000286625,D,0.000001200,*0A
033683.113,HBD,IF1,TIM,HALTIME,0,
033683.113,HBD,IF1,TIM,HALTSTA,0,
$RtcAcc,InitTick,1.000000000,InitTow,143549.531705540,Accus,-11.997*35
033683.113,HBD,IF1,ALO,CdmPvtU,
$HBD,INF,RTC,F,0,Y,16,M,1,D,25,H,15,M,52,Sec,15,Sub,14512,T,3466,SM,261*05
$GNGGA,155216.000,2458.5358,N,12119.6889,E,1,7,1.24,128.5,M,15.0,M,,*49
$GPGSA,A,3,11,07,01,08,30,16,27,,,,,,1.54,1.24,0.92*01
$GLGSA,A,3,,,,,,,,,,,,,1.54,1.24,0.92*12
$GPGSV,4,1,15,11,84,241,30.3,01,64,179,31.0,07,62,286,35.3,08,45,024,31.1*7B
$GPGSV,4,2,15,193,37,139,,30,35,313,28.0,27,20,048,25.9,16,16,101,28.1*51
$GPGSV,4,3,15,22,13,085,,32,13,132,,09,11,226,,28,08,307,*7F
$GPGSV,4,4,15,03,07,165,,23,05,193,,17,05,252,*42
$GLGSV,2,1,6,73,84,091,,84,59,286,,83,38,016,,74,37,336,*5A
$GLGSV,2,2,6,80,32,146,,85,20,239,*5E
$GNRMC,155216.000,A,2458.5358,N,12119.6889,E,0.515,147.50,250116,,,A*46
$GNVTG,147.50,T,,M,0.515,N,0.954,K,A*2D
$GNACCURACY,5.7*14
$PMTKDGP,0*4D
$PMTKDBG,3470,1,1,0,1,0,0,0,1,0,0,0,0,0,0,0,0,0,0,1,1,1,1,1,0,0,0,0,0,0,0,0,0,0028,0014,0002,0007,0007,0000,0000,0000,0.0000,1.1997,0.0000,0.0000,0.0000,0.0000,*48
$PMTKDB2,0D17,0000,0000,0000,0000,0000,0000,0000,0032.46,0000.00,11997.78,0015.21,0000.00,0286.62,0000.05,0000.00,*59
$PMTKEPH,43,1,3,7,8,9,-10.2.4,11,14,16,-17.2.4,21,22,23,26,27,-28.2.4,29,30,31,32,-65.2.4,-66.2.4,-67.2.4,-68.2.4,-69.2.4,-70.2.4,-71.2.4,-72.2.4,-73.2.4,-74.2.4,-75.2.4,-76.2.4,-77.2.4,-78.2.4,-79.2.4,-80.2.4,-82.2.4,-83.2.4,-84.2.4,-85.2.4,-86.2.4,-87.2.4,-88.2.4*60
$PMTKALM,32,1,2,3,5,6,7,8,9,10,11,12,13,14,15,16,17,18,19,20,21,22,23,24,25,26,27,28,29,30,31,32,193*51

#WXM[.?0A2C4E6G8I:K<M>O@QBSDUFWHYJ[L]N_PaRcTeVgXiZk\m^o`qbsdufwhyj{l}npy&39

#NM^Z.BB1EGKE6H8JKP<NNT@QBSD&16
#\XOU.?0BC3GH6G8ON;QPPb@QBUZ[VGZ_`[LbNdhQkhkegWimpqpsq_twdr~yz}nqv{}&1D
#\XOU.@0H2FL5F7NM:POOa?PAT\TUFYaYZKaMe_PjgjdfVhloomnv^utycq|wz~|~{mpuz}&27
#\XOU.A0B2FH5F7NM:QOOa?PASXTUFX]YZKaMdbPjgjdfVhlookpm^uxvcqyy{zz}}l~osx{&70
#\XOU.B0I2FH5F7NM:POOa?PATX\UFY]aZKaMdgPjgjdfVhloklpn^qrcqwyz}||nqw|~&A2
#\XOU.C0DB3GF6G8ON;RNPb@QBUUUVGZZZ[LbNcbQkhkegWimostrv_sdxzyy}{mp~v{}&C3
#\XOU.D0BH3GF6G8ON;RNPb@QBUT[VGZY`[LbNccQkhkegWimomnst_rvdrx||z|~orx}&7A
#\XOU.E0CI3FM6G8ON;SNP`@QBT[[VGY``[LbN`aQkhkegWimooovq_wrvzdrx|{orx}&7E
#\XOU.F0DD3D5F7H9\LLM>O@QBSDXFWHb_b\^N`cihdinVmqzm[npttxu{ydv{gxiz{|}nprty{~&6C
#\XOU.G0J2C4E6G8[KKL=N?PARCWEVGa^a[]M_bhehheUyg{~Zhnrqpvvwy|ew{hyj{|}~oqsuz|&AE
#\XOU.H0D2C4E6G8[KKL=N?PARCWEVGa^a[]M_bhdeieUxiq~Znqrpourtcuwfwhyz{|m~oqsxz}&2C
#\XOU.@@1DF4E6G8I:]MMN?PARCTEYGXIc`c]_OadjfdegWyjjq\jptxsyzw||gy{j{l}~qsuw|~&D8
#\XOU.@A1DE4GK7H9MM<_UOPARCTEVG]IZKebe_aQcgifoolY{om^lxvt|zwxhzk}~otwy{&1A
#\XOU.@B1DK4GF7H9MM<_OOPARCTEVG]IZKebe_aQcghnggiYjqor^pysys||xgyjx~nsuwy~&72
#\XOU.@E1DCF5HH8I:P<TNQRARCTEVG]I]K\Ma_iabgTkwo~Ygnovorysrcuxfxj{|}oqtv{}&16
#\XOU.@F1DCE5GM8I:NN=WPPQBSDUFWH^J[LcehcfRghfoolYsnnu^pqqw|t|yyhz{ky~qvxz|&26
#\XOU.@G1DCJ5F7H9J;^PNO@QBSDUFZHYJacfadPeikjhjWiqno\jorpqz{}{vgyj{l}~qsuw|~&24
#\XOU.@H1DCK5F7H9J;^PNO@QBSDUFZHYJacfadPeigkkhWqmrs\jqsxqxtz~|gzj{l}~qsuw|~&3B
#\XOU.@I1DCE5GO8I:LP=`PRSBSDUFWH^J\LcehcfRghfooqYoln^ppzzty~zhzkyqvx{}&98
#\XOU.A@1DDE5F7H9J;^PNO@QBSDUFZHYJacfadPeihgfiW{nnm\jqqqrtyxuvgyyj{l}~qsuw|~&07
#\XOU.AA1DDD5GI8I:LS=`PRSBSDUFWH^J\LcehcfRghijgiY}~^lqss{v|y{|i{{lqvx{}&CE
#\XOU.AB1DDF5F7H9J;^PNO@QBSDUFZHYJacfadPeieljnWmjqq\qswwvtstex|hz~m~rtvx}&A2
#\XOU.AC1DCG5GO8I:NN=UOPQBSDUFWH^J[L]N`ffjejUjj}|Zhmssuqux{|ew|hzl}~qsuw|~&65
#\XOU.AF1B3D5F7H9JKLM>O@QBSDUFWHYJ[L]^_`QbSdUfWhijk\m^o`qbstuvgxizk|m~oq&32
#\XOU.BG1CJ4E6G8I:]MMN?PARCTEYGXIc`c]_OaefkdnmWjmr\nnoyswwxew}hyj{|}~oqsuz|&91
#\XOU.CH1B3D5F7H9JKLM>O@QBSDUFWHYJ[L]^_`QbSdUfWhijk\m^o`qbstuvgxizk|m~oq&36

#NM`a.BDHB3E5F7H9J;L=N?PQRSTUVWHYJ[L&5D
#NLPT.@A1CF4EFGK9GMLKV?PORTUE\_^IW]Z]bO`_cdmUhekmZ&13
#NLPT.F0BE3DEFJ8FRIO=NMPQYCZW\GUZXc]M^]`ggSecnjX&BF
#NLPT.@0BE3DEFJ8FMLJU>ONYRUDVWZXIW]Zb^O`_jkdUkeknZ&17
#NLPT.G0BE3DEFJ8FMNJM>ONUSTD[^^HV[YbfN_^abcTgdjmY&EA
#NLPT.B@1CF4EFGK9GNLKP?QOSYUEWX^^JX^[bgPa`hmfVjfjo[&4B
#NLPT.@F1CF4EFGK9GRPKT?ROWX\EWX^_JX^[chPa`ihgVjfjn[&65
#NLPT.AG1CF4EFGK9GNTKW?PORTXEYYX_JX^[_fPa`cieVhlgjr\&7F
#NLPT.BB1C3&06
#NLPT.H0B2&DA
#NLPT.B0B2&D4
#NLPT.AC1C3&06
#NLPT.AB1D3&06
#NLPT.AH1D3&0C
#NLPT.A@B2E4&35
#NLPT.A@G2D4&39
#NLPT.A@H2D4&3A
#NLPT.A@B2F4&36
#NLPT.AAB2D4&35
#NLPT.AAA2E4&35
#NLPT.AAC2D4&36

#NMMN.@0>CKME6JQOS;OQUO@ZWZTVFX\IZKeM_ccfgfbefhXiZ&39
#KL_c.@0BFIIEJG8FPN<OU?TASCWE^WXZJ&40
#KL_c.B0BFHDEIO8MPT<OU?TASCWE^WX\J&52
#KL_c.F0BFIIGHP8FKKTU>QWAVCUEYG`YZ\L&B7
#KL_c.G0BFIEFJH8FMPSM>QWAVCUEYG`YZ\L&AB
#KL_c.H0BFHEHHO8FMTOP>QWAVCUEYG`YZ^L&B7
#KL_c.@A1CGJKJMK9GLOQR?RXBWDVFZHaZ[]M&DE
#KL_c.@F1CGIGHMN9GNTTS?RXBWDVFZHaZ[_M&EC
#KL_c.@G1CGHMLGQ9KOO=PV@UXCVEVG`YZ^L&BB
#KL_c.AB1CGIFOOM9GLONN?RXBWDVFZHaZ[_M&DE
#KL_c.AC1CGHNLNP9GOLNP?RXBWDVFZHaZ[_M&E7
#KL_c.AG1CGIIIPK9GOOQO?RXBWDVFZHaZ[_M&E6
#KL_c.AH1CGHNGGI9LSU=PV@UXCVEVG`YZ^L&BC
#KL_c.B@1CGIMNLP9PKP=PV@UBTDXF_XY[K&89
#KL_c.BB1CGIGNJN9LSS=PV@UBTDXF_XY]K&8A
#KL_c.@ID2DHEOKKO:HMTWX@SYCUZ\GXI]Kd]^`P&8B
#KL_c.A@G2GKMLJO9GLUVS?RXBWDWFZHaZ[]M&F6
#KL_c.A@B2GKJHPH9KPSO>QWAVCVEYG`YZ\L&B3
#KL_c.A@H2GKIMMM9GPOOP?RXBWDWFZHaZ[]M&E9
#KL_c.AAB2GKJIHO9GOUMW?RXBWDWFZHaZ[]M&E8
#KL_c.AAA2GKLJON9GLUQR?RXBWDWFZHaZ[]M&EC
#KL_c.AAC2GKGNMI9PSU=PV@UBUDXF_XY]K&90
#KLbg.?0CC3EF6IHO:L<T>QQQB[DWWXH[Z\L`^ObaiSflViikZlr]pq`ttc}exh|j}mpt&83
#KLbg.@0C2EDG6IHL:&5E

#\Qpou/IG2DFKFL8J:K<M>O@RWU]]F_\_J^\_^OccdjTkgjmYpknn^orycv}h|~m~rw|&48
#NP\U.AG1CDGLMNJKSS<aTTPQRCTEVGXIZK^^`bbiRdzUmm|or[nnxvbvwu{i~|~pw~ɲѹ&36
#NP\U.AI1CDGLMLOQSQ<aTSPQRCTEVGXIZKb^tpdQjSijnyyiZqus`tszgnu|óļĭȴͻ&1A
#NP\U.B@1CDGLMNJKSS<aTTPQRCTEVGXIZK^_`bbiRelUxp~m}[nonpwrbux}i|pv}ƶŭִ̻&E4
#NP\U.BA1CDGLMMMIRR<aTTPQRCTEVGXIZK]c``ffRyz{hWjnp~^pvqtexx}lrxšȸʾүٶ&2E
#NLXZ.@I1BC4FNOI9ONQ`RU@UgTWY^Gnm]l\]NpabkdxUznzorq\nwpc|{j}~q&00
#NLXZ.A@1BC4FNOI9OONUVX@UgiY[[Gnm]q\]NpaavdfUhl}rq}\psvcwwyj~}~q&C6
#NLXZ.AA1BC4FNOI9OP^`_S@UgifgjGnm]d\]NpaavchU|{qlpo\sqttcvzjq&71
#NLXZ.AB1BC4FNOI9OQObOR@UgiWW^Gnm]l\]NpabjhkUhoh\~vrc{y{{{j~q&0F
#NLXZ.AC1BC4FNOI9ORQRVV@UgSV]XGnm\p\]NpaavidUkj}irn\vsvvzrcv|jq&F9
#NLXZ.AD1BC4FNOI9OSNOQX@UgSYfVGnm^a\]NpaautwUm{yks\qpwrbtuz}}i|}p&8E
$[AGT],GSET=3
$[AGT],rm,1,rt,7
$[AGT],fgFirstReq:0
$[AGT],bitmap,old: 108,new: 108
$[AGT],inco
$[AGT],srm,1,dsm,4,tp,7,length,12
$[AGT],tp,264,wn,1881,tw,143553,si,12
$[AGT],rm,2
$[AGT],state:7
$[AGT],wn:1881, tw:143553
$[AGT],ergt
$[AGT],
$[AGT],Esgt 1137715200
$[AGT],epegt
$[AGT],gfisiz()
$[AGT],egtEf,1140307200
$Rdon
$[AGT],res,1137772353,sst,1137715200,egsn,1140307200
$[AGT],wk,epo
$[AGT],s,1,m,1
$[AGT],idle
$@#$^ [AGNT] pEd
$[AGT],opmode GLO(1),GEL(0),DB(0)
$[AGT],tw,143553,gs,1137772353
$[AGT],eextd
$[AGT]start verify
$[AGT],gfisiz()
$[AGT]FileType:GPS+GLO
$[AGT],
$[AGT],epegt
$[AGT],gfisiz()
$[AGT],Extract epo done
$[AGT],GSET=3
$[AGT],rm,4,rt,8
$[AGT],inco
$[AGT],srm,4,dsm,4,tp,8,length,12
$[AGT],tp,264,wn,1881,tw,143553,si,12
$[AGT],rm,3
$[AGT],state:6
$[AGT],wn:1881,tw:143553
$[AGT],BGAI
$[AGT],0,av:89,b_sky:0
$[AGT],1,av:85,b_sky:0
$[AGT],2,av:121,b_sky:0
$[AGT],3,av:0,b_sky:1
$[AGT],4,av:85,b_sky:0
$[AGT],5,av:85,b_sky:0
$[AGT],6,av:73,b_sky:0
$[AGT],7,av:73,b_sky:0
$[AGT],8,av:73,b_sky:0
$[AGT],9,av:69,b_sky:1
$[AGT],10,av:73,b_sky:0
$[AGT],11,av:117,b_sky:0
$[AGT],12,av:0,b_sky:0
$[AGT],13,av:69,b_sky:0
$[AGT],14,av:115,b_sky:0
$[AGT],15,av:71,b_sky:0
$[AGT],16,av:81,b_sky:1
$[AGT],17,av:67,b_sky:0
$[AGT],18,av:83,b_sky:0
$[AGT],19,av:85,b_sky:0
$[AGT],20,av:71,b_sky:0
$[AGT],21,av:69,b_sky:0
$[AGT],22,av:121,b_sky:0
$[AGT],23,av:65,b_sky:0
$[AGT],24,av:69,b_sky:0
$[AGT],25,av:71,b_sky:0
$[AGT],26,av:73,b_sky:0
$[AGT],27,av:81,b_sky:1
$[AGT],28,av:119,b_sky:0
$[AGT],29,av:73,b_sky:0
$[AGT],30,av:71,b_sky:0
$[AGT],31,av:119,b_sky:0
$[AGT],Eend:1, Send:1, ct:3
$[AGT],wkbee
$[AGT],s,1,m,2
$[AGT],idle
$@#$^ [AGNT] sBi
033683.125,HBD,IF1,MSG,AidEPO,SV,1,path_2NG,ValidEPO,0,u4CurrGpsSecs,1137772353,u4GpsSecs,1137758400,seq,45,NAseq,45,Age_Epo,14,Naage,14,NaValidGEPO,1
033683.125,HBD,IF1,MSG,AidEPO,SV,2,path_2NG,ValidEPO,0,u4CurrGpsSecs,1137772353,u4GpsSecs,1137758400,seq,45,NAseq,45,Age_Epo,14,Naage,14,NaValidGEPO,1
033683.125,HBD,IF1,MSG,AidEPO,SV,3,path_2NG,ValidEPO,0,u4CurrGpsSecs,1137772353,u4GpsSecs,1137758400,seq,45,NAseq,45,Age_Epo,14,Naage,14,NaValidGEPO,1
033683.125,HBD,IF1,MSG,AidEPO,SV,4,path_2NG,ValidEPO,1,u4CurrGpsSecs,1137772353,u4GpsSecs,1137758400,seq,45,NAseq,0,Age_Epo,14,Naage,0,NaValidGEPO,0
033683.129,HBD,IF1,MSG,AidEPO,SV,5,path_2NG,ValidEPO,0,u4CurrGpsSecs,1137772353,u4GpsSecs,1137758400,seq,45,NAseq,45,Age_Epo,14,Naage,14,NaValidGEPO,1
033683.129,HBD,IF1,MSG,AidEPO,SV,6,path_2NG,ValidEPO,0,u4CurrGpsSecs,1137772353,u4GpsSecs,1137758400,seq,45,NAseq,45,Age_Epo,14,Naage,14,NaValidGEPO,1
033683.129,HBD,IF1,MSG,AidEPO,SV,7,path_2NG,ValidEPO,0,u4CurrGpsSecs,1137772353,u4GpsSecs,1137758400,seq,45,NAseq,45,Age_Epo,14,Naage,14,NaValidGEPO,1
033683.129,HBD,IF1,MSG,AidEPO,SV,8,path_2NG,ValidEPO,0,u4CurrGpsSecs,1137772353,u4GpsSecs,1137758400,seq,45,NAseq,45,Age_Epo,14,Naage,14,NaValidGEPO,1
033683.129,HBD,IF1,MSG,AidEPO,SV,9,path_2NG,ValidEPO,0,u4CurrGpsSecs,1137772353,u4GpsSecs,1137758400,seq,45,NAseq,45,Age_Epo,14,Naage,14,NaValidGEPO,1
033683.129,HBD,IF1,MSG,AidEPO,SV,10,path_2NG,ValidEPO,0,u4CurrGpsSecs,1137772353,u4GpsSecs,1137758400,seq,45,NAseq,45,Age_Epo,14,Naage,14,NaValidGEPO,1
033683.129,HBD,IF1,MSG,AidEPO,SV,11,path_2NG,ValidEPO,0,u4CurrGpsSecs,1137772353,u4GpsSecs,1137758400,seq,45,NAseq,45,Age_Epo,14,Naage,14,NaValidGEPO,1
033683.129,HBD,IF1,MSG,AidEPO,SV,12,path_2NG,ValidEPO,0,u4CurrGpsSecs,1137772353,u4GpsSecs,1137758400,seq,45,NAseq,45,Age_Epo,14,Naage,14,NaValidGEPO,1
033683.129,HBD,IF1,MSG,AidEPO,SV,13,path_2NG,ValidEPO,0,u4CurrGpsSecs,1137772353,u4GpsSecs,1137758400,seq,45,NAseq,45,Age_Epo,14,Naage,14,NaValidGEPO,1
033683.129,HBD,IF1,MSG,AidEPO,SV,14,path_2NG,ValidEPO,0,u4CurrGpsSecs,1137772353,u4GpsSecs,1137758400,seq,45,NAseq,45,Age_Epo,14,Naage,14,NaValidGEPO,1
033683.129,HBD,IF1,MSG,AidEPO,SV,15,path_2NG,ValidEPO,0,u4CurrGpsSecs,1137772353,u4GpsSecs,1137758400,seq,45,NAseq,45,Age_Epo,14,Naage,14,NaValidGEPO,1
033683.129,HBD,IF1,MSG,AidEPO,SV,16,path_2NG,ValidEPO,0,u4CurrGpsSecs,1137772353,u4GpsSecs,1137758400,seq,45,NAseq,45,Age_Epo,14,Naage,14,NaValidGEPO,1
033683.129,HBD,IF1,MSG,AidEPO,SV,17,path_2NG,ValidEPO,0,u4CurrGpsSecs,1137772353,u4GpsSecs,1137758400,seq,45,NAseq,45,Age_Epo,14,Naage,14,NaValidGEPO,1
033683.129,HBD,IF1,MSG,AidEPO,SV,18,path_2NG,ValidEPO,0,u4CurrGpsSecs,1137772353,u4GpsSecs,1137758400,seq,45,NAseq,45,Age_Epo,14,Naage,14,NaValidGEPO,1
033683.129,HBD,IF1,MSG,AidEPO,SV,19,path_2NG,ValidEPO,0,u4CurrGpsSecs,1137772353,u4GpsSecs,1137758400,seq,45,NAseq,45,Age_Epo,14,Naage,14,NaValidGEPO,1
033683.129,HBD,IF1,MSG,AidEPO,SV,20,path_2NG,ValidEPO,0,u4CurrGpsSecs,1137772353,u4GpsSecs,1137758400,seq,45,NAseq,45,Age_Epo,14,Naage,14,NaValidGEPO,1
033683.129,HBD,IF1,MSG,AidEPO,SV,21,path_2NG,ValidEPO,0,u4CurrGpsSecs,1137772353,u4GpsSecs,1137758400,seq,45,NAseq,45,Age_Epo,14,Naage,14,NaValidGEPO,1
033683.129,HBD,IF1,MSG,AidEPO,SV,22,path_2NG,ValidEPO,0,u4CurrGpsSecs,1137772353,u4GpsSecs,1137758400,seq,45,NAseq,45,Age_Epo,14,Naage,14,NaValidGEPO,1
033683.129,HBD,IF1,MSG,AidEPO,SV,23,path_2NG,ValidEPO,0,u4CurrGpsSecs,1137772353,u4GpsSecs,1137758400,seq,45,NAseq,45,Age_Epo,14,Naage,14,NaValidGEPO,1
033683.129,HBD,IF1,MSG,AidEPO,SV,24,path_2NG,ValidEPO,0,u4CurrGpsSecs,1137772353,u4GpsSecs,1137758400,seq,45,NAseq,45,Age_Epo,14,Naage,14,NaValidGEPO,1
033683.129,HBD,IF1,MSG,AidEPO,SV,25,path_2NG,ValidEPO,0,u4CurrGpsSecs,1137772353,u4GpsSecs,1137758400,seq,45,NAseq,45,Age_Epo,14,Naage,14,NaValidGEPO,1
033683.129,HBD,IF1,MSG,AidEPO,SV,26,path_2NG,ValidEPO,0,u4CurrGpsSecs,1137772353,u4GpsSecs,1137758400,seq,45,NAseq,45,Age_Epo,14,Naage,14,NaValidGEPO,1
033683.129,HBD,IF1,MSG,AidEPO,SV,27,path_2NG,ValidEPO,0,u4CurrGpsSecs,1137772353,u4GpsSecs,1137758400,seq,45,NAseq,45,Age_Epo,14,Naage,14,NaValidGEPO,1
033683.129,HBD,IF1,MSG,AidEPO,SV,28,path_2NG,ValidEPO,0,u4CurrGpsSecs,1137772353,u4GpsSecs,1137758400,seq,45,NAseq,45,Age_Epo,14,Naage,14,NaValidGEPO,1
033683.129,HBD,IF1,MSG,AidEPO,SV,29,path_2NG,ValidEPO,0,u4CurrGpsSecs,1137772353,u4GpsSecs,1137758400,seq,45,NAseq,45,Age_Epo,14,Naage,14,NaValidGEPO,1
033683.129,HBD,IF1,MSG,AidEPO,SV,30,path_2NG,ValidEPO,0,u4CurrGpsSecs,1137772353,u4GpsSecs,1137758400,seq,45,NAseq,45,Age_Epo,14,Naage,14,NaValidGEPO,1
033683.129,HBD,IF1,MSG,AidEPO,SV,31,path_2NG,ValidEPO,0,u4CurrGpsSecs,1137772353,u4GpsSecs,1137758400,seq,45,NAseq,45,Age_Epo,14,Naage,14,NaValidGEPO,1
033683.129,HBD,IF1,MSG,AidEPO,SV,32,path_2NG,ValidEPO,2,u4CurrGpsSecs,1137772353,u4GpsSecs,1137758400,seq,45,NAseq,0,Age_Epo,14,Naage,0,NaValidGEPO,0
$[AGT],GSET=3
$[AGT],rm,6,rt,3
$[AGT],receive pmtk
$PMTK015,33683169,4,3520,PMTK712,1881,143552.720000,3000.000,0,0,0,0.000*33
$AGPS,3520,TimeCompensate,0.900,WN,1881,TOW,143553.620000*7C
Use_New_Time,0,count,1,569,12013,Local,1881,143553.001000 &35
TimeSetOK,0,WeekNO,1881,TOW,143553.620000,RMS,3.000000,TTick,3520 &79
SetNATime,1137772353 &4A
$PMTK001,712,3*34
$[AGT],GSET=3
$[AGT],rm,6,rt,3
$[AGT],receive pmtk
$PMTK015,33683170,4,3530,PMTK710,01,000000,000000,000000,000000,00000B,382328,000008,0150B8,38F239,2EEFF3,83A3C9,F40C02,8F4F89,16E7A1,0D4CC0,23287C,0018FE,DB6CF9,001227,48085B,158513,5026DB,FFA89F,38FB38*1F
#DEPH 1 1137771853 0 0 0 0 B 382328 8 150B8 38F239 2EEFF3 83A3C9 F40C02 8F4F89 16E7A1 D4CC0 23287C 18FE DB6CF9 1227 48085B 158513 5026DB FFA89F 38FB38 &DF
$PMTK001,710,3*36
$[AGT],GSET=3
$[AGT],rm,6,rt,3
$[AGT],receive pmtk
$PMTK015,33683171,4,3530,PMTK710,07,001000,000000,000000,000000,0000E8,092328,00FFF3,3DE9EC,0900FE,2C78D7,238289,009B04,A0AC00,18E8A1,0D739B,23287C,00837F,93815E,FFD927,71AC94,134892,C2DD6E,FFAB7B,09E820*1A
#DEPH 7 1137771853 1000 0 0 0 E8 92328 FFF3 3DE9EC 900FE 2C78D7 238289 9B04 A0AC00 18E8A1 D739B 23287C 837F 93815E FFD927 71AC94 134892 C2DD6E FFAB7B 9E820 &31
$PMTK001,710,3*36
$[AGT],GSET=3
$[AGT],rm,6,rt,3
$[AGT],receive pmtk
$PMTK015,33683171,4,3530,PMTK710,08,001000,000000,000000,000000,00000A,1C2328,00FFF3,FD32DC,1CFA7A,34DC7C,720849,FB2A00,E76BF1,0251A1,0D1978,23287C,000ED3,B29D4E,000227,2F9D63,2CB6C5,40855D,FFA292,1CFC6C*6A
#DEPH 8 1137771853 1000 0 0 0 A 1C2328 FFF3 FD32DC 1CFA7A 34DC7C 720849 FB2A00 E76BF1 251A1 D1978 23287C ED3 B29D4E 227 2F9D63 2CB6C5 40855D FFA292 1CFC6C &11
$PMTK001,710,3*36
$[AGT],GSET=3
$[AGT],rm,6,rt,3
$[AGT],receive pmtk
$PMTK015,33683172,4,3530,PMTK710,09,001000,000000,000000,000000,000003,592328,000044,0780EC,59FE62,380249,F528EB,FE6500,4FAD88,0991A1,0D214F,23287C,FFE753,AD8B29,FFF526,ECBE4A,23A94D,53F3B1,FFA460,59F414*1C
#DEPH 9 1137771853 1000 0 0 0 3 592328 44 780EC 59FE62 380249 F528EB FE6500 4FAD88 991A1 D214F 23287C FFE753 AD8B29 FFF526 ECBE4A 23A94D 53F3B1 FFA460 59F414 &8C
$PMTK001,710,3*36
$[AGT],GSET=3
$[AGT],rm,6,rt,3
$[AGT],receive pmtk
$PMTK015,33683172,4,3530,PMTK710,0B,001000,000000,000000,000000,0000E6,282328,00FFEF,AD8D1C,28F045,430DDB,F2AC20,F29208,4E36F6,0EB1A1,0D3946,23287C,FF92EF,DC3C01,006624,7F40D4,1AAB3C,F46B58,FF9B86,28F644*1F
#DEPH 11 1137771853 1000 0 0 0 E6 282328 FFEF AD8D1C 28F045 430DDB F2AC20 F29208 4E36F6 EB1A1 D3946 23287C FF92EF DC3C01 6624 7F40D4 1AAB3C F46B58 FF9B86 28F644 &55
$PMTK001,710,3*36
$[AGT],GSET=3
$[AGT],rm,6,rt,3
$[AGT],receive pmtk
$PMTK015,33683173,4,3530,PMTK710,10,000000,000000,000000,000000,0000EA,6C2328,00001C,FA0F54,6C0FF7,294873,0555CF,0DC804,528872,0DC5A1,0D97A5,23287C,FFEAAC,1018E5,FFDB28,5D8212,21CD0C,E9D3D3,FFAAC1,6C12D4*60
#DEPH 16 1137771853 0 0 0 0 EA 6C2328 1C FA0F54 6C0FF7 294873 555CF DC804 528872 DC5A1 D97A5 23287C FFEAAC 1018E5 FFDB28 5D8212 21CD0C E9D3D3 FFAAC1 6C12D4 &6F
$PMTK001,710,3*36
$[AGT],GSET=3
$[AGT],rm,6,rt,3
$[AGT],receive pmtk
$PMTK015,33683173,4,3530,PMTK710,16,000000,000000,000000,000000,0000DA,182328,00FFD2,355044,180558,3C0762,528703,048603,DFE551,13B0A1,18CC7E,23287C,002428,1F30BF,FFCA25,981E1A,165DAD,74CCA3,FFA537,181B80*1C
#DEPH 22 1137771853 0 0 0 0 DA 182328 FFD2 355044 180558 3C0762 528703 48603 DFE551 13B0A1 18CC7E 23287C 2428 1F30BF FFCA25 981E1A 165DAD 74CCA3 FFA537 181B80 &44
$PMTK001,710,3*36
$[AGT],GSET=3
$[AGT],rm,6,rt,3
$[AGT],receive pmtk
$PMTK015,33683174,4,3530,PMTK710,17,001000,000000,000000,000000,0000D5,182328,00FFEF,EB7470,18FE48,3B4E17,916E18,FECE05,58EF73,0942A1,0DD2A2,23287C,FFF653,F01774,004C26,8E86CC,237695,730950,FFA162,18F104*62
#DEPH 23 1137771853 1000 0 0 0 D5 182328 FFEF EB7470 18FE48 3B4E17 916E18 FECE05 58EF73 942A1 DD2A2 23287C FFF653 F01774 4C26 8E86CC 237695 730950 FFA162 18F104 &F3
$PMTK001,710,3*36
$[AGT],GSET=3
$[AGT],rm,6,rt,3
$[AGT],receive pmtk
$PMTK015,33683174,4,3530,PMTK710,1A,000000,000000,000000,000000,00000F,072328,00FF70,E24EB4,071059,30169B,FEBB0F,0E4900,62C74A,0EB4A1,0DA0E4,23287C,002AA9,016185,001427,2364C8,1EECF7,B10A94,FFA6C9,0711F0*60
#DEPH 26 1137771853 0 0 0 0 F 72328 FF70 E24EB4 71059 30169B FEBB0F E4900 62C74A EB4A1 DA0E4 23287C 2AA9 16185 1427 2364C8 1EECF7 B10A94 FFA6C9 711F0 &9A
$PMTK001,710,3*36
$[AGT],GSET=3
$[AGT],rm,6,rt,3
$[AGT],receive pmtk
$PMTK015,33683175,4,3530,PMTK710,1B,001000,000000,000000,000000,000003,212328,00001F,076D68,21FA85,330E4C,450309,FB2001,94CC03,02A5A1,0D0B01,23287C,FFF1D3,C48A1D,002527,83E944,2CCD08,8A1C09,FFA31A,21FB60*62
#DEPH 27 1137771853 1000 0 0 0 3 212328 1F 76D68 21FA85 330E4C 450309 FB2001 94CC03 2A5A1 D0B01 23287C FFF1D3 C48A1D 2527 83E944 2CCD08 8A1C09 FFA31A 21FB60 &B7
$PMTK001,710,3*36
$[AGT],GSET=3
$[AGT],rm,6,rt,3
$[AGT],receive pmtk
$PMTK015,33683175,4,3530,PMTK710,1E,001000,000000,000000,000000,000007,222328,000028,0B9F4C,220171,2F37D9,25B27C,011600,DA6C5B,1961A1,0D3629,23287C,FFFF81,71EE04,FFBC26,DD7359,11E17C,608C02,FFAA3F,22EA2C*13
#DEPH 30 1137771853 1000 0 0 0 7 222328 28 B9F4C 220171 2F37D9 25B27C 11600 DA6C5B 1961A1 D3629 23287C FFFF81 71EE04 FFBC26 DD7359 11E17C 608C02 FFAA3F 22EA2C &69
$PMTK001,710,3*36
$[AGT],GSET=3
$[AGT],rm,6,rt,3
$[AGT],receive pmtk
$PMTK015,33683176,4,3530,PMTK711,01,59,412901,4E0E13,FD4E00,A10CDC,FECCB9,134ABF,066F64,01000C*41
$PMTK001,711,3*37
$[AGT],GSET=3
$[AGT],rm,6,rt,3
$[AGT],receive pmtk
$PMTK015,33683176,4,3530,PMTK711,02,59,427DA8,4E0032,FD3E00,A10D46,FD0D76,A7494D,1AF3CF,4E0014*37
$PMTK001,711,3*37
$[AGT],GSET=3
$[AGT],rm,6,rt,3
$[AGT],receive pmtk
$PMTK015,33683177,4,3530,PMTK711,03,59,430275,4E0AE0,FD5A00,A10DDA,2933E7,77E513,76F10E,FDFFF8*40
$PMTK001,711,3*37
$[AGT],GSET=3
$[AGT],rm,6,rt,3
$[AGT],receive pmtk
$PMTK015,33683177,4,3530,PMTK711,05,59,452594,4E027B,FD4C00,A10D5D,28C889,13C808,7E69B6,EC0024*32
$PMTK001,711,3*37
$[AGT],GSET=3
$[AGT],rm,6,rt,3
$[AGT],receive pmtk
$PMTK015,33683178,4,3530,PMTK711,06,59,460222,4E0DF9,FD4E00,A10CA2,FE74A1,A47038,360CE2,11005C*3C
$PMTK001,711,3*37
$[AGT],GSET=3
$[AGT],rm,6,rt,3
$[AGT],receive pmtk
$PMTK015,33683178,4,3530,PMTK711,07,59,474A10,4E10A6,FD5500,A10D08,7F84FC,92C78A,EA01F4,3D001C*48
$PMTK001,711,3*37
$[AGT],GSET=3
$[AGT],rm,6,rt,3
$[AGT],receive pmtk
$PMTK015,33683178,4,3530,PMTK711,08,59,480E86,4E0C96,FD3000,A10CAA,D3A319,C56C2F,8F3100,FD0004*4D
$PMTK001,711,3*37
$[AGT],GSET=3
$[AGT],rm,6,rt,3
$[AGT],receive pmtk
$PMTK015,33683179,4,3530,PMTK711,09,59,490506,4E0866,FD3600,A10CB2,539E2D,4CE73F,5D4C00,070054*4A
$PMTK001,711,3*37
$[AGT],GSET=3
$[AGT],rm,6,rt,3
$[AGT],receive pmtk
$PMTK015,33683180,4,3540,PMTK711,0A,59,4A08B7,4E0B0C,FD5900,A10D1C,29090E,885C2B,B168E1,06FFEC*34
$PMTK001,711,3*37
$[AGT],GSET=3
$[AGT],rm,6,rt,3
$[AGT],receive pmtk
$PMTK015,33683180,4,3540,PMTK711,0B,59,4B84EB,4EE186,FD0600,A10CA6,EFCBB0,3CFDDB,EED416,AD0010*3E
$PMTK001,711,3*37
$[AGT],GSET=3
$[AGT],rm,6,rt,3
$[AGT],receive pmtk
$PMTK015,33683181,4,3540,PMTK711,0C,59,4C2F3A,4E1F25,FD6A00,A10C02,AB3E4C,1A4346,DB4409,2F0038*4C
$PMTK001,711,3*37
$[AGT],GSET=3
$[AGT],rm,6,rt,3
$[AGT],receive pmtk
$PMTK015,33683182,4,3540,PMTK711,0D,59,4D2637,4E1333,FD4400,A10D00,58766B,50F274,10DDEF,E8FFE8*46
$PMTK001,711,3*37
$[AGT],GSET=3
$[AGT],rm,6,rt,3
$[AGT],receive pmtk
$PMTK015,33683182,4,3540,PMTK711,0E,59,4E4402,4E0E4A,FD3E00,A10D40,56FC2D,B0955A,5B8B51,00FFFC*4A
$PMTK001,711,3*37
$[AGT],GSET=3
$[AGT],rm,6,rt,3
$[AGT],receive pmtk
$PMTK015,33683183,4,3540,PMTK711,0F,59,4F41DE,4EF898,FD2100,A10DC4,5198BA,13586D,3AF5B6,D9000C*42
$PMTK001,711,3*37
$[AGT],GSET=3
$[AGT],rm,6,rt,3
$[AGT],receive pmtk
$PMTK015,33683183,4,3540,PMTK711,10,59,504549,4E1F7A,FD6900,A10D45,AC01F0,0CF60F,85D7DF,FA0024*33
$PMTK001,711,3*37
$[AGT],GSET=3
$[AGT],rm,6,rt,3
$[AGT],receive pmtk
$PMTK015,33683183,4,3540,PMTK711,11,59,5159CF,4E152B,FD3C00,A10C9E,D5B6A2,B031CC,5E2591,E5001C*40
$PMTK001,711,3*37
$[AGT],GSET=3
$[AGT],rm,6,rt,3
$[AGT],receive pmtk
$PMTK015,33683184,4,3540,PMTK711,12,59,528792,4EF48E,FD3E00,A10CD3,2807C0,B1ED25,9D75A5,3E0034*36
$PMTK001,711,3*37
$[AGT],GSET=3
$[AGT],rm,6,rt,3
$[AGT],receive pmtk
$PMTK015,33683184,4,3540,PMTK711,13,59,535C47,4E1348,FD3A00,A1191D,D7B686,1B80AD,EC64C9,BB0008*4B
$PMTK001,711,3*37
$[AGT],GSET=3
$[AGT],rm,6,rt,3
$[AGT],receive pmtk
$PMTK015,33683185,4,3540,PMTK711,14,59,542889,4EF565,FD3F00,A10D12,25E97B,35DAE4,3FD018,330020*30
$PMTK001,711,3*37
$[AGT],GSET=3
$[AGT],rm,6,rt,3
$[AGT],receive pmtk
$PMTK015,33683185,4,3540,PMTK711,15,59,55BCA5,4EFBBC,FD3900,A10D04,FD9364,B5243B,C14EED,BDFFF0*4D
$PMTK001,711,3*37
$[AGT],GSET=3
$[AGT],rm,6,rt,3
$[AGT],receive pmtk
$PMTK015,33683186,4,3540,PMTK711,16,59,563E14,4EF327,FD3A00,A11857,280FEF,AD7AA0,745493,35FFE8*48
$PMTK001,711,3*37
$[AGT],GSET=3
$[AGT],rm,6,rt,3
$[AGT],receive pmtk
$PMTK015,33683186,4,3540,PMTK711,17,59,575587,4E0283,FD2E00,A10D60,53E084,95768F,2A6AD8,EBFFEC*4A
$PMTK001,711,3*37
$[AGT],GSET=3
$[AGT],rm,6,rt,3
$[AGT],receive pmtk
$PMTK015,33683187,4,3540,PMTK711,18,59,582239,4E05A0,FD4600,A10CAC,7DAF19,0E3171,1157C6,FE0010*48
$PMTK001,711,3*37
$[AGT],GSET=3
$[AGT],rm,6,rt,3
$[AGT],receive pmtk
$PMTK015,33683187,4,3540,PMTK711,19,59,592935,4E178D,FD6100,A10C32,A93A25,1C4000,C2090E,F2FFC0*4E
$PMTK001,711,3*37
$[AGT],GSET=3
$[AGT],rm,6,rt,3
$[AGT],receive pmtk
$PMTK015,33683188,4,3540,PMTK711,1A,59,5A0643,4E0BD6,FD5000,A10D3E,A8F2A8,F851A8,AE3D64,E1FF9C*3C
$PMTK001,711,3*37
$[AGT],GSET=3
$[AGT],rm,6,rt,3
$[AGT],receive pmtk
$PMTK015,33683188,4,3540,PMTK711,1B,59,5B1959,4E11DA,FD3700,A10C9E,D3B535,087975,5F411B,070030*3B
$PMTK001,711,3*37
$[AGT],GSET=3
$[AGT],rm,6,rt,3
$[AGT],receive pmtk
$PMTK015,33683189,4,3540,PMTK711,1C,59,5CA3DB,4E1E9C,FD6900,A10CAF,AC3701,BDB64E,7C7FE0,41002C*32
$PMTK001,711,3*37
$[AGT],GSET=3
$[AGT],rm,6,rt,3
$[AGT],receive pmtk
$PMTK015,33683189,4,3540,PMTK711,1D,59,5D084B,4E15C7,FD3C00,A10C91,D61AD2,E81626,C7514C,550014*3E
$PMTK001,711,3*37
$[AGT],GSET=3
$[AGT],rm,6,rt,3
$[AGT],receive pmtk
$PMTK015,33683189,4,3540,PMTK711,1E,59,5E0DA8,4E0763,FD4900,A10CC1,816329,7C4388,EC2B3C,0B0038*3B
$PMTK001,711,3*37
$[AGT],GSET=3
$[AGT],rm,6,rt,3
$[AGT],receive pmtk
$PMTK015,33683190,4,3550,PMTK711,1F,59,5F4464,4E13D0,FD5B00,A10D17,7FE0DB,EDEE13,E8BBA5,25000C*37
$PMTK001,711,3*37
$[AGT],GSET=3
$[AGT],rm,6,rt,3
$[AGT],receive pmtk
$PMTK015,33683191,4,3550,PMTK711,20,59,605D02,4E02B9,FD4C00,A10C99,2C6915,08D3A6,FAA240,0C0090*4D
$PMTK001,711,3*37
$[AGT],GSET=3
$[AGT],rm,6,rt,3
$[AGT],receive pmtk
$PMTK015,33683191,4,3550,PMTK713,24.975740,121.327990,100.0,537.6,537.6,0,990.5,39*36
#DBTP 3470 1 9 2497574 12132799 100 1881 143553001 1137771853  &0E
$PMTK001,713,3*35
$[AGT],GSET=3
$[AGT],rm,6,rt,3
$[AGT],receive pmtk
$PMTK015,33683192,4,3550,PMTK715,13,-1,-1,1,56,-8,-4,11*0B
$PMTK001,715,3*33
$[AGT],GSET=3
$[AGT],rm,6,rt,3
$[AGT],receive pmtk
$PMTK015,33683192,4,3550,PMTK716,6,-1,228,96,17,159,3,17*27
$PMTK013,Err,716,Tot=933888,Range[0-602112]*74
$PMTK001,716,2*31
033684.113,HBD,IF1,TIM,DSP,u1ChnNum,37,u2DataSize,57
033684.113,HBD,IF1,COM,BinDecX,65065
033684.113,HBD,IF1,TIM,DSP,u1ChnNum,48,u2DataSize,57
033684.113,HBD,IF1,COM,BinDecX,65065
033684.113,HBD,IF1,GPS,TkDltIn,3470,3477,7

#MZYQ.DB1B3&1A
033684.113,HBD,IF1,TIM,NWloc,fgfirstUseNW,0,case,0,NWAID,0,NWUSE,0
033684.117,HBD,IF1,AGP,BOOST,Posdiff:22.703037,0.231985,num:5,PosConverge,1,BoostRemT,15.541
$Boost, flag on*64
$LOC_Cache_BIT,00000002*7D
033684.117,HBD,IF1,AGP,AGPSMGN,Posdiff:22.703037,0.231985,num:0,PosConverge,0,AGPSRemT,14.677
033684.117,HBD,IF1,TIM,NWloc,Core_Save,fgHaveNWloc,1,fgHaveSaved,0
033684.117,HBD,IF1,TIM,NWloc,NWloc_match,0,oldest_gpssec_index,2,num_NV_NWlocData,6
033684.117,HBD,IF1,TIM,NWloc,Core_Save,NV_index,0,fgUsage,1

#XPda.DDHB3&4F

#MZYQ.@B1CHIY6H8KRM^=&14

#MZYQ.AH1HG4&57
033684.117,HBD,IF1,AGP,AGPSMGN,AGPSMode:3,AGPSTimer:1.324
$PMTK015,33684116,10,4470,AMode,3,ATimer,1.324,Remain,14.676*4D
033684.117,HBD,IF1,AGP,AGPSMGN,DOP.H :1.466566,PosCon:0,[20.445583,13.895892,3.306211]
$PMTK013,CHK,Loc,Dif_m,48.6*5D
$PMTK013,4470,INF,TA,ENTRY,TS,9,TOW,143554.001000000,CB,0.000287843,AGPSM,1*0C
$PMTK013,4470,INF,TA,CTk,4470,CPage,11,CSF,1,CSFT,4.001,SFNumSent,0*55
$PMTK013,4470,INF,TA,NPage,11,NSF,2,NSFTow,143556.000000000,NZCNT,23927,NSFTk,6469*4B
$PMTK013,4470,INF,TA,TAEnableList*75
$PMTK015,33684116,5,4470,TA_Aiding*6E
$PMTK015,33684116,6,4470,NACQ,6,NBS,6,NSFS,3,NEXS,3*6D
$HBD,INF,RTC,F,0,Y,16,M,1,D,25,H,15,M,52,Sec,16,Sub,14509,T,4465,SM,15333*0A
$DBts1,TSOK,1,WNSet,1,TOWS,9,WN,1881,BAcc,14.809,TAcc,14.809,*6D
$DBts2,TTK,4470,TOW,143554.001000000,B,0.000287843,D,0.000001203,*06
033684.117,HBD,IF1,TIM,HALTIME,0,
033684.117,HBD,IF1,TIM,HALTSTA,0,
$RtcModel,Rtc1,143536.442779541,Tow1,143553.996648928,Tick1,4465.936767,_dfPreRtcTow,143535.442871094,_dfPreGpsTow,143552.996729326,Rtcppm,-11.156*32
$SaveRtcAcc,TOW,143553.996648928,RtcD,-11.156*4D
$RtcAcc,InitTick,1.000000000,InitTow,143549.531705540,Accus,-11.995*37
033684.117,HBD,IF1,GPS,UpdtNVS,
033684.117,HBD,IF1,GPS,NVFile,Opened
033684.117,HBD,IF1,GPS,UpdtNVC,
033684.121,HBD,IF1,GPS,UpdtNVE,
033684.121,HBD,IF1,ALO,CdmPvtU,
$HBD,INF,RTC,F,0,Y,16,M,1,D,25,H,15,M,52,Sec,16,Sub,14509,T,4465,SM,15333*0A
$PMTK730,0,0,0,0,0,0,0,0,1*2B
$PMTK015,33684118,4,4470,PMTK730,0,0,0,0,0,0,0,0,1*2C
$GNGGA,155217.000,2458.5349,N,12119.6863,E,1,6,1.47,128.8,M,15.0,M,,*45
$GPGSA,A,3,11,07,08,30,16,27,,,,,,,1.73,1.47,0.92*00
$GLGSA,A,3,,,,,,,,,,,,,1.73,1.47,0.92*12
$GPGSV,4,1,15,11,84,241,33.6,01,64,179,,07,62,286,37.8,08,45,024,34.1*6D
$GPGSV,4,2,15,193,37,139,,30,35,313,30.4,27,20,048,26.0,16,16,101,31.9*56
$GPGSV,4,3,15,22,13,085,,32,13,132,,09,11,226,,28,08,307,*7F
$GPGSV,4,4,15,03,07,165,,23,05,193,,17,05,252,*42
$GLGSV,2,1,6,73,84,091,,84,59,286,,83,38,016,,74,37,336,*5A
$GLGSV,2,2,6,80,32,146,,85,20,239,*5E
$GNRMC,155217.000,A,2458.5349,N,12119.6863,E,0.451,147.50,250116,,,A*42
$GNVTG,147.50,T,,M,0.451,N,0.835,K,A*2A
$GNACCURACY,4.9*1B
$PMTKDGP,0*4D
$PMTKDBG,4470,1,1,0,1,0,0,0,1,0,0,0,0,0,0,0,0,0,0,1,1,1,1,1,0,0,0,0,0,0,0,0,1,0028,0035,0002,0006,0006,0000,0000,0000,0.0000,1.2034,0.0000,0.0000,0.0000,0.0000,*4E
$PMTKDB2,0D11,0000,0000,0000,0000,0000,0000,0700,0024.72,0000.00,12034.21,0014.81,0000.00,0287.84,0000.05,0000.00,*55
$PMTKEPH,43,1,3,7,8,9,-10.2.4,11,14,16,-17.2.4,21,22,23,26,27,-28.2.4,29,30,31,32,-65.2.4,-66.2.4,-67.2.4,-68.2.4,-69.2.4,-70.2.4,-71.2.4,-72.2.4,-73.2.4,-74.2.4,-75.2.4,-76.2.4,-77.2.4,-78.2.4,-79.2.4,-80.2.4,-82.2.4,-83.2.4,-84.2.4,-85.2.4,-86.2.4,-87.2.4,-88.2.4*60
$PMTKALM,32,1,2,3,5,6,7,8,9,10,11,12,13,14,15,16,17,18,19,20,21,22,23,24,25,26,27,28,29,30,31,32,193*51

#WXM[.?0A2C4E6G8I:K<M>O@QBSDUFWHYJ[L]N_PaRcTeVgXiZk\m^o`qbsdufwhyj{l}npy&39

#NM^Z.BB1FGKE6H8JKQ<NNT@QBSD&18
#\XOU.?0BC3GK6G8ON;RPPb@QBVYWVG[^\[LbN`hQkhkehWqnntrp^ptqucq}~}}mpuz}&21
#\XOU.@0H2GE5F7NM:POOa?PAU[VUFZ`[ZKaMb_PjgjdgVpmlqmt]xsbp{v~yxy}l~oty|&FB
#\XOU.A0B2FL5F7LK:POOR?PARCTE[GZ]Jdad^aPjgfiifW}z||\jrvqs{w}ewyh{~l}~qtx{&62
#\XOU.B0I2FK5F7NM:QOOa?PAUWVUFZ\[ZKaM``PjgjdgVplrpnu]vopybpvxz|xy}~}mpv{~&8F
#\XOU.C0DB3GH6G8ON;SNPb@QBVTWVG[Y\[LbNhPjgjdgVplpmpu]sprwbv}v{{|}k~n|ty|&91
#\XOU.D0BH3GJ6G8ON;RNPb@QBU][VGZb`[LbN`eQkhkehWqmjrrp^vxcqw{{~}z~nqw|&A3
#\XOU.E0CI3GE6G8ON;TNP`@QBU[WVGZ`\[LbNdPjgjdgVplkrtl]wsbpv}zz~|mpv{~&06
#\XOU.F0DD3D5F7H9\LLM>O@QBSDXFWHb_b\_NggehhmUwlqrZmosswtzxcuzfwhyz{|m~oqsxz}&48
#\XOU.G0J2C4E6G8[KKL=N?PARCWEVGa^a[^MffcbflTh{p}Ygmqpouuvx{dvzgxiz{|}nprty{~&7E
#\XOU.H0D2C4E6G8[KKL=N?PARCWEVGa^a[^MffaiheTeyxpYmpqontqsbtvevgxyz{l}nprwy|~&FE
#\XOU.@@1DF4E6G8I:]MMN?PARCTEYGXIc`c]`OhhcgmnVhil[ioswrxyv{{fxzizk|}~prtv{}&C1
#\XOU.@E1DCK5F7H9J;^PNO@QBSDUFZHYJacfaePeigkkfWmz||\jqsxxzuy~xgzj|nsuwy~&FF
#\XOU.@F1DCE5GL8I:LP=`PRSBSDUFWH^J\LcehcgRghfoomYk~m^ppzxwtxzhzkyqvx{}&AC
#\XOU.@G1DDF5F7H9J;^PNO@QBSDUFZHYJacfaePeieljnWkoq\qspuuusxex|hyj{|}~oqsuz|&D0
#\XOU.@H1DCJ5F7H9LO<VQOPARCTEVG]I[KbdgbfQfjljkmXms~]kprr{zwvy}hzkotvy{&50
#\XOU.@I1DCE5GI8I:LP=`PRSBSDUFWH^J\LcehcgRghfooqY~|s^ppx{zz{w~hzky~qvx{}&DF
#\XOU.A@1DDE5F7H9J;^PNO@QBSDUFZHYJacfaePeihgfhWkn{q\jqqqrtyxuvgyyj{l}~qsuw|~&08
#\XOU.AB1DCJ5F7H9J;^PNO@QBSDUFZHYJacfaePeikjhiWnkjn\jorpxvwwwvgyj|otvxz&F2
#\XOU.AD1DDD5F7H9J;^PNO@QBSDUFZHYJacfaePeijhmhWnoom\joqwurt}}zgy}j{l}~qsuw|~&1E
#\XOU.AE1DCE5F7H9J;^PNO@QBSDUFZHYJacfaePeihfmmWo||s\nnrpstx}wfxxizk|}~prtv{}&04
#\XOU.AF1DK4E6G8I:]MMN?PARCTEYGXIc`c]`OidicmeVi}q[muwryzrwdv|gxiz{|}nprty{~&80
#\XOU.BG1DDD5F7H9J;UPNO@QBSDUFZHYJacfaePeijfhfWnl}\joqwurt}}zgy}j{l}~qsuw|~&2D
#\XOU.CH1CJ4E6G8I:SMMN?PARCTE\GXIc`c]`OididdnVg}~o[upupvuzcu{fwhyz{|mprty{~&7C

#NM`a.CDHB3E5F7H9J;L=N?PQRSTUVWHYJ[L&5E
#NLPT.@A1CF4EFGK9GNJN>ONQSUD[X]HV[YbfN_^jdeTfdplY&E9
