$[AGT],GSET=0
$PMTK013,AgpsMachine,set,0,result,0*17
043290.801,HBD,IF1,BOT,UInitCf,1,0,0,16,100,0,255,2000,26000000,115200,1000,0,-2147483456,ffff6753,2

043290.801,HBD,IF1,BOT,MNLVer,_u1MTKChipID=1
043290.801,HBD,IF1,GPS,NVFile,Opened
$[AGT],rm,6,rt,4
$[AGT],SAP,Eidle
$[AGT],e=1,b=1,s=1,aosp=1
$[AGT],ipath,/data/misc/
043290.801,HBD,IF1,GPS,NVFile,g_BMAP_NVfile_Operation_load,0
043290.801,HBD,IF1,ALO,AlcInit,
043290.805,HBD,IF1,ALO,AlSCIni,
043290.805,HBD,IF1,ALO,PMCmod4,0
043290.805,HBD,IF1,ALO,EdInitD,
043290.805,HBD,IF1,ALO,PmcInit,
043290.805,HBD,IF1,ALO,VtCfgDb,20,20,4294967295
043290.805,HBD,IF1,BOT,InitCfg,1,115200,115200,26000000,255,0,0,0.000000,0.000000
043290.805,HBD,IF1,BOT,BotUrV2,BINFO(): x,-2147483456,y,ffff6753,
043290.805,HBD,IF1,BOT,BotUrV2,BINFO(): MT6753_ DSP
043290.805,HBD,IF1,BOT,BotUrV2,_BINFO(): B,-149904296,L,61448
043290.805,HBD,IF1,BOT,BotUrV2,RFG,3,0,3
043291.289,HBD,IF1,BOT,ClkType,255
$PMTK015,43291289,1,GPS_INIT_DONE*7B
$[AGT],GSET=1
$[AGT],rm,1,rt,11
$[AGT],inco
$[AGT],rm,0
$[AGT],remd == 0
043291.289,HBD,IF1,MSG,MNLInit,OK
043291.289,HBD,IF1,COM,WaitDtt,RECEIVE 1st DTT

#MZYQ.D@1C3&19

$PMTK010,001*2E

$PMTK010,002*2D
$PMTK013,INF,0,128,4,128*59
$PMTK015,43291290,4,43291290,PMTK764,0,0,0,2,0,128,4,128*33
$$PMTK764,0,0,0,2,0,128,4,128*15
043291.289,HBD,IF1,GPS,FrstDtt,00,00
$PMTK015,43291290,2,FIRST_DBTT*2D
043291.289,HBD,IF1,GPS,TkDltIn,0,0,0

#MZYQ.@@1B3D5&64
$SELF_ATOW,0,1*4F
043291.293,HBD,IF1,TIM,HALTIME,0,
043291.293,HBD,IF1,TIM,HALTSTA,0,
043291.293,HBD,IF1,TIM,IdbtsDa,RTCstatusA,0,fgSysTimeOK,1,UseSystime,0,LoadRTCUpdateOK,RTC_age,5514
043291.293,HBD,IF1,TIM,IdbtsDa,RTCstatusB,0,fgSysTimeOK,1,UseSystime,0
043291.293,HBD,IF1,TIM,DtsAcRT,PRTC,Load,Wn,1881,Tow,153149.493037693,RtcD,-9.317,
$IRTC,i2RtcTimeLastWn,1881,dfRtcTimeLastTow,153132.442780,*28
$IRTC,i2RtcTimeLastWn,1881,dfRtcTimeLastTow,153149.442816,*24
$IRTC,dfDltTow1,11.682892,*22
$IRTC,dfDltTow2,11.683001,*22
$IRTC,i2GpsWn2,1881,dfGpsTow2,153161.176038,*28
043291.293,HBD,IF1,TIM,DtsAcRT,PRTC,Load,GWn,1881,GTow,153161.176038385,RWn,1881,RTow,153149.442815846,RtcD,-9.317,
$IRTC,dfDltTow,11.683001,HTTFF_163,0,_fgEnableAccIGPST,1*79

#MZYQ.D@1B3&18
043291.293,HBD,IF1,TIM,IdtsAcT,1,1881,153161.176000000,9,11.7,

#MZYQ.DD1B3&1C

#MZYQ.CB1D3&1B
$QEPO_Request*05
$[AGT],GSET=1
$[AGT],rm,1,rt,10
$[AGT],inco

#MZYQ.DB1C3&1B
$[AGT],rm,0
$[AGT],remd == 0
043291.293,HBD,IF1,TIM,NWloc,fgfirstUseNW,0,case,0,NWAID,0,NWUSE,0
$Boost, hotstart*5A
043291.293,HBD,IF1,AGP,BOOST,Posdiff:157624997773312.000000,0.000000,num:0,PosConverge,0,BoostRemT,20.000
$LOC_Cache_BIT,00000000*7F
$DBnm_NLP,[24.975731,121.327976,0,20.000000][2016/1/25,18:30:18][0][1]*3D
$cache_pos,-3007957.236659,4941780.525593,2676680.883578,[1137781869]*6D
$Cache_age,92,NLP_age,-99,NV_age,92*3B
043291.297,HBD,IF1,AGP,AGPSMGN,Posdiff:157624997773312.000000,0.000000,num:0,PosConverge,0,AGPSRemT,16.000

#MZYQ.AA1D3&18
043291.297,HBD,IF1,GPS,EpoLoad,HOST_EPO,BAD_Load,ffffffff,316043,45
043291.297,HBD,IF1,TIM,RstFSAg,0.0

#MZYQ.AE1I3&21

#XPda.@@BC3&42
043291.297,HBD,IF1,GPS,FTModeC,FT_Mode,1,Send_Comd
043291.297,HBD,IF1,AGP,AGPSMGN,AGPSMode:-1,AGPSTimer:0.000
$PMTK015,43291294,10,11,AMode,-1,ATimer,0.000,Remain,16.000*6A
$PMTK015,43291294,6,11,NACQ,0,NBS,0,NSFS,0,NEXS,0*64
$HBD,INF,RTC,F,0,Y,16,M,1,D,25,H,18,M,32,Sec,24,Sub,4118,T,1,SM,7823*3E
$DBts1,TSOK,0,WNSet,1,TOWS,9,WN,1881,BAcc,1183216.000,TAcc,1220038.000,*68
$DBts2,TTK,11,TOW,153161.186000000,B,0.000439571,D,0.000001161,*04
043291.297,HBD,IF1,ALO,CdmPvtU,
$HBD,INF,RTC,F,0,Y,16,M,1,D,25,H,18,M,32,Sec,24,Sub,4118,T,1,SM,7823*3E
$PMTK013,11,set epo bitmap,R:0,F:1 *1E
$GNGGA,183224.185,2458.5444,N,12119.6794,E,0,0,,85.0,M,15.0,M,,*6A
$GPGSA,A,1,,,,,,,,,,,,,99.99,99.99,1.00*01
$GLGSA,A,1,,,,,,,,,,,,,99.99,99.99,1.00*1D
$GPGSV,4,1,13,28,67,328,,193,65,116,,03,51,091,,17,37,320,*4E
$GPGSV,4,2,13,01,36,034,,19,33,313,,30,30,220,,11,26,050,*76
$GPGSV,4,3,13,06,26,245,,32,24,055,,07,14,191,,08,08,090,*78
$GPGSV,4,4,13,23,02,136,*4C
$GLGSV,1,1,0*55
$GNRMC,183224.185,V,2458.5444,N,12119.6794,E,0.000,0.00,250116,,,N*57
$GNVTG,0.00,T,,M,0.000,N,0.000,K,N*2C
$GNACCURACY,49.4*2F
$PMTKDGP,0*4D
$PMTKDBG,11,0,1,0,0,0,0,0,0,0,1,0,0,0,0,0,0,0,0,1,1,1,1,1,0,0,0,0,1,0,0,0,0,0001,0014,0002,0000,0000,0022,0001,0000,0.0000,1.1608,0.0000,0.0000,0.0000,0.0000,*4A
$PMTKDB2,0000,0000,0000,0000,0000,0000,0000,0100,2440.45,0000.00,11608.15,1220038.00,0000.00,0439.57,00-0.02,0000.00,*0B
$PMTKEPH,17,1,3,6,7,8,9,11,16,17,19,22,23,26,27,28,30,193*60
$PMTKALM,32,1,2,3,5,6,7,8,9,10,11,12,13,14,15,16,17,18,19,20,21,22,23,24,25,26,27,28,29,30,31,32,193*51

#WXM[.?0A2C4E6G8I:K<M>O@QBSDUFWHYJ[L]N_PaRcTeVgXiZk\m^o`qbsdufwhyj{l}npy&39

#NM^Z.BB1CD4F6G8I:K<M>&DD
#\XOU.AF1B3D5F7H9JKLM>O@QBSDUFWHYJ[L]^_`QbSdUfWhijk\m^o`qbstuvgxizk|m~oq&32
#\XOU.BG1B3D5F7H9JKLM>O@QBSDUFWHYJ[L]^_`QbSdUfWhijk\m^o`qbstuvgxizk|m~oq&34
#\XOU.CH1B3D5F7H9JKLM>O@QBSDUFWHYJ[L]^_`QbSdUfWhijk\m^o`qbstuvgxizk|m~oq&36

#NM`a.@A1C3D5F7H9J;L=NOPQRSTUFWHYJ&F1

#NMMN.@0>CKFM6KHRL;MN>PPSSS[EWYHYJdL^cbagcaemlWhY&EF
#KL_c.@0GDHHKL7EMOQR=OTPAWTVEWGXIb[\^N&13
#KL_c.B0GDKJLH7EJPTS=OTPAWTVEWGXIb[\^N&19
#KL_c.E0GDEILM7LPN;MRN?URTCUEVG`YZ^L&B7
#KL_c.F0GCLLLI7EMSNQ=OTPAWTVEWGXIb[\`N&20
#KL_c.G0GCIGHG7ELQMO=OTPAWTVEWGXIb[\`N&0D
#KL_c.@A1HEGEGK8FNOOO>PUQBXUWFXHYJc\]aO&31
#KL_c.@G1HEHGFG8FNLU=OTPAWTVEWGXIb[\^N&04
#KL_c.@I1HEHLJM8FMOQ=OTPAWTVEWGXIb[\^N&13
#KL_c.AC1HDGJNH8FOKQ=OTPAWTVEWGXIb[\`N&09
#KL_c.AH1HFDGOG8FKOR=OTPAWTVEWGXIb[\^N&09
#KL_c.B@1HEGLOJ8FNMUQ>PUQBXUWFXHYJc\]aO&46
#KL_c.BB1HEFKHL8FMSMQ>PUQBXUWFWHYJc\]_O&3B
#KL_c.@ID2HKIFLH9GMPOP?QVRCYVXGYIZKd]^`P&6C
#KLbg.?0BE3FM6HQL:N<NU?QAS\DXVGYZJaLdNgPceSggV&37
#KLbg.@0BF3FEG7JIL;NMQ?RQVCVU[GZY`K^]eObajSfeoWjjj[nno_rrtcvvygzz~k&20

#NMO_.UVWXYZ[\7^_`abcde@ghijklmnIpqrstuvwRyz{|W~`e&3B

#NM`].@A1C3M5HKQPORP=OQQTTZ]]FXXYJ\de_OafedjfgonYklotuwqyx|drxxizk&CA
#NP\U.@0BCFKLNHQKO;`SSOPQBSDUFWHYJb^coqPiRdifigXpoon^qtw}ew~|kry˧ͽŵѼ&B5
#NP\U.B0BCFKLNHQKO;`SSOPQBSDUFWHYJ^d_dpsQxyxiV}|}l]qwpvrtdxxkrxġ˿ʴ޺&E0
#NP\U.E0BCFKLNHQKO;`SSOPQBSDUFWHYJ``_dpsQeiTfgyjmn[qqqpbu~i{~pw~ʩ°۷Ͼ&D4
#NP\U.F0BCFKLNHQKO;`SSOPQBSDUFWHYJ]d_dpsQxyzhVj|~snl]pwprtdw{krx¿òɹ&4A
#NLXZ.@0AB3EMNH8MKMUMO?TfRhUXFml]o[\Mo``tvvT{{z{{s[mprbyz|{hzz{|n&60
#NLXZ.A0AB3EMNH8MLR`^U?TfRSWVFml\o[\Mo``ufiT{zg|pq[}trxtbtyi~|}p&C6
#NLXZ.B0AB3EMNH8MMKNTS?TfRdiUFml^k[\Mo``uvtTgojk~p[sttqsbzzwwip&F0
#NLXZ.D0AB3EMNH8MOMQVQ?TfRU[gFml]m[\Mo``ugwTgnzpqs[mpwpxbz{~i|}p&A3
#NLXZ.E0AB3EMNH8MPKNOP?TfRgj^Fml]o[\Mo``tseT{{nlzk[}quosybvzuyi{||}p&9A
043291.297,HBD,IF1,COM,WtDtCnt,0
$[AGT],GSET=1
$[AGT],rm,1,rt,7
$[AGT],fgFirstReq:1
$[AGT],bitmap,old:   0,new: 308
$[AGT],inco
$[AGT],srm,1,dsm,4,tp,7,length,12
$[AGT],tp,776,wn,1881,tw,153161,si,12
$[AGT],rm,2
$[AGT],state:7
$[AGT],wn:1881, tw:153161
$[AGT],ergt
$[AGT],
$[AGT],Esgt 1137715200
$[AGT],epegt
$[AGT],gfisiz()
$[AGT],egtEf,1140307200
$Rdon
$[AGT],res,1137781961,sst,1137715200,egsn,1140307200
$[AGT],wk,epo
$[AGT],s,1,m,1
$[AGT],idle
$@#$^ [AGNT] pEd
$[AGT],opmode GLO(1),GEL(0),DB(0)
$[AGT],tw,153161,gs,1137781961
$[AGT],eextd
$[AGT]start verify
$[AGT],gfisiz()
$[AGT]FileType:GPS+GLO
$[AGT],
$[AGT],epegt
$[AGT],gfisiz()
$[AGT],Extract epo done
043291.297,HBD,IF1,MSG,AidEPO,SV,1,ret,1
$[AGT],GSET=0
$[AGT],rm,4,rt,8
$[AGT],inco
043291.297,HBD,IF1,MSG,AidEPO,SV,2,ret,1
$[AGT],srm,4,dsm,4,tp,8,length,12
043291.297,HBD,IF1,MSG,AidEPO,SV,3,ret,1
$[AGT],tp,776,wn,1881,tw,153161,si,12
$[AGT],rm,3
$[AGT],state:6
$[AGT],wn:1881,tw:153161
043291.301,HBD,IF1,MSG,AidEPO,SV,4,path_2NG,ValidEPO,1,u4CurrGpsSecs,1137781961,u4GpsSecs,1137780000,seq,45,NAseq,0,Age_Epo,15,Naage,0,NaValidGEPO,0
043291.301,HBD,IF1,MSG,AidEPO,SV,5,ret,1
043291.301,HBD,IF1,MSG,AidEPO,SV,6,ret,1
$[AGT],BGAI
$[AGT],0,av:72,b_sky:0
$[AGT],1,av:82,b_sky:0
$[AGT],2,av:118,b_sky:0
$[AGT],3,av:0,b_sky:1
$[AGT],4,av:82,b_sky:0
$[AGT],5,av:82,b_sky:0
$[AGT],6,av:72,b_sky:0
$[AGT],7,av:72,b_sky:0
$[AGT],8,av:70,b_sky:0
$[AGT],9,av:66,b_sky:0
$[AGT],10,av:72,b_sky:0
$[AGT],11,av:114,b_sky:0
$[AGT],12,av:0,b_sky:0
$[AGT],13,av:66,b_sky:0
$[AGT],14,av:112,b_sky:0
$[AGT],15,av:70,b_sky:0
$[AGT],16,av:70,b_sky:0
$[AGT],17,av:64,b_sky:0
$[AGT],18,av:88,b_sky:0
$[AGT],19,av:82,b_sky:0
$[AGT],20,av:68,b_sky:0
$[AGT],21,av:70,b_sky:0
$[AGT],22,av:120,b_sky:0
$[AGT],23,av:62,b_sky:0
$[AGT],24,av:66,b_sky:0
$[AGT],25,av:70,b_sky:0
$[AGT],26,av:70,b_sky:0
$[AGT],27,av:88,b_sky:0
$[AGT],28,av:116,b_sky:0
$[AGT],29,av:70,b_sky:0
$[AGT],30,av:68,b_sky:0
$[AGT],31,av:116,b_sky:1
$[AGT],Eend:1, Send:1, ct:1
$[AGT],wkbee
$[AGT],s,1,m,2
$[AGT],idle
$@#$^ [AGNT] sBi
043291.301,HBD,IF1,MSG,AidEPO,SV,7,ret,1
043291.301,HBD,IF1,MSG,AidEPO,SV,8,ret,1
043291.301,HBD,IF1,MSG,AidEPO,SV,9,ret,1
043291.301,HBD,IF1,MSG,AidEPO,SV,10,ret,1
043291.301,HBD,IF1,MSG,AidEPO,SV,11,ret,1
043291.301,HBD,IF1,MSG,AidEPO,SV,12,ret,1
043291.301,HBD,IF1,MSG,AidEPO,SV,13,ret,1
043291.301,HBD,IF1,MSG,AidEPO,SV,14,ret,1
043291.301,HBD,IF1,MSG,AidEPO,SV,15,ret,1
043291.301,HBD,IF1,MSG,AidEPO,SV,16,ret,1
043291.301,HBD,IF1,MSG,AidEPO,SV,17,ret,1
043291.301,HBD,IF1,MSG,AidEPO,SV,18,ret,1
043291.301,HBD,IF1,MSG,AidEPO,SV,19,ret,1
043291.301,HBD,IF1,MSG,AidEPO,SV,20,ret,1
043291.301,HBD,IF1,MSG,AidEPO,SV,21,ret,1
043291.301,HBD,IF1,MSG,AidEPO,SV,22,ret,1
043291.301,HBD,IF1,MSG,AidEPO,SV,23,ret,1
043291.305,HBD,IF1,MSG,AidEPO,SV,24,ret,1
043291.305,HBD,IF1,MSG,AidEPO,SV,25,ret,1
043291.305,HBD,IF1,MSG,AidEPO,SV,26,ret,1
043291.305,HBD,IF1,MSG,AidEPO,SV,27,ret,1
043291.305,HBD,IF1,MSG,AidEPO,SV,28,ret,1
043291.305,HBD,IF1,MSG,AidEPO,SV,29,ret,1
043291.305,HBD,IF1,MSG,AidEPO,SV,30,ret,1
043291.305,HBD,IF1,MSG,AidEPO,SV,31,ret,1
043291.305,HBD,IF1,MSG,AidEPO,SV,32,path_2NG,ValidEPO,2,u4CurrGpsSecs,1137781961,u4GpsSecs,1137780000,seq,45,NAseq,0,Age_Epo,15,Naage,0,NaValidGEPO,0
043291.305,HBD,IF1,MSG,AidGLEP,SV,1,ret,1
043291.305,HBD,IF1,MSG,AidGLEP,SV,2,ret,1
043291.305,HBD,IF1,MSG,AidGLEP,SV,3,ret,1
043291.305,HBD,IF1,MSG,AidGLEP,SV,4,ret,1
043291.305,HBD,IF1,MSG,AidGLEP,SV,5,ret,1
043291.305,HBD,IF1,MSG,AidGLEP,SV,6,ret,1
043291.305,HBD,IF1,MSG,AidGLEP,SV,7,ret,1
043291.305,HBD,IF1,MSG,AidGLEP,SV,8,ret,1
043291.305,HBD,IF1,MSG,AidGLEP,SV,9,ret,1
043291.305,HBD,IF1,MSG,AidGLEP,SV,10,ret,1
043291.305,HBD,IF1,MSG,AidGLEP,SV,11,ret,1
043291.305,HBD,IF1,MSG,AidGLEP,SV,12,ret,1
043291.305,HBD,IF1,MSG,AidGLEP,SV,13,ret,1
043291.305,HBD,IF1,MSG,AidGLEP,SV,14,ret,1
043291.305,HBD,IF1,MSG,AidGLEP,SV,15,ret,1
043291.305,HBD,IF1,MSG,AidGLEP,SV,16,ret,1
043291.305,HBD,IF1,MSG,AidGLEP,SV,18,ret,1
043291.305,HBD,IF1,MSG,AidGLEP,SV,19,ret,1
043291.305,HBD,IF1,MSG,AidGLEP,SV,20,ret,1
043291.305,HBD,IF1,MSG,AidGLEP,SV,21,ret,1
043291.305,HBD,IF1,MSG,AidGLEP,SV,22,ret,1
043291.305,HBD,IF1,MSG,AidGLEP,SV,23,ret,1
043291.305,HBD,IF1,MSG,AidGLEP,SV,24,ret,1
043292.293,HBD,IF1,TIM,DSP,u1ChnNum,37,u2DataSize,57
043292.293,HBD,IF1,COM,BinDecX,65065
043292.293,HBD,IF1,GPS,TkDltIn,11,11,0
043292.297,HBD,IF1,TIM,NWloc,fgfirstUseNW,0,case,0,NWAID,0,NWUSE,0
043292.297,HBD,IF1,AGP,BOOST,Posdiff:3.571052,0.352827,num:8,PosConverge,1,BoostRemT,19.000
$Boost, flag on*64
$MTK_GPS_BEST,5,1011,PR,8,TT4SV,1011*28
$LOC_Cache_BIT,00000000*7F
$DBnm_NLP,[24.975731,121.327976,0,20.000000][2016/1/25,18:30:18][0][1]*3D
$cache_pos,-3007957.236659,4941780.525593,2676680.883578,[1137781869]*6D
$cache,0,28,1.640062*63
$cache,2,3,1.440491*52
$cache,4,1,0.958313*5E
$cache,5,19,1.906525*6F
$cache,6,30,0.942566*61
$cache,8,6,1.266457*55
$cache,10,8,1.196533*6D
$DO_Err,mean,1.335850,std,0.327457*7C
$Cache_age,93,NLP_age,-99,NV_age,93*3B
043292.297,HBD,IF1,AGP,AGPSMGN,Posdiff:3.571052,0.352827,num:0,PosConverge,0,AGPSRemT,16.000
043292.297,HBD,IF1,TIM,RstFSAg,1.0

#XPda.A@BC3&43

#MZYQ.@B1IEE5G7[IQO<&CF

#MZYQ.AH1HG4&57
043292.297,HBD,IF1,AGP,AGPSMGN,AGPSMode:-1,AGPSTimer:0.000
$PMTK015,43292296,10,1011,AMode,-1,ATimer,0.000,Remain,16.000*6A
043292.297,HBD,IF1,AGP,AGPSMGN,DOP.H :1.024395,PosCon:0,[45.936283,32.173958,3.596855]
$PMTK015,43292296,6,1011,NACQ,7,NBS,7,NSFS,0,NEXS,0*64
$HBD,INF,RTC,F,0,Y,16,M,1,D,25,H,18,M,32,Sec,25,Sub,4181,T,1003,SM,6726*07
$DBts1,TSOK,0,WNSet,1,TOWS,10,WN,1881,BAcc,20.707,TAcc,211153.297,*5F
$DBts2,TTK,1011,TOW,153162.186000000,B,0.000436822,D,0.000001156,*06
043292.297,HBD,IF1,ALO,CdmPvtU,
$HBD,INF,RTC,F,0,Y,16,M,1,D,25,H,18,M,32,Sec,25,Sub,4181,T,1003,SM,6726*07
$PMTK013,1011,set epo bitmap,R:0,F:1 *1F
$GNGGA,183225.185,2458.5451,N,12119.6786,E,1,8,1.02,112.9,M,15.0,M,,*4E
$GPGSA,A,3,28,193,03,01,19,30,06,08,,,,,1.32,1.02,0.83*3C
$GLGSA,A,3,,,,,,,,,,,,,1.32,1.02,0.83*16
$GPGSV,4,1,13,28,67,328,29.5,193,65,116,33.0,03,51,091,34.3,17,37,320,*5A
$GPGSV,4,2,13,01,36,034,28.5,19,33,313,31.9,30,30,220,28.1,11,26,050,*67
$GPGSV,4,3,13,06,26,245,25.3,32,24,055,,07,14,191,,08,08,090,28.2*74
$GPGSV,4,4,13,23,02,136,*4C
$GLGSV,3,1,9,75,47,283,,85,39,342,,74,38,205,,70,34,124,*5C
$GLGSV,3,2,9,69,25,059,,84,24,041,,86,16,289,,76,10,329,*54
$GLGSV,3,3,9,71,08,170,*64
$GNRMC,183225.185,A,2458.5451,N,12119.6786,E,0.685,154.80,250116,,,A*4A
$GNVTG,154.80,T,,M,0.685,N,1.270,K,A*24
$GNACCURACY,7.5*14
$PMTKDGP,0*4D
$PMTKDBG,1011,0,1,0,0,0,0,0,1,0,0,0,0,0,0,0,0,0,0,1,1,1,1,1,0,0,0,0,0,0,0,0,1,0001,0035,0002,0008,0008,0000,0001,0000,0.0000,1.1557,0.0000,0.0000,0.0000,0.0000,*41
$PMTKDB2,0C1D,0000,0000,0000,0000,0000,0000,0000,0056.08,1159.67,11557.39,211153.30,0002.16,0436.82,00-0.02,0000.00,*30
$PMTKEPH,40,1,3,6,7,8,9,11,16,17,19,22,23,26,27,28,30,193,-65.2.4,-66.2.4,-67.2.4,-68.2.4,-69.2.4,-70.2.4,-71.2.4,-72.2.4,-73.2.4,-74.2.4,-75.2.4,-76.2.4,-77.2.4,-78.2.4,-79.2.4,-80.2.4,-82.2.4,-83.2.4,-84.2.4,-85.2.4,-86.2.4,-87.2.4,-88.2.4*6E
$PMTKALM,32,1,2,3,5,6,7,8,9,10,11,12,13,14,15,16,17,18,19,20,21,22,23,24,25,26,27,28,29,30,31,32,193*51

#WXM[.?0A2C4E6G8I:K<M>O@QBSDUFWHYJ[L]N_PaRcTeVgXiZk\m^o`qbsdufwhyj{l}npy&39
#NMQR.A0AC3D5FHMI^Qa^PSPgR[TUVWna_[\^_svebyezm{j}nns^sqt}{x|¶ǶϼѾհ³Ŷɹмο&D6
#NMQR.A0AD3D5FHMI^Qa^PSPgRUTUVWaac[`rdavabygg|lkijqn^qy{xxĵŹϿϾհ³Ŷʹͼο&93
#NMQR.A0AE3D5FHMI^Qa^PSPgfWjkVW]Ynqrq^g`fbyl{mxkkqt^tqrtuy}ôǿνξհ³Ŷ˹ͼο&77
#NMQR.A0AG3D5FHMI^Qa^PSPgSiTUVWnl[[qpeb`ebymkkiknq|^sqttxuzzyŷǽϽѾհ³Ŷȹ̼ο&23
#NMQR.A0AH3D5FHMI^Qa^PSPgUYTUVWkal[]^e`vcbyhzxnj|opt^sqryuz{}}øϾϾհ³Ŷȹ˼ο&52
#NMQR.A0AI3D5FHMI^Qa^PSPghVjkVW`lod_q_d`bbydf{jj~mt^qvwuwzz~|ŵϼξհ³Ŷȹ˼ο&C9
#NMQR.A0AJ3D5FHMI^Qa^PSPghVjkVW`]]]rqravsbyulzzklosno^rvqrzyǺ˻Ͼհ³Ŷȹμο&FB
#NMQR.A0AK3D5FHMI^Qa^PSPgVWTUVWklb]\d^_vvbykikjkrot}p^xqrzv|zĹǻƾհ³Ŷɹͼο&05
#NMQR.A0BB3D5FHMI^Qa^PSPghUjkVWaY`\\cqg`dbywnjpkkprq^xqqrytuy|ŽǿϿýƾհ³Ŷʹμο&56
#NMQR.A0BC3D5FHMI^Qa^PSPggijkVWilbnmqcavabydkgzliqqpm^qz|zw~|}ŷȷǷпľհ³Ŷ̹Ҽο&17
#NMQR.A0BD3D5FHMI^Qa^PSPgSZTUVWXak`^sgt`vbyzhymjr{pln^qqqtux}óñϾհ³Ŷ˹ϼο&8C
#NMQR.A0BE3D5FHMI^Qa^PSPgg\jkVW]]^lqebdvubyfmlikmkoqt^qtz|xy|²Ǿҿհ³Ŷȹμο&57
#NMQR.A0BF3D5FHMI^Qa^PSPggfjkVWkYom\]q`vubykh|mknnk^vqvxx|źǽϻľհ³Ŷȹ˼ο&D5
#NMQR.A0BG3D5FHMI^Qa^PSPghSjkVWmlaapfsfvvbyigk{kk|q^qqv||ƶɽǸϺѾհ³Ŷɹμο&A9
#NMQR.A0BH3D5FHMI^Qa^PSPgSfTUVWYa[[rnfr`tbymynkjrn^qvuy~ǼϿξհ³Ŷȹͼο&1A
#NMQR.A0BI3D5FHMI^Qa^PSPgh\jkVWl]ndqbs_vjbykkxykinrn^oqwszzzõʻǼϻžհ³Ŷȹ̼ο&FC
#NMQR.A0BJ3D5FHMI^Qa^PSPgTUTUVWiaam_rbq`ebyvjolk|{mu^tqz{uy{{ǼǷýƾհ³Ŷɹмο&A6
#NMQR.A0BK3D5FHMI^Qa^PSPghijkVWi]]onorcvibydjzokjm}t^rqqwuyǹŶǻϺհ³Ŷȹ̼ο&E1
#NMQR.A0CB3D5FHMI^Qa^PSPgS[TUVW_ao^___r`ebyilxkkrk|mq^sqtu{uy||ȸǼϻѾհ³Ŷɹ̼ο&D0
#NMQR.A0CC3D5FHMI^Qa^PSPggijkVW^abcnq``vebyxnmgkolrms^rq{{{Ŷǹհ³Ŷ̹Ҽο&24
#NMQR.A0CD3D5FHMI^Qa^PSPgfUjkVWX]^q_bo_`ebylyzhkznq^psqu||uz~|ùǻϺƾհ³Ŷɹ˼ο&7A
#NMQR.A0CE3D5FHMI^Qa^PSPggijkVWnaa^qospvubyhgo|kz|qq^tqw{ǻϼƾհ³Ŷɹͼο&86
#NMQR.A0CF3D5FHMI^Qa^PSPghejkVWkYb_rrs_vwbyfnlzkkktt^ssqtx}}}}·´пƾհ³Ŷɹμο&17
#NMQR.A0CG3D5FHMI^Qa^PSPgeZjkVWXl\cr_ps`vbyxn|jj|mruv^uqtttuyz}}òĶǿϾμξհ³Ŷɹͼο&7E
#NMQR.A0CH3D5FHMI^Qa^PSPgYSjkVWkY^lq_dp`ubywkoikikrq^qrwuuy{³ƺĶǾüžհ³Ŷȹ̼ο&58
#NMQR.A0CI3D5FHMI^Qa^PSPgSiTUVW\Y`p\doavsbyklk{kjjmor^prqsw{{{úǼ̿Ͼհ³Ŷȹ̼ο&D4
#NMQR.A0CJ3D5FHMI^Qa^PSPgSZTUVWY]^\`^tr`vbymiipj{sn^utq|u|~|~ųĴǻǽλϾհ³Ŷɹ̼ο&9A
#NMQR.A0CK3D5FHMI^Qa^PSPgR[TUVW\abnabgbvrbyx{j}kjrn^oqrszǵǻϾžհ³ŶʹԼο&BB
#NMQR.A0DB3D5FHMI^Qa^PSPgT[TUVW^ak[\otr`abydh{ikjo^tqrwuw|ǿϼоհ³Ŷȹ˼ο&59
#NMQR.A0DC3D5FHMI^Qa^PSPghUjkVWYa`n^bdf`abyde|kj|q^pqvt|uwyz{ǳϿžհ³Ŷȹ˼ο&6A
#NMQR.A0GG3D5FHMI^Qa^PSPgRWTUVW]ampqpcu`cbykzwzijmkp^uqrxuw~~~ŸȹȹϼľհóŶȹмӿ&0D
#NMQR.A0GH3D5FHMI^Qa^PSPgSSTUVWmal_]cdr`cbywyhxii~~n^tqruw|ĸɸȺϼ¾հƳŶȹмӿ&2B

#NM^Z.BB1CCEF6H8JKL<NNT@QBSD&07
#\XOU.?0CJ3GH6G8ON;QRPb@QBZVUF^ZYJ`La_OaadddmVhiqqtp]otwbp}{xy}k}nrwy}&F8
#\XOU.@0BKF4HL7H9PO<RSQcARC\YVG`]ZKaMbdPbbeeenWnkopn]yqbpuz~}||}mpuz|&42
#\XOU.A0D2FK5F7NM:PQOa?PAZYTE^]XI_K`bN``ccclUghojqp\utaotuvxx~l~oty|&5E
#\XOU.B0BI3FL6G8MJ;SNPQ@QBSDUF\HZ\K]]```iRdegmglY{q~^lrxu{tvx|hzzk~otvz}&DA
#\XOU.C0B2FE5F7NM:QQO_?PAV[TEZ_XI_K^bN``ccclUghkrpr\taou}~vz{l~oty{&92
#\XOU.D0BK3GJ6G8ON;QRPb@QB[VUF_ZYJ`LacOaadddmVhillpl]txbpvw}yzy{l~osxz~&82
#\XOU.E0DB3GF6G8ON;RRP`@QBXVUF\ZYJ`L_cOaadddmVhikltp]vvbpv}wx}|~mpuz|&68
#\XOU.F0H2C4E6G8[KKL=N?PARCWEVGYY\\\eN``ieifU{likZhooqsrqsytex}h|~m~rtvx}&29
#\XOU.G0G2EL5F7NM:QMO_?PAVYTEZ]XI_K^]N``ccclUghiirl\~tvxautuw{zj}m{rwy}&D0
#\XOU.H0BC3FN6G8MQ;RNPR@QBSDUF\HZbK]]```iRdefkhmY{qq^lrzrvvy~|~i|lqvx|&8B
#\XOU.@@1J3GF6G8ON;RRP`@QBXXUF\\YJ`L_gOaadddmVhhmrnn]tbpvyyympuz|&0D
#\XOU.@E1DCF5GJ8I:O<TNQRARCTEVG]I\K\Ma`acjfTel{oYglttnoxusvdvzg{k|}~pruw|~&2A
#\XOU.AF1DCG5F7H9J;QMNO@QBSDUFZHYJ[L^`eiieSxlzgXfmmroqwrqzcuufwhyz{|m~oqsxz}&46
#\XOU.BG1I3D5F7H9\LLM>O@QBSDXFWHZZ]]]fOaaikimV|kqo[ipqptrwxywfy}izk|}~prtv{}&B5
#\XOU.CH1B3D5F7H9JKLM>O@QBSDUFWHYJ[L]^_`QbSdUfWhijk\m^o`qbstuvgxizk|m~oq&36

#NM`a.@@BC3E5F7H9J;L=N?PQRSTUVWHYJ[L&52
#NLPT.AH1CF4EFGK9GPJP>ONSW\DWWW]IW[Z]fO`_bcjUggflp[&49
#NLPT.@ID2DG5FGHL:OJP>ONQSVDWV[]IZY\_N_^abcTndoiY&E4
#NLPT.B0BE3DEFJ8NHQ<MLOTSBUTY[GUYX]\M^]`ebSmcnhX&B1
#NLPT.@G1D3&0A
#NLPT.@0BE3DEFJ8FKIP=NMPTRCXZ^[HYX`_M^]behSefdiqY&E9
#NLPT.@I1CF4EFGK9QIP=NMQVUCVVV]HVZY^dN_^aieTffekmZ&1B
#NLPT.B@1CF4EFGK9JIU=NMPQZCVZ^[HYX]^M^]`eeSefdikY&E6
#NLPT.F0B2&D8
#NLPT.E0BE3DEFJ8JJIS=NMPQZC]ZWW]IZY\`N_^abcTggehmZ&11
#NLPT.@A1D3&04
#NLPT.G0BE3DEFJ8KHP<MLOPRBUY^VGUYX\cM^]`chSefdhqY&E6

#NMMN.@0>CKFE6JQQQ;MMOP@RRUUU^GY[J[L^^OafedjgdhpoZk\&7E
#KL_c.@0BCFMKM7EMOQQ=RT@UBTDUF_XY[K&7F
#KL_c.B0BCJELK7EJPTT=RT@UBTDUF_XY[K&80
#KL_c.E0BCDDMG7LPQ;PR>S@RBSD]VW[I&18
#KL_c.F0BBKGLJ7EMSMU=RT@UBTDUF_XY]K&87
#KL_c.G0BBGLHH7ELQLR=RT@UBTDUF_XY]K&7C
#KL_c.@A1CDEJGL8FNONV>SUAVCUEVG`YZ^L&A4
#KL_c.@G1CDFLFK8FNLU=RT@UBTDUF_XY[K&74
#KL_c.@I1CDGGKG8FMOP=RT@UBTDUF_XY[K&70
#KL_c.AC1CCFENL8FNTQ=RT@UBTDUF_XY]K&78
#KL_c.AH1CDLLOK8FKOU=RT@UBTDUF_XY[K&85
#KL_c.B@1CDFGOK8FNMUN>SUAVCUEVG`YZ^L&A7
#KL_c.BB1CDEFHN8FMSMO>SUASXZEVGXIb[\^N&06
#KL_c.@ID2IFJKI8FLONQ>SUAVCUEVG`YZ\L&AC
#KL_c.A@J2HKFGO8FLPPR>SUAVCVEVG`YZ^L&B3
#KL_c.A@E2HLHIJ8QOT<QS?TATCTE^WXZJ&55
#KL_c.AAD2HHHGN8KJQL=RT@UBUDUF_XY]K&77
#KL_c.A@B2HLNJN8FOOLV>SUAVCVEVG`YZ\L&B6
#KL_c.A@I2HMNGH8FKSQQ>SUAVCVEVG`YZ\L&B5
#KL_c.A@H2HHKMH8JNQP=RT@UBUDUF_XY]K&84
#KL_c.AAA2HJLKG8FMONM>SUAVCVEVG`YZ^L&A5
#KL_c.AAC2HMEGJ8FKTOP>SUAVCVEVG`YZ\L&A7
#KL_c.A@F2HILIL8FNSN=RT@UBUDUF_XY]K&80
#KLbg.?0CD3FM6HQL:N<ONW@SSUDWVXHZaK]M`_dQclThfWijZq\onx`sssdwv|hj}|nptwz&A3
#KLbg.@0C2EDG6IHL:&5E

#\Qpou/HI2DGLHO8J:K<M>O@RWY\^F]X`JdbbN`abhShjjgXmoms]nqbyg{}l}qv{&4C

#NM`].@@BC3E5GG8KNTSRUS@RTTWW]``I[[\M_ghbRdihgmjjrq\norwxzt|{gu{{l}n&54
#NP\U.G0BCFKLNHQKO;`SSOPQBSDUFWHYJ]e_btqQxyzhV}|llsp]pxrxdxz|kry­ʾɷͩͿİƷ&79
#NP\U.H0BCFKLMMHJJ;`SSOPQBSDUFWHYJ`m_btqQfgTlni{|Zp}oau|xz}{hov}ƳԱ۸ѿ&29
#NP\U.@A1CDGLMOIRLP<aTTPQRCTEVGXIZKa^`eqtRyzz|Wy}r~oq^tqrezx}|lsz¸Ģʻȹѿٷо&DC
#NP\U.@F1CDGLMNNKJP<aTSQQRCTEVGXIZKc_`curRdwU|xiiks\tpouxcv~{~jqw~Ǵճɺ&2D
#NLXZ.F0AB3EMNH8MQO]NN?TfSSe[Fml^_[\Mo``ubkTl|ol}[uovxbuw|i}|}p&BA
#NLXZ.G0AB3EMNH8MRKaUT?TfRf][Fml\Z[\Mo``tstTyixkj{[rtrb{xwwyi|}~p&BE
#NLXZ.H0AB3EMNH8MSKQMT?TfR[Z[Fml\`[\Mo``tteTjip}k~[pvsbxywxi{|o&52
#NLXZ.@@1BC4FNOI9N\LU`V@UgSfUiGnm_d\]NpaavdwUhphrj\uvtscv|zjp&DD
#NLXZ.@A1BC4FNOI9N]TQca@UghU]]GnmZa\]NpaautjU{}{{|l\pc{yj}~q&5C
#NLXZ.@B1BC4FNOI9N^NcQ`@UgTjW[Gnm`l\]NpaaucfUwyk~n~\nssuwcz{xj}}~q&EC
$[AGT],GSET=1
$[AGT],rm,1,rt,1
$[AGT],fsm,wm,2
$[AGT],rv PMTKRQTEPH,1881,153162,2,4,32
043292.301,HBD,IF1,BOT,MNLVer,AXN_3.70,1312,MNL_VER_15091601ALPS05_3.70_03,39,76
$[AGT],GSET=1
$[AGT],rm,1,rt,7
$[AGT],fgFirstReq:0
$[AGT],bitmap,old: 308,new: 308
$[AGT],skip re_agps_req
$[AGT],GSET=1
$[AGT],rm,4,rt,9
$[AGT],inco
$[AGT],sel SI
$[AGT],rm,4
$[AGT],state:4
$[AGT],state:4
$[AGT],wkssi
$[AGT],s,1,m,3
$[AGT],idle
$[AGT],send aosp AGPS req
043293.297,HBD,IF1,TIM,DSP,u1ChnNum,37,u2DataSize,57
043293.297,HBD,IF1,COM,BinDecX,65065
043293.297,HBD,IF1,GPS,TkDltIn,1011,1012,1
043293.297,HBD,IF1,TIM,NWloc,fgfirstUseNW,0,case,0,NWAID,0,NWUSE,0
043293.297,HBD,IF1,AGP,BOOST,Posdiff:15.745083,0.170956,num:9,PosConverge,1,BoostRemT,18.000
$Boost, flag on*64
$LOC_Cache_BIT,00000000*7F
043293.297,HBD,IF1,AGP,AGPSMGN,Posdiff:15.745083,0.170956,num:0,PosConverge,0,AGPSRemT,16.000
043293.297,HBD,IF1,TIM,RstFSAg,2.0

#MZYQ.AE1B3&1A

#XPda.BHCH3&52

#MZYQ.@B1TCM5G7[J[P<&EC

#MZYQ.AH1HG4&57
043293.297,HBD,IF1,AGP,AGPSMGN,AGPSMode:-1,AGPSTimer:0.000
$PMTK015,43293297,10,2011,AMode,-1,ATimer,0.000,Remain,16.000*69
043293.297,HBD,IF1,AGP,AGPSMGN,DOP.H :0.979266,PosCon:0,[26.030184,18.354130,3.059293]
$PMTK015,43293297,6,2011,NACQ,8,NBS,8,NSFS,0,NEXS,0*67
$HBD,INF,RTC,F,0,Y,16,M,1,D,25,H,18,M,32,Sec,26,Sub,4185,T,2003,SM,8900*07
$DBts1,TSOK,0,WNSet,1,TOWS,10,WN,1881,BAcc,13.212,TAcc,211129.625,*5E
$DBts2,TTK,2011,TOW,153163.186000000,B,0.000437970,D,0.000001174,*03
043293.297,HBD,IF1,ALO,CdmPvtU,
$HBD,INF,RTC,F,0,Y,16,M,1,D,25,H,18,M,32,Sec,26,Sub,4185,T,2003,SM,8900*07
$GNGGA,183226.185,2458.5430,N,12119.6780,E,1,9,0.98,101.9,M,15.0,M,,*4D
$GPGSA,A,3,28,193,03,01,19,30,06,11,08,,,,1.28,0.98,0.82*34
$GLGSA,A,3,,,,,,,,,,,,,1.28,0.98,0.82*1E
$GPGSV,4,1,13,28,67,328,30.9,193,65,116,35.0,03,51,091,35.1,17,37,320,*5B
$GPGSV,4,2,13,01,36,034,29.3,19,33,313,32.2,30,30,220,29.0,11,26,050,28.1*7D
$GPGSV,4,3,13,06,26,245,25.8,32,24,055,,07,14,191,,08,08,090,29.0*7C
$GPGSV,4,4,13,23,02,136,*4C
$GLGSV,3,1,9,75,47,283,,85,39,342,,74,38,205,,70,34,124,*5C
$GLGSV,3,2,9,69,25,059,,84,24,041,,86,16,289,,76,10,329,*54
$GLGSV,3,3,9,71,08,170,*64
$GNRMC,183226.185,A,2458.5430,N,12119.6780,E,0.332,185.95,250116,,,A*49
$GNVTG,185.95,T,,M,0.332,N,0.615,K,A*23
$GNACCURACY,5.6*15
$PMTKDGP,0*4D
$PMTKDBG,2011,0,1,0,1,0,0,0,1,0,0,0,0,0,0,0,0,0,0,1,1,1,1,1,0,0,0,0,0,0,0,0,1,0001,0035,0002,0009,0009,0000,0001,0000,0.0000,1.1738,0.0000,0.0000,0.0000,0.0000,*48
$PMTKDB2,0C18,0000,0000,0000,0000,0000,0000,0700,0031.85,0000.00,11738.76,211129.62,0002.53,0437.97,00-0.02,0000.00,*4C
$PMTKEPH,41,1,3,6,7,8,9,11,16,17,19,22,23,26,27,28,30,-32.0.1,193,-65.2.4,-66.2.4,-67.2.4,-68.2.4,-69.2.4,-70.2.4,-71.2.4,-72.2.4,-73.2.4,-74.2.4,-75.2.4,-76.2.4,-77.2.4,-78.2.4,-79.2.4,-80.2.4,-82.2.4,-83.2.4,-84.2.4,-85.2.4,-86.2.4,-87.2.4,-88.2.4*6E
$PMTKALM,32,1,2,3,5,6,7,8,9,10,11,12,13,14,15,16,17,18,19,20,21,22,23,24,25,26,27,28,29,30,31,32,193*51

#WXM[.?0A2C4E6G8I:K<M>O@QBSDUFWHYJ[L]N_PaRcTeVgXiZk\m^o`qbsdufwhyj{l}npy&39
#NMQR.A0DD3E5FGLI^QRQPTPQYWTUVW`l]b\p^_`abcezfghi~kr^qvqwstuv}òñź³Ŷȹ˼ο&54
#NMQR.A0GI3D5FHMI^Qa^PSPgR\TUVW\]pd\dth`bbyumy|ii~tr^orqrwuwzz{ȺνհǳŶȹмӿ&1A
#NMQR.A0GJ3D5FHMI^Qa^PSPgRhTUVWjY^a]a_g`cbylygkii~rr^qrsvux||}³ȻοհȳŶȹмӿ&F3
#NMQR.A0GK3D5FHMI^Qa^PSPghYjkVWma[m\]rh`cbyxzl}ijp~ut^vqrwwuxy|~·ĶȺϾ¾հóŶɹмӿ&D7
#NMQR.A0HB3D5FHMI^Qa^PSPgRXTUVWmln[\nar`dbymh{lijpov^usqrwvux}ƻȺϻýþհƳŶȹмӿ&F6
#NMQR.A0HC3D5FHMI^Qa^PSPghhjkVWZl^]rsbc`cbyfk{|iiov^yqrswux|~ȻϼýþհǳŶȹмӿ&D7
#NMQR.A0HD3D5FHMI^Qa^PSPgRSTUVWiYa_rpsq`bbyywxoii~nlo^qruw}ǼȺýþհȳŶȹмӿ&4D
#NMQR.A0HE3D5FHMI^Qa^PSPgR\TUVWYY^m\`fb`gbymenohrlqnq^pqsu{{~÷ȽϿξհĳŶȹмӿ&A2
#NMQR.A0HF3D5FHMI^Qa^PSPgRZTUVWklma\]ts`fbydxmohopmt^qru{{~}÷ƶȿϽžհɳŶȹмӿ&62
#NMQR.A0HG3D5FHMI^Qa^PSPgRYTUVWnlp`\_sh`gbyiz|pho}r^rqqruwu|ȿϾľհ³Ŷȹмӿ&BB
#NMQR.A0HH3D5FHMI^Qa^PSPgReTUVWYa`d\a`u`hbywlzxhq|osp^uyqsvu|yǹȾȽžհóŶȹмӿ&46
#NMQR.A0HI3D5FHMI^Qa^PSPghgjkVWZYaa\^gf`gbyxzwmhpqsq^xyqrtwu|}|ĸǻȾƾհĳŶȹмӿ&9E
#NMQR.A0HJ3D5FHMI^Qa^PSPgTeTUVW[ln\^`gr`gbylwnnhonstr^uxqryu|zòùȿϽƾհɳŶȹмӿ&73
#NMQR.A0HK3D5FHMI^Qa^PSPgRYTUVWna\c\era`fbyykl}hoonqm^vqszu{y{}ðľհ³Ŷȹмӿ&D3
#NMQR.A0IB3D5FHMI^Qa^PSPgRdTUVWmlnn\`aa`gbyig{phq}o^qqsyu{{{óŹȾͿžհóŶȹмӿ&63
#NMQR.A0ID3D5FHMI^Qa^PSPgRiTUVWml^p\occvhbymvgkh|~pqu^qrx}~w}|ɻȹϻҽհųŶȹмӿ&84
#NMQR.A0IE3D5FHMI^Qa^PSPgh[jkVWZYmdqpdcvhbyvfynhzp~^tqryy~}{|ŶȺҿհųŶɹмӿ&D6
#NMQR.A0IF3D5FHMI^Qa^PSPghSjkVWa]kdq`ebvhbyiik{h{~nor^vqr{t~{ĶºƹȺҿհĳŶɹмӿ&6D
#NMQR.A0IG3D5FHMI^Qa^PSPgRhTUVW\l__\cecvhbymxhih}tnt^tyqrw~{{z´ŴȹοҽհƳŶȹмӿ&D9
#NMQR.A0IH3D5FHMI^Qa^PSPgReTUVWZan`]efavgbydxyzh{opv^wqs|}|}|ǷǷȺϿҾհųŶɹмӿ&28
#NMQR.A0II3D5FHMI^Qa^PSPgffjkVWXY^nrcstvgbyufwhh{|pu^pxqr}}zy{ĴȺ̿ҾհųŶɹмӿ&93
#NMQR.A0IJ3D5FHMI^Qa^PSPghgjkVW`lbnqrcrvhbymhjxh|l~u^uqrw~ĹȹϿҾհĳŶɹмӿ&64

#NM^Z.BB1DCEF6H8JKL<NNT@QBSD&08
#\XOU.?0CJ3GI6G8ON;QRPb@QBTYUVGY^Z[LbNbfQccfffoXjkomtws`xesxz{~orv{~&28
#\XOU.@0BKF4HN7H9PO<RSQcARCU]ZWHZb_\McOeaRddgggpYkktrstqax|yfty{~qty~&19
#\XOU.A0D2FL5F7NM:PQOa?PAS[ZUFX`_ZKaMc_PbbeeenWijnkmtr_wstdrwx{}~orw|&BC
#\XOU.B0BI3FJ6G8LM;TNPQ@QBSDUF\H`J\\___hQcdgjmglYoqou^lrzxuzx|yhzzk~~otvz|&D9
#\XOU.C0B2FF5F7MQ:PQOb?PASUXUFXZ]ZKaMaaPbbeeenWijmqusr_zdrywy}}}orw|~&7C
#\XOU.D0BK3GJ6G8ON;QRPb@QBT\WVGYa\[LbNd`QccfffoXjknroso`s|zesy}{~}~orv{}&DB
#\XOU.E0DB3GG6G8ON;QRPb@QBTV[VGY[`[LbNadQccfffoXjknqowq`susuesy}{}psx}&1A
#\XOU.F0H2C4E6G8[KKL=N?PARCWEVGYY\\\eN`adcfinVyh|l[ipprtsrtzufy~i}nsuwy~&66
#\XOU.G0G2EM5F7NM:QMO_?PASUZUFXZ_ZKaM_cPbbeeenWijmoluo_dw~y{}mp~uz|&D4
#\XOU.H0BC3GF6G8ON;QNP`@QBXZUF\^YJ`L^eOaadddmVhilnpmo^wvvcqwz}znqv{}&B6
#\XOU.@@1J3GG6G8OM;QRPb@QBTU]VGYZb[LbNagQccfffoXjkmsuqo`wtyesy|psx}&62
#\XOU.@F1DCL5F7H9J;^NNO@QBSDUFZHYJbcbbePfkldlVmq|[inppuquzxyfxzizk|}~prtv{}&09
#\XOU.@G1DDF5F7H9J;^NNO@QBSDUFZHYJbcbbePfkcdnVmkr~[inpuvyss|}fxxizk|}~prtv{}&F8
#\XOU.@H1DCE5F7H9J;^NNO@QBSDUFZHYJbcbbePfjlhgVkqip[ipsstyvuvyfxxizk|}~prtv{}&E5
#\XOU.@I1DCH5F7H9J;^NNO@QBSDUFZHYJbcbbePfjfgeVkmz[qspxuutwdvzgxiz{|}nprty{~&A4
#\XOU.A@1DCM5F7H9J;^NNO@QBSDUFZHYJbcbbePfideiVjji[intuwy{tvufxzizk|}~prtv{}&E9
#\XOU.AA1DDD5F7H9J;^NNO@QBSDUFZHYJbcbbePfhjhjV|zrs[iopsqtutvufxyizk|}~prtv{}&F3
#\XOU.AB1DCI5F7H9J;^NNO@QBSDUFZHYJbcbbePfgjgfV{pqp[ipotxyuxvew{hyj{|}~oqsuz|&C7
#\XOU.AC1DCK5F7H9J;^NNO@QBSDUFZHYJbcbbePffijmVnnpp[urwstxrwdvxgxiz{|}nprty{~&9A
#\XOU.AD1DDG5F7H9J;^NNO@QBSDUFZHYJbcbbePfffeiVxnpo[mpsopusytewxhyj{|}~oqsuz|&AE
#\XOU.AF1DCG5F7H9J;QMNO@QBSDUFZHYJ[L^cffeeSwxxhXfmrmrvxqsrcuyfwhyz{|m~oqsxz}&53
#\XOU.BG1I3D5F7H9\LLM>O@QBSDXFWHZZ]]]fOabecljkWqzp\jqrqusxyzxgz~j{l}~qsuw|~&EE
#\XOU.CH1B3D5F7H9JKLM>O@QBSDUFWHYJ[L]^_`QbSdUfWhijk\m^o`qbstuvgxizk|m~oq&36

#NM`a.A@BC3E5F7H9J;L=N?PQRSTUVWHYJ[L&53
#NLPT.AH1CF4EFGK9GKJV>ONQW[DVWZXIWbZ^gOe_chhUkekqZ&2C
#NLPT.@ID2DG5FGHL:RJV>ONXXXDVV^XIWbZ__Od_ijkUjepjZ&41
#NLPT.B0BE3DEFJ8NHT<MLUXYBTT\VGU`XbdMf]giiShcnhX&EA
#NLPT.@G1D3&0A
#NLPT.@0BE3DEFJ8FPIR=NMPQRCVWV`HV`Y`eN_^fhcTfheirZ&1B
#NLPT.@I1CF4EFGK9GOJP>ONQR[DVWZYIWbZe`Oi_kiiUkekmZ&30
#NLPT.B@1CF4EFGK9GQJT>ONRVWDV\WaIWcZaeOac`cklVmflq[&64
#NLPT.F0B2&D8
#NLPT.E0BE3DEFJ8FRIN=NMPUWCWWV\HVbYbbNb^bhkTfjejnZ&2B
#NLPT.@A1CF4EFGK9GMQKS?POYUYEX\`]JXe[ahPbcageoWijhru]&CB
#NLPT.G0BE3DEFJ8FKQJR>ONSZVDV]X]IWdZ]gOad`hgeVnfmj[&5F
#NLPT.A@I2D4&3B
#NLPT.AAC2D4&36
#NLPT.A@B2D4&34
#NLPT.A@E2D4&37
#NLPT.A@J2D4&3C
#NLPT.AAA2D4&34
#NLPT.A@F2D4&38
#NLPT.A@H2D4&3A
#NLPT.AAD2D4&37

#NMMN.@0>CKHN6JQPO;NMOP@RRUUU^GY[J[L^^OafedjhdhpoZk\&88
#KL_c.@0BCFJNLK8FNPUR>RSAVCUEVG`YZ\L&B2
#KL_c.B0BCGDFMK8FKRNV>RSAVCUEVG`YZ\L&A4
#KL_c.E0BCFHENH8MNR<PQ?TASCTE^WX\J&48
#KL_c.F0BCFEHMH8FNTQU>RSAVCUEVG`YZ^L&B0
#KL_c.G0BCEKMIG8FMRPS>RSAVCUEVG`YZ^L&B0
#KL_c.@A1CDGIKHJ9GOPRW?STBWDVFWHaZ[_M&D7
#KL_c.@G1CDGJMGL9GOPU>RSAVCUEVG`YZ\L&A9
#KL_c.@I1CDGKHLH9GNSP>RSAVCUEVG`YZ\L&A5
#KL_c.AC1CDFJFOL9GPNR>RSAVCUEVG`YZ^L&A4
#KL_c.AH1CDHFMPL9GLTM>RSAVCUEVG`YZ\L&AA
#KL_c.B@1CDGJHPJ9GOOON?STBWDVFWHaZ[_M&D1
#KL_c.BB1CDGIGIJ9GNTQP?STBXUWFYHYJc\]aO&37
#KL_c.@ID2DDMKLMJ:HNQST@TUCXEWGXIb[\^N&12
#KL_c.A@J2HKFGO8FLPSS>RSAVCVEVG`YZ^L&B4
#KL_c.A@E2HLHIK8QLS<PQ?TATCTE^WXZJ&4F
#KL_c.AAD2HHHGN8KJNL=QR@UBUDUF_XY]K&71
#KL_c.A@B2HLNJL8FOOPM>RSAVCVEVG`YZ\L&AC
#KL_c.A@I2HMNGG8FKSTQ>RSAVCVEVG`YZ\L&B4
#KL_c.A@H2HHKMI8JNNQ=QR@UBUDUF_XY]K&80
#KL_c.AAA2HJLJP8FMOPV>RSAVCVEVG`YZ^L&B5
#KL_c.AAC2HMEGI8FKTRP>RSAVCVEVG`YZ\L&A6
#KL_c.A@F2HILIL8FOLL=QR@UBUDUF_XY]K&75
#KLbg.?0CD3FM6HQL:N<ONW@SSUDWVXHZaK]M`_dQclThfWijZq\onx`ttcvvvgzykmqswz&A3
#KLbg.@0C2EDG6IHL:&5E

#\Qpou/BF2DHFIK8I:K<M>O@RW[Y^FZ^`J`a]Ne`iRgiikWlnnp\mpxaxfz|~k|puz&00
#NP\U.@G1CDGLMOIRLP<aTTPQRCTEVGXIZK]r`eqtRyz{oW}n~t}q^p{wteyw|{{lszǽºĵϼ&97
#NP\U.@I1CDGLMOIRLP<aTTPQRCTEVGXIZKbf`eqtRyz{|Wz{mu^uy{vweyx|lszǣү׶ͽ&0E
#NP\U.AB1CDGLMNNNOK<aTSPQRCTEVGXIZK^q`curRyzyhWknnlq^qqwyvey~l~syšʸ½ӯٶͽ&AA
#NP\U.AC1CDGLMNJLNN<aTTPQRCTEVGXIZK]e`bbiRyzz|W}{qosm^pxw|ey|{lsz­ǷЮɵ˼&23
#NLXZ.@C1BC4FNOI9N_NSQV@UgTWXXGnm^_\]NpaavcdUkooop|\rnrxvcuujq&F4
#NLXZ.@D1BC4FNOI9N`PQNP@UgSiYgGnm]p\]NpaavgdUkm~|l~\nxuvcy~}zjo&B3
#NLXZ.@E1BC4FNOI9NaPNbc@Ugi\^_Gnm\\\]NpaavvhUkhqq||\nqtxwcw|~j}~q&0E
#NLXZ.@F1BC4FNOI9OKPRRX@UgTj\_Gnm`d\]NpaavgiUwzhjk\upb{y}i|}p&CA
#NLXZ.@G1BC4FNOI9OLQVae@UgTYWgGnm]n\]NpaaulyUzlzo{n\nrqcyx|yj}~q&04
#NLXZ.@H1BC4FNOI9OMTTWQ@UgiX]lGnm]p\]NpaauwgUhohp|\osxc}}|~j~}~q&05
$[AGT],GSET=1
$[AGT],rm,1,rt,7
$[AGT],fgFirstReq:0
$[AGT],bitmap,old: 308,new: 108
$[AGT],fsm,wm,3
$[AGT],skip
043295.109,HBD,IF1,TIM,DSP,u1ChnNum,37,u2DataSize,57
043295.109,HBD,IF1,COM,BinDecX,65065
043295.109,HBD,IF1,GPS,TkDltIn,2011,2016,5
$QEPO_Request*05
$[AGT],GSET=3
$[AGT],rm,1,rt,10
$[AGT],set Qepo req
$[AGT],TSETe=3
$[AGT],inco
$[AGT],rm,0
$[AGT],remd == 0
043295.113,HBD,IF1,TIM,NWloc,fgfirstUseNW,0,case,0,NWAID,0,NWUSE,0
043295.113,HBD,IF1,AGP,BOOST,Posdiff:5.453857,0.250670,num:7,PosConverge,1,BoostRemT,16.185
$Boost, flag on*64
$LOC_Cache_BIT,00000000*7F
043295.113,HBD,IF1,AGP,AGPSMGN,Posdiff:5.453857,0.250670,num:0,PosConverge,0,AGPSRemT,16.000

#XPda.CHCH3&53

#MZYQ.@B1CEXN6H8\NLR=&15

#MZYQ.AH1HG4&57
043295.113,HBD,IF1,AGP,AGPSMGN,AGPSMode:-1,AGPSTimer:0.000
$PMTK015,43295111,10,3836,AMode,-1,ATimer,0.000,Remain,16.000*6E
043295.113,HBD,IF1,AGP,AGPSMGN,DOP.H :0.865708,PosCon:0,[17.364782,12.201522,3.018708]
$PMTK015,43295111,6,3836,NACQ,9,NBS,9,NSFS,0,NEXS,0*60
$HBD,INF,RTC,F,0,Y,16,M,1,D,25,H,18,M,32,Sec,27,Sub,30851,T,3817,SM,5696*30
$DBts1,TSOK,0,WNSet,1,TOWS,10,WN,1881,BAcc,10.874,TAcc,211084.422,*54
$DBts2,TTK,3826,TOW,153165.001000000,B,0.000440136,D,0.000001174,*0C
043295.746,HBD,IF1,ALO,CdmPvtU,
$HBD,INF,RTC,F,0,Y,16,M,1,D,25,H,18,M,32,Sec,27,Sub,30851,T,3817,SM,5696*30
$GNGGA,183228.000,2458.5437,N,12119.6791,E,1,10,0.87,95.5,M,15.0,M,,*4E
$GPGSA,A,3,28,193,03,01,19,30,06,11,08,07,,,1.18,0.87,0.81*3D
$GLGSA,A,3,,,,,,,,,,,,,1.18,0.87,0.81*10
$GPGSV,4,1,13,28,67,328,30.9,193,65,116,34.0,03,51,091,35.1,17,37,320,*5A
$GPGSV,4,2,13,01,36,034,29.2,19,33,313,33.8,30,30,220,29.4,11,26,050,27.1*7C
$GPGSV,4,3,13,06,26,245,26.9,32,24,055,,07,14,191,18.3,08,08,090,28.8*63
$GPGSV,4,4,13,23,02,136,*4C
$GLGSV,3,1,9,75,47,283,,85,39,342,,74,38,205,,70,34,124,*5C
$GLGSV,3,2,9,69,25,059,,84,24,041,,86,16,289,,76,10,329,*54
$GLGSV,3,3,9,71,08,170,*64
$GNRMC,183228.000,A,2458.5437,N,12119.6791,E,0.487,64.97,250116,,,A*79
$GNVTG,64.97,T,,M,0.487,N,0.902,K,A*1F
$GNACCURACY,4.6*14
$PMTKDGP,0*4D
$PMTKDBG,3826,0,1,0,1,0,0,0,1,0,0,0,0,0,0,0,0,0,0,1,1,1,0,1,0,0,0,0,0,0,0,0,1,0001,0035,0002,0010,0010,0000,0001,0000,0.0000,1.1738,0.0000,0.0000,0.0000,0.0000,*44
$PMTKDB2,0C12,0000,0000,0000,0000,0000,0000,0700,0021.22,0000.00,11738.76,211084.42,0000.78,0440.14,00-0.02,0000.00,*4E
$PMTKEPH,41,1,3,6,7,8,9,11,16,17,19,22,23,26,27,28,30,-32.0.1,193,-65.2.4,-66.2.4,-67.2.4,-68.2.4,-69.2.4,-70.2.4,-71.2.4,-72.2.4,-73.2.4,-74.2.4,-75.2.4,-76.2.4,-77.2.4,-78.2.4,-79.2.4,-80.2.4,-82.2.4,-83.2.4,-84.2.4,-85.2.4,-86.2.4,-87.2.4,-88.2.4*6E
$PMTKALM,32,1,2,3,5,6,7,8,9,10,11,12,13,14,15,16,17,18,19,20,21,22,23,24,25,26,27,28,29,30,31,32,193*51

#WXM[.?0A2C4E6G8I:K<M>O@QBSDUFWHYJ[L]N_PaRcTeVgXiZk\m^o`qbsdufwhyj{l}npy&39

#NM^Z.BB1EKFK6H8JKL<NNT@QBSD&17
#\XOU.?0CJ3GI6G8ON;QRPb@QBVTYVG[Y^[LbNffQccfffpXjnqpmqx`wvesx}z}{orv{}&36
#\XOU.@0BKF4HM7H9PO<RSQcARCW[XWH\`]\McOhjRddgggqYkoltuxsayyfty~|~qty~&38
#\XOU.A0D2FL5F7NM:PQOa?PAUYXUFZ^]ZKaMfhPbbeeeoWimpmpnu_uvdrwx~{||~orw|&CF
#\XOU.B0BI3FJ6G8K:RMOP?PARCTE[GY^J\\___iQcgilokpY}rrs^lss{twwx}h{k}~puw{~&5D
#\XOU.C0B2FF5F7NM:PQOa?PATW\UFY\aZKaMbbPbbeeeoWimotnmr_twttdryw|~~orx}&25
#\XOU.D0BK3GL6G8ON;QRPb@QBVXYVG[]^[LbNgbQccfffpXjnptqws`ruzesy{~orw|&42
#\XOU.E0DB3GH6G8ON;QRPb@QBUYYVGZ^^[LbNcfQccfffpXjnpsrqp`uesypsy~&92
#\XOU.G0G2FD5F7NM:RMOa?PATX\UFY]aZKaM`bPbbeeeoWimoqoou_vu|dw{{z}{|mp~v{~&19
#\XOU.H0BC3GE6G8ON;RNPb@QBT]WVGYb\[LbNbiQccfffpXjnprtsq`xyzesy~~psy~&76
#\XOU.@@1J3GG6G8ON;QRPb@QBUYYVGZ^^[LbNdcQccfffpXjnplmuo`zs}esy|{|psy~&6A
#\XOU.@A1DF4E6G8I:]MMN?PARCTEYGXI[[^^^hPbfgkhhpXonn]krturyxuvgy~j{l}~qsuw|~&D2
#\XOU.@B1I3FG6G8OL;^NP`@QBTV]VGY[b[LbN`PbbeeeoWimonrmv_tdryy|orw|&E7
#\XOU.@E1DCL5F7H9J;UNNO@QBSDUFZHYJbcbbfPeiiglfW}r~n\joqsux||wzgy{j|}}nsuwy~&DC
#\XOU.@F1DDF5F7H9J;UNNO@QBSDUFZHYJbcbbfPeihhlhW|~sq\joqxwvzu{~gyyj{l}~qsuw|~&3A
#\XOU.@G1DCE5F7H9J;UNNO@QBSDUFZHYJbcbbfPeihheiW|zr\jqtvvsx|yvgyyj{l}~qsuw|~&36
#\XOU.@H1DCH5F7H9J;UNNO@QBSDUFZHYJbcbbfPeigknlWozo\rrqvtzs|ewzhyj{|}~oqsuz|&DD
#\XOU.@I1DCM5GH8I:NN=WPPQBSDUFWH^J[LdeddhRgkhkojYqt^lqvty|z}}xi{|l~qvxz|&67
#\XOU.A@1DDD5F7H9J;UNNO@QBSDUFZHYJbcbbfPeiffeoWhll\jpqvquvz{zgyyj{l}~qsuw|~&07
#\XOU.AA1DCI5F7H9J;UNNO@QBSDUFZHYJbcbbfPeieenlWzms|\jqrtsuvzufxzizk|}~prtv{}&EF
#\XOU.AB1DCK5F7H9J;UNNO@QBSDUFZHYJbcbbfPeidehjW|l\vrotusytewwhyj{|}~oqsuz|&CE
#\XOU.AC1DDG5F7H9J;UNNO@QBSDUFZHYJbcbbfPeickmfWj{lm\nqrptzs|ufx{izk|}~prtv{}&DB
#\XOU.AE1DCG5GK8I:Q<TNQRARCTEVG]I\K\M`cfgfeTnxhzYgmloqpuvzwdvxg~|k|}~pruw|~&4B
#\XOU.AF1B3D5F7H9JKLM>O@QBSDUFWHYJ[L]^_`QbSdUfWhijk\m^o`qbstuvgxizk|m~oq&32
#\XOU.BG1DF4E6G8I:]MMN?PARCTEYGXI[[^^^hPbfgjmgjXzm~]kququw{zxgy}j{l}~qsuw|~&F5
#\XOU.CH1B3D5F7H9JKLM>O@QBSDUFWHYJ[L]^_`QbSdUfWhijk\m^o`qbstuvgxizk|m~oq&36

#NM`a.BHCH3E5F7H9J;L=N?PQRSTUVWHYJ[L&62
#NLPT.AH1CF4EFGK9GRJS>ONQUTD[^]HVcYafN_^afiTgdjnY&02
#NLPT.@ID2DG5FGHL:HNKT?POTV\E\Y^IWdZaeO`_glgUgepnZ&3A
#NLPT.B0BE3DEFJ8FNIM=NMQTXCZW\GUbX^`M^]befSecnlX&BF
#NLPT.@G1D3&0A
#NLPT.@0BE3DEFJ8FKRJO>ONQZTDVW]]IW\\[`gPa`khfVjfjo[&49
#NLPT.@I1CF4EFGK9GLSKR?POTTXE\Y_IWdZdfO`_fejUgepmZ&34
#NLPT.B@1CF4EFGK9GMRKS?QORTWE\__IW\\[ecPc`jimVifls[&61
#NLPT.E0BE3DEFJ8FLQJV>ONSV[DVW]]IW\][_gPb`ilkVjflq[&66
#NLPT.@A1CF4EFGK9GNSKT?QOR\ZEW]XbJX]]\b`QcaffoWngkq\&87
#NLPT.G0BE3DEFJ8FMPJN>ONYX[DVW^YIW\\[bbPc`jkiVjfjl[&5A
#NLPT.AC1C3&06
#NLPT.F0BE3DEFJ8FNKSKT?POSWZEWW^]Z^eeN\ae`egUiejnj[qmlxxa&93
#NLPT.A@I2D4&3B
#NLPT.AAC2D4&36
#NLPT.A@B2D4&34
#NLPT.A@E2D4&37
#NLPT.A@J2E4&3D
#NLPT.AAA2D4&34
#NLPT.A@F2D4&38
#NLPT.A@H2D4&3A
#NLPT.AAD2D4&37

#NMMN.@0>CKHN6JQQN;OUPU@RRUUU_GY[J[L^^OafedjjdghjZk\&8C
#KL_c.@0BFHMGFK8FNPTU>SUAVCUEVG`YZ\L&B2
#KL_c.B0BFIFIGN8FKRNO>SUAVCUEVG`YZ\L&A7
#KL_c.E0BFHJHHN8MNT<QS?TASCTE^WX\J&57
#KL_c.F0BFHGKGG8FNTQT>SUAVCUEVG`YZ^L&B5
#KL_c.G0BFHDEMG8FMRPQ>SUAVCUEVG`YZ^L&AC
#KL_c.@A1CGIKMLJ9GOPRQ?TVBWDVFWHaZ[_M&E1
#KL_c.@G1CGILOKP9GOPO>SUAVCUEVG`YZ\L&B7
#KL_c.@I1CGIMJPL9GNRU>SUAVCUEVG`YZ\L&BD
#KL_c.AC1CGHLIIQ9GPNQ>SUAVCUEVG`YZ^L&AF
#KL_c.AH1CGJIFJQ9GLSO>SUAVCUEVG`YZ\L&AE
#KL_c.B@1CGILKJI9GOONV?TVBWDVFWHaZ[_M&DE
#KL_c.BB1CGIKIMJ9GNTPU?TVBXUWFYHYJc\]aO&4B
#KL_c.@ID2DHEMNQL:HNQRU@UWCXEWGXIb[\^N&1B
#KL_c.A@J2GKHKOI9GMQTP?TVBWDWFWHaZ[_M&E9
#KL_c.A@E2GKIMPQ9RNN=RT@UBUDUF_XY[K&8E
#KL_c.AAD2GKEMOL9LKON>SUAVCVEVG`YZ^L&AF
#KL_c.A@B2GKJJGO9GPPPU?TVBWDWFWHaZ[]M&E1
#KL_c.A@I2GKKINL9GLTUN?TVBWDWFWHaZ[]M&EA
#KL_c.A@H2GKFGJO9KOOS>SUAVCVEVG`YZ^L&B3
#KL_c.AAA2GKHHHJ9GNPQR?TVBWDWFWHaZ[_M&D7
#KL_c.AAC2GKJJNN9GLURT?TVBWDWFWHaZ[]M&EB
#KL_c.A@F2GKGHGH9GPLV>SUAVCVEVG`YZ^L&A6
#KLbg.?0CD3FM6HQL:N<ONW@SSUDWVXHZaK]M`_dQclThfWijZq\onx`ttcvvvgzykmqswz&A3
#KLbg.@0C2EDG6IHL:&5E

#\Qpou/CIF3EHIIL9KOQ=PS@STC][FX]\[^LfghPcjjlUholrZpuvu_uzu|duxzi|nsx}&BB
#NP\U.AF1CDGLMNHIRN<aTSPQRCTEVGXIZKc_aahQxykeV|jm}p]uppv{cwuw}jqw~ɿůɶս&8C
#NP\U.AG1CDGLMNNNOK<aTSPQRCTEVGXIZK^_`curRdzUmm}mj[norqbvvvy~i{{pw~ɶû˴ͻ&0A
#NP\U.AH1CDGLMOIRLP<aTTPQRCTEVGXIZK]f`eqtRdkUjhlj|o\nwoucv~{xj}qw~ȺԱȸ׿&2C
#NP\U.B@1CDGLMOIRLP<aTTPQRCTEVGXIZK^a`eqtRelUxxiqj[nqnpbvtyipv}űʼϾԲѹ&E4
#NLXZ.@I1BC4FNOI9ONQ`RU@UgTWY^Gnm]l\]NpabkdxUznzorq\nwpc|{j}~q&00
#NLXZ.A@1BC4FNOI9OONUVX@UgiY[[Gnm]q\]NpaavdfUhl}rq}\psvcwwyj~}~q&C6
#NLXZ.AA1BC4FNOI9OP^`_S@UgifgjGnm]d\]NpaavchU|{qlpo\sqttcvzjq&71
#NLXZ.AB1BC4FNOI9OQObOR@UgiWW^Gnm]l\]NpabjhkUhoh\~vrc{y{{{j~q&0F
#NLXZ.AC1BC4FNOI9ORQRVV@UgSV]XGnm\p\]NpaavidUkj}irn\vsvvzrcv|jq&F9
#NLXZ.AD1BC4FNOI9OSNOQX@UgSYfVGnm^a\]NpaautwUm{yks\qpwrbtuz}}i|}p&8E
$[AGT],GSET=3
$[AGT],rm,1,rt,7
$[AGT],fgFirstReq:0
$[AGT],bitmap,old: 108,new: 108
$[AGT],inco
$[AGT],srm,1,dsm,4,tp,7,length,12
$[AGT],tp,264,wn,1881,tw,153165,si,12
$[AGT],rm,2
$[AGT],state:7
$[AGT],wn:1881, tw:153165
$[AGT],ergt
$[AGT],
$[AGT],Esgt 1137715200
$[AGT],epegt
$[AGT],gfisiz()
$[AGT],egtEf,1140307200
$Rdon
$[AGT],res,1137781965,sst,1137715200,egsn,1140307200
$[AGT],wk,epo
$[AGT],s,1,m,1
$[AGT],idle
$@#$^ [AGNT] pEd
$[AGT],opmode GLO(1),GEL(0),DB(0)
$[AGT],tw,153165,gs,1137781965
$[AGT],eextd
$[AGT]start verify
$[AGT],gfisiz()
$[AGT]FileType:GPS+GLO
$[AGT],
$[AGT],epegt
$[AGT],gfisiz()
$[AGT],Extract epo done
$[AGT],GSET=3
$[AGT],rm,4,rt,8
$[AGT],inco
$[AGT],srm,4,dsm,4,tp,8,length,12
043295.758,HBD,IF1,MSG,AidEPO,SV,1,path_2NG,ValidEPO,0,u4CurrGpsSecs,1137781965,u4GpsSecs,1137780000,seq,45,NAseq,45,Age_Epo,15,Naage,15,NaValidGEPO,1
043295.758,HBD,IF1,MSG,AidEPO,SV,2,path_2NG,ValidEPO,0,u4CurrGpsSecs,1137781965,u4GpsSecs,1137780000,seq,45,NAseq,45,Age_Epo,15,Naage,15,NaValidGEPO,1
043295.758,HBD,IF1,MSG,AidEPO,SV,3,path_2NG,ValidEPO,0,u4CurrGpsSecs,1137781965,u4GpsSecs,1137780000,seq,45,NAseq,45,Age_Epo,15,Naage,15,NaValidGEPO,1
043295.758,HBD,IF1,MSG,AidEPO,SV,4,path_2NG,ValidEPO,1,u4CurrGpsSecs,1137781965,u4GpsSecs,1137780000,seq,45,NAseq,0,Age_Epo,15,Naage,0,NaValidGEPO,0
043295.758,HBD,IF1,MSG,AidEPO,SV,5,path_2NG,ValidEPO,0,u4CurrGpsSecs,1137781965,u4GpsSecs,1137780000,seq,45,NAseq,45,Age_Epo,15,Naage,15,NaValidGEPO,1
043295.758,HBD,IF1,MSG,AidEPO,SV,6,path_2NG,ValidEPO,0,u4CurrGpsSecs,1137781965,u4GpsSecs,1137780000,seq,45,NAseq,45,Age_Epo,15,Naage,15,NaValidGEPO,1
043295.758,HBD,IF1,MSG,AidEPO,SV,7,path_2NG,ValidEPO,0,u4CurrGpsSecs,1137781965,u4GpsSecs,1137780000,seq,45,NAseq,45,Age_Epo,15,Naage,15,NaValidGEPO,1
043295.758,HBD,IF1,MSG,AidEPO,SV,8,path_2NG,ValidEPO,0,u4CurrGpsSecs,1137781965,u4GpsSecs,1137780000,seq,45,NAseq,45,Age_Epo,15,Naage,15,NaValidGEPO,1
043295.758,HBD,IF1,MSG,AidEPO,SV,9,path_2NG,ValidEPO,0,u4CurrGpsSecs,1137781965,u4GpsSecs,1137780000,seq,45,NAseq,45,Age_Epo,15,Naage,15,NaValidGEPO,1
043295.758,HBD,IF1,MSG,AidEPO,SV,10,path_2NG,ValidEPO,0,u4CurrGpsSecs,1137781965,u4GpsSecs,1137780000,seq,45,NAseq,45,Age_Epo,15,Naage,15,NaValidGEPO,1
043295.758,HBD,IF1,MSG,AidEPO,SV,11,path_2NG,ValidEPO,0,u4CurrGpsSecs,1137781965,u4GpsSecs,1137780000,seq,45,NAseq,45,Age_Epo,15,Naage,15,NaValidGEPO,1
043295.762,HBD,IF1,MSG,AidEPO,SV,12,path_2NG,ValidEPO,0,u4CurrGpsSecs,1137781965,u4GpsSecs,1137780000,seq,45,NAseq,45,Age_Epo,15,Naage,15,NaValidGEPO,1
043295.762,HBD,IF1,MSG,AidEPO,SV,13,path_2NG,ValidEPO,0,u4CurrGpsSecs,1137781965,u4GpsSecs,1137780000,seq,45,NAseq,45,Age_Epo,15,Naage,15,NaValidGEPO,1
043295.762,HBD,IF1,MSG,AidEPO,SV,14,path_2NG,ValidEPO,0,u4CurrGpsSecs,1137781965,u4GpsSecs,1137780000,seq,45,NAseq,45,Age_Epo,15,Naage,15,NaValidGEPO,1
043295.762,HBD,IF1,MSG,AidEPO,SV,15,path_2NG,ValidEPO,0,u4CurrGpsSecs,1137781965,u4GpsSecs,1137780000,seq,45,NAseq,45,Age_Epo,15,Naage,15,NaValidGEPO,1
043295.762,HBD,IF1,MSG,AidEPO,SV,16,path_2NG,ValidEPO,0,u4CurrGpsSecs,1137781965,u4GpsSecs,1137780000,seq,45,NAseq,45,Age_Epo,15,Naage,15,NaValidGEPO,1
043295.762,HBD,IF1,MSG,AidEPO,SV,17,path_2NG,ValidEPO,0,u4CurrGpsSecs,1137781965,u4GpsSecs,1137780000,seq,45,NAseq,45,Age_Epo,15,Naage,15,NaValidGEPO,1
043295.762,HBD,IF1,MSG,AidEPO,SV,18,path_2NG,ValidEPO,0,u4CurrGpsSecs,1137781965,u4GpsSecs,1137780000,seq,45,NAseq,45,Age_Epo,15,Naage,15,NaValidGEPO,1
043295.762,HBD,IF1,MSG,AidEPO,SV,19,path_2NG,ValidEPO,0,u4CurrGpsSecs,1137781965,u4GpsSecs,1137780000,seq,45,NAseq,45,Age_Epo,15,Naage,15,NaValidGEPO,1
043295.762,HBD,IF1,MSG,AidEPO,SV,20,path_2NG,ValidEPO,0,u4CurrGpsSecs,1137781965,u4GpsSecs,1137780000,seq,45,NAseq,45,Age_Epo,15,Naage,15,NaValidGEPO,1
043295.762,HBD,IF1,MSG,AidEPO,SV,21,path_2NG,ValidEPO,0,u4CurrGpsSecs,1137781965,u4GpsSecs,1137780000,seq,45,NAseq,45,Age_Epo,15,Naage,15,NaValidGEPO,1
043295.762,HBD,IF1,MSG,AidEPO,SV,22,path_2NG,ValidEPO,0,u4CurrGpsSecs,1137781965,u4GpsSecs,1137780000,seq,45,NAseq,45,Age_Epo,15,Naage,15,NaValidGEPO,1
043295.762,HBD,IF1,MSG,AidEPO,SV,23,path_2NG,ValidEPO,0,u4CurrGpsSecs,1137781965,u4GpsSecs,1137780000,seq,45,NAseq,45,Age_Epo,15,Naage,15,NaValidGEPO,1
043295.762,HBD,IF1,MSG,AidEPO,SV,24,path_2NG,ValidEPO,0,u4CurrGpsSecs,1137781965,u4GpsSecs,1137780000,seq,45,NAseq,45,Age_Epo,15,Naage,15,NaValidGEPO,1
043295.762,HBD,IF1,MSG,AidEPO,$[AGT],tp,264,wn,1881,tw,153165,si,12
$[AGT],rm,3
$[AGT],state:6
$[AGT],wn:1881,tw:153165
$[AGT],BGAI
$[AGT],0,av:72,b_sky:0
$[AGT],1,av:82,b_sky:0
$[AGT],2,av:118,b_sky:0
$[AGT],3,av:0,b_sky:1
$[AGT],4,av:82,b_sky:0
$[AGT],5,av:82,b_sky:0
$[AGT],6,av:72,b_sky:0
SV,25,path_2NG,ValidEPO,0,u4CurrGpsSecs,1137781965,u4GpsSecs,1137780000,seq,45,NAseq,45,Age_Epo,15,Naage,15,NaValidGEPO,1
$[AGT],7,av:72,b_sky:0
043295.766,HBD,IF1,MSG,AidEPO,$[AGT],8,av:70,b_sky:0
$[AGT],9,av:66,b_sky:0
$[AGT],10,av:72,b_sky:0
$[AGT],11,av:114,b_sky:0
$[AGT],12,av:0,b_sky:0
$[AGT],13,av:66,b_sky:0
SV,26,path_2NG,ValidEPO,0,u4CurrGpsSecs,1137781965,u4GpsSecs,1137780000,seq,45,NAseq,45,Age_Epo,15,Naage,15,NaValidGEPO,1
$[AGT],14,av:112,b_sky:0
$[AGT],15,av:70,b_sky:0
$[AGT],16,av:70,b_sky:0
$[AGT],17,av:64,b_sky:0
$[AGT],18,av:88,b_sky:0
$[AGT],19,av:82,b_sky:0
$[AGT],20,av:68,b_sky:0
$[AGT],21,av:70,b_sky:0
$[AGT],22,av:120,b_sky:0
$[AGT],23,av:62,b_sky:0
$[AGT],24,av:66,b_sky:0
$[AGT],25,av:70,b_sky:0
$[AGT],26,av:70,b_sky:0
$[AGT],27,av:88,b_sky:0
$[AGT],28,av:116,b_sky:0
$[AGT],29,av:70,b_sky:0
$[AGT],30,av:68,b_sky:0
$[AGT],31,av:116,b_sky:0
043295.770,HBD,IF1,MSG,AidEPO,$[AGT],Eend:1, Send:1, ct:0
$[AGT],state:4
$[AGT],wkssi
$[AGT],s,1,m,3
$[AGT],idle
$[AGT],clear epo req
SV,27,path_2NG,ValidEPO,0,u4CurrGpsSecs,1137781965,u4GpsSecs,1137780000,seq,45,NAseq,45,Age_Epo,15,Naage,15,NaValidGEPO,1
043295.770,HBD,IF1,MSG,AidEPO,SV,28,path_2NG,ValidEPO,0,u4CurrGpsSecs,1137781965,u4GpsSecs,1137780000,seq,45,NAseq,45,Age_Epo,15,Naage,15,NaValidGEPO,1
043295.770,HBD,IF1,MSG,AidEPO,SV,29,path_2NG,ValidEPO,0,u4CurrGpsSecs,1137781965,u4GpsSecs,1137780000,seq,45,NAseq,45,Age_Epo,15,Naage,15,NaValidGEPO,1
043295.770,HBD,IF1,MSG,AidEPO,SV,30,path_2NG,ValidEPO,0,u4CurrGpsSecs,1137781965,u4GpsSecs,1137780000,seq,45,NAseq,45,Age_Epo,15,Naage,15,NaValidGEPO,1
043295.770,HBD,IF1,MSG,AidEPO,SV,31,path_2NG,ValidEPO,0,u4CurrGpsSecs,1137781965,u4GpsSecs,1137780000,seq,45,NAseq,45,Age_Epo,15,Naage,15,NaValidGEPO,1
043295.770,HBD,IF1,MSG,AidEPO,SV,32,path_2NG,ValidEPO,2,u4CurrGpsSecs,1137781965,u4GpsSecs,1137780000,seq,45,NAseq,0,Age_Epo,15,Naage,0,NaValidGEPO,0
$[AGT],GSET=4
$[AGT],rm,6,rt,3
$[AGT],receive pmtk
$PMTK015,43296016,4,4736,PMTK290,1,1,0*2C
$PMTK730,0,0,0,1,0,0,0,0,1*2A
$PMTK015,43296016,4,4736,PMTK730,0,0,0,1,0,0,0,0,1*23
$PMTK001,290,3*3B
043296.113,HBD,IF1,TIM,DSP,u1ChnNum,37,u2DataSize,57
043296.113,HBD,IF1,COM,BinDecX,65065
043296.113,HBD,IF1,GPS,TkDltIn,3826,4465,639
$[AGT],GSET=4
$[AGT],rm,6,rt,3
$[AGT],receive pmtk
043296.113,HBD,IF1,TIM,NWloc,fgfirstUseNW,0,case,0,NWAID,0,NWUSE,0
043296.113,HBD,IF1,AGP,BOOST,Posdiff:1.530385,0.219622,num:7,PosConverge,1,BoostRemT,15.185
$Boost, flag on*64
$LOC_Cache_BIT,00000000*7F
043296.113,HBD,IF1,AGP,AGPSMGN,Posdiff:1.530385,0.219622,num:0,PosConverge,0,AGPSRemT,15.904
043296.113,HBD,IF1,TIM,NWloc,Core_Save,fgHaveNWloc,1,fgHaveSaved,0
043296.113,HBD,IF1,TIM,NWloc,NWloc_match,0,oldest_gpssec_index,2,num_NV_NWlocData,6
043296.113,HBD,IF1,TIM,NWloc,Core_Save,NV_index,0,fgUsage,1

#MZYQ.AE1I3&21

#XPda.DHCH3&54

#MZYQ.C@1C3&18

#MZYQ.@B1CIWF6H8\OPT=&17

#MZYQ.AH1HG4&57
043296.113,HBD,IF1,AGP,AGPSMGN,AGPSMode:3,AGPSTimer:0.097
$PMTK015,43296113,10,4826,AMode,3,ATimer,0.097,Remain,15.903*41
043296.113,HBD,IF1,AGP,AGPSMGN,DOP.H :0.865588,PosCon:0,[14.561969,10.469990,2.656828]
$PMTK013,4826,INF,TA,ENTRY,TS,10,TOW,153166.001000000,CB,0.000441330,AGPSM,1*3C
$PMTK013,4826,INF,TA,CTk,4826,CPage,6,CSF,3,CSFT,4.001,SFNumSent,0*61
$PMTK013,4826,INF,TA,NPage,6,NSF,4,NSFTow,153168.000000000,NZCNT,25529,NSFTk,6825*7C
$PMTK013,4826,INF,TA,TAEnableList*7A
$PMTK015,43296113,5,4826,TA_Aiding*64
$PMTK015,43296113,6,4826,NACQ,9,NBS,9,NSFS,0,NEXS,0*67
$HBD,INF,RTC,F,0,Y,16,M,1,D,25,H,18,M,32,Sec,28,Sub,30889,T,4818,SM,8520*31
$DBts1,TSOK,0,WNSet,1,TOWS,10,WN,1881,BAcc,10.995,TAcc,211052.969,*53
$DBts2,TTK,4826,TOW,153166.001000000,B,0.000441330,D,0.000001208,*05
043296.113,HBD,IF1,GPS,UpdtNVS,
043296.113,HBD,IF1,GPS,NVFile,Opened
043296.113,HBD,IF1,GPS,UpdtNVC,
043296.113,HBD,IF1,GPS,UpdtNVE,
043296.117,HBD,IF1,ALO,CdmPvtU,
$HBD,INF,RTC,F,0,Y,16,M,1,D,25,H,18,M,32,Sec,28,Sub,30889,T,4818,SM,8520*31
$GNGGA,183229.000,2458.5432,N,12119.6797,E,1,10,0.87,92.2,M,15.0,M,,*4C
$GPGSA,A,3,28,193,03,01,19,30,06,11,08,07,,,1.18,0.87,0.81*3D
$GLGSA,A,3,,,,,,,,,,,,,1.18,0.87,0.81*10
$GPGSV,4,1,13,28,67,328,30.3,193,65,116,33.0,03,51,091,34.2,17,37,320,*55
$GPGSV,4,2,13,01,36,034,27.4,19,33,313,32.1,30,30,220,27.9,11,26,050,25.5*79
$GPGSV,4,3,13,06,26,245,25.3,32,24,055,,07,14,191,20.0,08,08,090,27.8*6D
$GPGSV,4,4,13,23,02,136,*4C
$GLGSV,3,1,9,75,47,283,,85,39,342,,74,38,205,,70,34,124,*5C
$GLGSV,3,2,9,69,25,059,,84,24,041,,86,16,289,,76,10,329,*54
$GLGSV,3,3,9,71,08,170,*64
$GNRMC,183229.000,A,2458.5432,N,12119.6797,E,0.427,254.09,250116,,,A*47
$GNVTG,254.09,T,,M,0.427,N,0.791,K,A*27
$GNACCURACY,4.2*10
$PMTKDGP,0*4D
$PMTKDBG,4826,0,1,0,1,0,0,0,1,0,0,0,0,0,0,0,0,0,0,1,1,1,1,1,0,0,0,0,0,0,0,0,1,0001,0035,0002,0010,0010,0000,0000,0000,0.0000,1.2078,0.0000,0.0000,0.0000,0.0000,*43
$PMTKDB2,0C1C,0000,0000,0000,0000,0000,0000,0700,0017.94,0000.00,12078.77,211052.96,0000.37,0441.33,00-0.02,0000.00,*3B
$PMTKEPH,41,1,3,6,7,8,9,11,16,17,19,22,23,26,27,28,30,-32.0.1,193,-65.2.4,-66.2.4,-67.2.4,-68.2.4,-69.2.4,-70.2.4,-71.2.4,-72.2.4,-73.2.4,-74.2.4,-75.2.4,-76.2.4,-77.2.4,-78.2.4,-79.2.4,-80.2.4,-82.2.4,-83.2.4,-84.2.4,-85.2.4,-86.2.4,-87.2.4,-88.2.4*6E
$PMTKALM,32,1,2,3,5,6,7,8,9,10,11,12,13,14,15,16,17,18,19,20,21,22,23,24,25,26,27,28,29,30,31,32,193*51

#WXM[.?0A2C4E6G8I:K<M>O@QBSDUFWHYJ[L]N_PaRcTeVgXiZk\m^o`qbsdufwhyj{l}npy&39

#NM^Z.BB1FKFK6H8JKM<NNT@QBSD&19
#\XOU.?0CJ3GH6G8ON;QRPb@QBV[]VG[`b[LbNbiQccffggXromqpw_sdrw{~{}nquz|&1F
#\XOU.@0BKF4HL7H9PO<RSQcARCX[XWH]`]\McOeaRddgghhYrtrowp`xesx~|}psy~&17
#\XOU.A0D2FK5F7NM:PQOa?PAVYXUF[^]ZKaMc_PbbeeffWqnjtms^rtwucqvw}|nqv{~&88
#\XOU.B0BI3D5F7H9\LLM>O@QBSDXFWHZZ]]^^OiehggmVjh{s[iowrvqsu|ex|hz|m~rtvx}&26
#\XOU.C0B2FE5F7NM:QQOa?PAUU\UFZZaZKaMa_PbbeeffWqmqrln^squcqxv{{|~nqw|~&D5
#\XOU.D0BK3GJ6G8ON;QRPb@QBWXUVG\]Z[LbNceQccffggXrnquvr_vyudrx~~{~nqv{~&52
#\XOU.E0DB3GF6G8ON;RRPb@QBVW]VG[\b[LbNafQccffggXrnqlow_rtwdrx~|||~orx}&3D
#\XOU.G0G2EL5F7NM:RMOa?PAUV\UFZ[aZKaM_`PbbeeffWqmnsnt^uwcvz{yz{lo}uz}&CC
#\XOU.H0BC3FN6G8ON;TNPb@QBU[YVGZ`^[LbN`dQccffggXrnpnqw_xdrx}}~~orx}&D3
#\XOU.@@1J3GF6G8OK;QRPb@QBVV[VG[[`[LbNaiQccffggXrmsqsv_wqyudrx{{{}}orx}&53
#\XOU.@A1DF4M6G8LL;^NNO@QBSDUF\HYJ\\__``QkfimikXk}r]krvxwwu}~gy~j|~}nsuwy~&76
#\XOU.@B1I3FH6G8ON;UNP`@QBUY[VGZ^`[LbNbPbbeeffWqmlllr^wvqcqxx{z~nqw|~&A5
#\XOU.@E1DCL5F7H9J;UNNO@QBSDUFZHYJbcbbgPeiiglfWnps\joqssrzz}vgy{j|}}nsuwy~&C8
#\XOU.@F1DDF5F7H9J;UNNO@QBSDUFZHYJbcbbgPeihhlhWnj|l\joqxrz{xv|gyyj{l}~qsuw|~&19
#\XOU.@G1DCE5F7H9J;UNNO@QBSDUFZHYJbcbbgPeihhehWlojk\jqtvts|vxxgyyj{l}~qsuw|~&FC
#\XOU.@H1DCH5F7H9J;UNNO@QBSDUFZHYJbcbbgPeigknlWllsr\rrtrv{xvewzhyj{|}~oqsuz|&C5
#\XOU.@I1DCM5GH8I:LP=`PRSBSDUFWH^J\LdeddiRgkhkoiY}k~^lqvttzzxx~i{lqvx{}&C2
#\XOU.A@1DDD5F7H9J;UNNO@QBSDUFZHYJbcbbgPeiffemW}qm\jpquxrx}}zgyyj{l}~qsuw|~&29
#\XOU.AA1DCI5F7H9J;UNNO@QBSDUFZHYJbcbbgPeieenlW|osr\jqrsvy{vyfxzizk|}~prtv{}&F5
#\XOU.AB1DCK5F7H9J;UNNO@QBSDUFZHYJbcbbgPeidehjWomqn\vrppzx|zewwhyj{|}~oqsuz|&B4
#\XOU.AC1DDG5F7H9J;UNNO@QBSDUFZHYJbcbbgPeickmgWymno\nqrqquyu{fx{izk|}~prtv{}&E0
#\XOU.AE1DCG5HH8I:O<TNQRARCTEVG]I^K\MadicdeTnw|yYnnmvootqbtyesyyj{|}oqtv{}&3C
#\XOU.AF1DCF5F7H9J;SMNO@QBSDUFZHYJ[L_^eaijSwgfkXflpqppwrvxcuxfwhyz{|m~oqsxz}&34
#\XOU.BG1EE4E6G8I:]LMN?PARCTEYGXI[[^^__PjfggimWjlkl\jpsyzwwwuzgzzj{l}~qsuw|~&C6
#\XOU.CH1B3D5F7H9JKLM>O@QBSDUFWHYJ[L]^_`QbSdUfWhijk\m^o`qbstuvgxizk|m~oq&36

#NM`a.CHCH3E5F7H9J;L=N?PQRSTUVWHYJ[L&63
#NLPT.AH1CF4EFGK9GPJN>ONQTSD[^]HVcYddN_^bbcThdioY&F2
#NLPT.@ID2DG5FGHL:HMKV?POR[YEZ[]IW\\[`_Pa`ceiVhfln[&47
#NLPT.B0BE3DEFJ8FLIR=NMPWUCXY[GUZZY`^N_^aflTfdjlY&E3
#NLPT.@G1C3&09
#NLPT.@0BE3DEFJ8FKTJM>ONRX\DVW]]IW\\[ccPa`cmjVkflr[&56
#NLPT.@I1CF4EFGK9GLQKQ?POS[XE[W^IW\\[_fPa`fgfVifir[&4C
#NLPT.B@1CF4EFGK9GMOKV?POVTYEWX^^JXe[efPa`ddeVkfmk[&4F
#NLPT.E0BE3DEFJ8FLOJS>ONQYVDYWW\[JX]^\``QbahnnWilhku]&B3
#NLPT.@A1CF4EFGK9GNTKO?POR\]E_\X_`KY^_]`dRcbfmnXjliqo^&EF
#NLPT.G0BE3DEFJ8FMQJU>PNRZXDVZ^YIW\][_gPb`dfgVofoq[&62
#NLPT.AC1D3&07
#NLPT.F0BE3DEFJ8FNLMKU?POSXUEWW`^Z`c]N\ab`jhUfelpk[oqltva&87
#NLPT.A@I2D4&3B
#NLPT.AAC2D4&36
#NLPT.A@B2D4&34
#NLPT.A@E2D4&37
#NLPT.A@J2E4&3D
#NLPT.AAA2D4&34
#NLPT.A@F2D4&38
#NLPT.A@H2D4&3A
#NLPT.AAD2D4&37

#NMMN.@0>CLDG6JQOS;PUPU@RRUUVVGY[J[L^^OafedjkdghjZk\&7F
#KL_c.@0JFJKEG7EMPON=QO@UBTDUF_XY[K&76
#KL_c.B0JGCMFL7EJQRR=QO@UBTDUF_XY[K&7F
#KL_c.E0JFGLGM7KRR;OM>S@RBSD]VW[I&2A
#KL_c.F0JFEEEL7ENJKU=QO@UBTDUF_XY]K&76
#KL_c.G0JEKIKN7ELQTU=QO@UBTDUF_XY]K&96
#KL_c.@A1KGIGJP8FNPLU>RPAVCUEVG`YZ^L&AF
#KL_c.@G1KGJIJO8FNTP=QO@UBTDUF_XY[K&85
#KL_c.@I1KGJNOK8FNML=QO@UBTDUF_XY[K&82
#KL_c.AC1KFIMHO8FORU=QO@UBTDUF_XY]K&88
#KL_c.AH1KHFJIP8FLMP=QO@UBTDUF_XY[K&7C
#KL_c.B@1KGJEHP8FNNRV>RPAVCUEVG`YZ^L&B2
#KL_c.BB1KGHMLG8FMSUP>RPAVYDWFWHaZ[_M&ED
#KL_c.@ID2KMKHPI9GMPVW?SQBWDVFWHaZ[]M&F1
#KL_c.A@J2GKHKOH9GMROV?SQBWDWFWHaZ[_M&E4
#KL_c.A@E2GKIMPQ9QRS=QO@UBUDUF_XY[K&90
#KL_c.AAD2GKEMOL9KTST>RPAVCVEVG`YZ^L&BB
#KL_c.A@B2GKJJGN9GPPUW?SQBWDWFWHaZ[]M&E1
#KL_c.A@I2GKKINK9GLUPP?SQBWDWFWHaZ[]M&E1
#KL_c.A@H2GKFGJP9KNTO>RPAVCVEVG`YZ^L&AE
#KL_c.AAA2GKHHHI9GNPVW?SQBWDWFWHaZ[_M&DA
#KL_c.AAC2GKJJNM9GMLNN?SQBWDWFWHaZ[]M&D2
#KL_c.A@F2GKGHGH9GPRN>RPAVCVEVG`YZ^L&9E
#KLbg.?0CD3FM6HQL:N<ONW@SSUDWVXHZaK]M`_dQclThfWijZq\onx`ttcvvvgzykmqswz&A3
#KLbg.@0C2EDG6IHL:&5E

#\Qpou/D1CGFKK7H9J;L=N?QV[VXEXZ`I[[\`NhfiRhhnfWmmsr\mpatzfz|~k|puz&FD
#NP\U.BC1CDGLMNNMNS<aTUPQVC\UVWXYJ[L]NueQttfi{xXjjlpt^x{exlryơķȨϽЮص˼&4B
#NLXZ.AE1BC4FNOI9OTNVQS@UgT[]iGnm`\\]NpaauffUwpkzlp\nrcwvxj~q&06
#NLXZ.AF1BC4FNOI9O\LSRQ@UgSfi[Gnm_[\]NpaavfyUwo~k{s\vtqzcy~}j}q&39
#NLXZ.AG1BC4FNOI9O]MVSX@UgTUi_Gnm]b\]NpaaulyUzjznmp\uuxwvbxywxi{|o&50
#NLXZ.AH1BC4FNOI9O^]Pb`@UgTi^iGnm`d\]NpaautzUwzkpjm\vuc{}yj}}~q&4A
#NLXZ.AI1BC4FNOI9O_LUR`@UgTYh\Gnm]n\]NpaauleUzmiz~m\vpvsxc|{x|j}~q&CC
#NLXZ.B@1BC4FNOI9O`La_W@UgS[[YGnm^d\]NpaauveUnhnllt\tssyzcx{j|}p&A0
$[AGT],GSET=4
$[AGT],rm,1,rt,7
$[AGT],fgFirstReq:0
$[AGT],bitmap,old: 108,new: 108
$PMTK015,43296117,4,4826,PMTK712,1881,153165.920000,3000.000,0,0,0,0.000*3E
$[AGT],fsm,wm,3
$[AGT],skip
$AGPS,4826,TimeCompensate,0.900,WN,1881,TOW,153166.820000*7D
Use_New_Time,0,count,1,819,12003,Local,1881,153166.001000 &33
TimeSetOK,0,WeekNO,1881,TOW,153166.820000,RMS,3.000000,TTick,4826 &86
SetNATime,1137781966 &54
$PMTK001,712,3*34
$[AGT],GSET=4
$[AGT],rm,6,rt,3
$[AGT],receive pmtk
$PMTK015,43296118,4,4826,PMTK710,01,001000,000000,000000,000000,00000B,0726AB,000008,015130,07F431,2DF249,017AE2,F5A002,8F6A8B,15A8A1,0D4AB3,26AB7C,FFDAFE,DA3BE1,003027,4803FE,168B13,4DA041,FFA986,07FB8C*10
#DEPH 1 1137781466 1000 0 0 0 B 726AB 8 15130 7F431 2DF249 17AE2 F5A002 8F6A8B 15A8A1 D4AB3 26AB7C FFDAFE DA3BE1 3027 4803FE 168B13 4DA041 FFA986 7FB8C &49
$PMTK001,710,3*36
$[AGT],GSET=4
$[AGT],rm,6,rt,3
$[AGT],receive pmtk
$PMTK015,43296119,4,4826,PMTK710,03,001000,000000,000000,000000,000004,3826AC,00FFD4,FDDE1C,380501,32DCBA,8EE7C2,03E900,27C581,13BAA1,0E3CE2,26AC7C,FFFC29,41421D,001627,13B501,190577,06057E,FFA85D,381B54*18
#DEPH 3 1137781466 1000 0 0 0 4 3826AC FFD4 FDDE1C 380501 32DCBA 8EE7C2 3E900 27C581 13BAA1 E3CE2 26AC7C FFFC29 41421D 1627 13B501 190577 6057E FFA85D 381B54 &66
$PMTK001,710,3*36
$[AGT],GSET=4
$[AGT],rm,6,rt,3
$[AGT],receive pmtk
$PMTK015,43296120,4,4836,PMTK710,06,001000,000000,000000,000000,000009,5426AC,000036,11B244,54F20E,2CCD79,C02C1B,F40B00,216F04,16C7A1,0D1216,26AC7C,0006FE,8221A1,001127,4671EB,1554A3,6627AE,FFAA42,54FB9C*6C
#DEPH 6 1137781466 1000 0 0 0 9 5426AC 36 11B244 54F20E 2CCD79 C02C1B F40B00 216F04 16C7A1 D1216 26AC7C 6FE 8221A1 1127 4671EB 1554A3 6627AE FFAA42 54FB9C &5F
$PMTK001,710,3*36
$[AGT],GSET=4
$[AGT],rm,6,rt,3
$[AGT],receive pmtk
$PMTK015,43296121,4,4836,PMTK710,07,001000,000000,000000,000000,0000E8,2826AC,00FFF3,3DE930,28012A,2E9D2C,B77C88,017104,A0B782,182EA1,0D743C,26AC7C,00107F,925394,003527,719443,144092,C24BD1,FFA9B4,28E5E8*6B
#DEPH 7 1137781466 1000 0 0 0 E8 2826AC FFF3 3DE930 28012A 2E9D2C B77C88 17104 A0B782 182EA1 D743C 26AC7C 107F 925394 3527 719443 144092 C24BD1 FFA9B4 28E5E8 &19
$PMTK001,710,3*36
$[AGT],GSET=4
$[AGT],rm,6,rt,3
$[AGT],receive pmtk
$PMTK015,43296121,4,4836,PMTK710,08,001000,000000,000000,000000,00000A,2924EA,00FFF3,FD3284,29FB05,34A4A7,39E3C8,FBE400,E779B8,0256A1,0D176A,24EA7C,0003D3,B1F8F0,000327,2F9C0E,2CA2C5,42B420,FFA2AF,29FD14*64
#DEPH 8 1137781466 1000 0 0 0 A 2924EA FFF3 FD3284 29FB05 34A4A7 39E3C8 FBE400 E779B8 256A1 D176A 24EA7C 3D3 B1F8F0 327 2F9C0E 2CA2C5 42B420 FFA2AF 29FD14 &0C
$PMTK001,710,3*36
$[AGT],GSET=4
$[AGT],rm,6,rt,3
$[AGT],receive pmtk
$PMTK015,43296122,4,4836,PMTK710,09,001000,000000,000000,000000,000003,5A24EA,000044,0782CC,5AFE0B,394574,C55E5A,FE9300,4FBBCB,09A6A1,0D1F2B,24EA7C,001B53,ACE880,FFFF26,ECB960,24084D,4DC9ED,FFA3E3,5AF74C*18
#DEPH 9 1137781466 1000 0 0 0 3 5A24EA 44 782CC 5AFE0B 394574 C55E5A FE9300 4FBBCB 9A6A1 D1F2B 24EA7C 1B53 ACE880 FFFF26 ECB960 24084D 4DC9ED FFA3E3 5AF74C &B9
$PMTK001,710,3*36
$[AGT],GSET=4
$[AGT],rm,6,rt,3
$[AGT],receive pmtk
$PMTK015,43296123,4,4836,PMTK710,0B,001000,000000,000000,000000,0000E6,5126AC,00FFEF,AD8C34,51F0BB,41DC31,86DBFE,F23F08,4E2DEE,0DF2A1,0D392C,26AC7C,FF70EF,DAD9DC,FF6B24,7F37C1,1B7F3C,F44D43,FF9CF1,51F56C*6D
#DEPH 11 1137781466 1000 0 0 0 E6 5126AC FFEF AD8C34 51F0BB 41DC31 86DBFE F23F08 4E2DEE DF2A1 D392C 26AC7C FF70EF DAD9DC FF6B24 7F37C1 1B7F3C F44D43 FF9CF1 51F56C &A9
$PMTK001,710,3*36
$[AGT],GSET=4
$[AGT],rm,6,rt,3
$[AGT],receive pmtk
$PMTK015,43296124,4,4836,PMTK710,10,000100,000000,000000,000000,0000EA,7224EA,00001C,FA1018,720E46,29579D,CDEAF2,0C4704,52B910,0DDFA1,0D9197,24EA7C,FFF9AC,0F83EC,FFF228,5D8AB6,21E10C,EAD030,FFAB40,721230*6B
#DEPH 16 1137781466 100 0 0 0 EA 7224EA 1C FA1018 720E46 29579D CDEAF2 C4704 52B910 DDFA1 D9197 24EA7C FFF9AC F83EC FFF228 5D8AB6 21E10C EAD030 FFAB40 721230 &DA
$PMTK001,710,3*36
$[AGT],GSET=4
$[AGT],rm,6,rt,3
$[AGT],receive pmtk
$PMTK015,43296124,4,4836,PMTK710,11,001000,000000,000000,000000,0000E9,1E26AC,00FFF9,E5D9A4,1EF940,3042A0,D6B9D3,FA5105,9C060E,033EA1,0D05B0,26AC7C,0032D5,C49A20,FFD927,B90954,2C9CB0,294BF4,FFA6C0,1EFC10*1C
#DEPH 17 1137781466 1000 0 0 0 E9 1E26AC FFF9 E5D9A4 1EF940 3042A0 D6B9D3 FA5105 9C060E 33EA1 D05B0 26AC7C 32D5 C49A20 FFD927 B90954 2C9CB0 294BF4 FFA6C0 1EFC10 &67
$PMTK001,710,3*36
$[AGT],GSET=4
$[AGT],rm,6,rt,3
$[AGT],receive pmtk
$PMTK015,43296125,4,4836,PMTK710,13,001000,000000,000000,000000,0000DF,6926AC,00FFFF,BB3D9C,69F933,31AB2F,F20855,FA5205,C58EB8,04BEA1,198212,26AC7C,FF9ED7,C483DE,001727,9AE4BD,2B601B,7AD271,FFA3D2,69F184*1A
#DEPH 19 1137781466 1000 0 0 0 DF 6926AC FFFF BB3D9C 69F933 31AB2F F20855 FA5205 C58EB8 4BEA1 198212 26AC7C FF9ED7 C483DE 1727 9AE4BD 2B601B 7AD271 FFA3D2 69F184 &EA
$PMTK001,710,3*36
$[AGT],GSET=4
$[AGT],rm,6,rt,3
$[AGT],receive pmtk
$PMTK015,43296126,4,4836,PMTK710,1B,000000,000000,000000,000000,000003,2224EA,00001F,076E40,22FB20,321377,10E328,FC0501,94E48B,035BA1,0D0786,24EA7C,FFEFD3,C3E6CA,FFDF27,83E901,2C4008,884F13,FFA453,22FDC4*16
#DEPH 27 1137781466 0 0 0 0 3 2224EA 1F 76E40 22FB20 321377 10E328 FC0501 94E48B 35BA1 D0786 24EA7C FFEFD3 C3E6CA FFDF27 83E901 2C4008 884F13 FFA453 22FDC4 &01
$PMTK001,710,3*36
$[AGT],GSET=4
$[AGT],rm,6,rt,3
$[AGT],receive pmtk
$PMTK015,43296127,4,4836,PMTK710,1C,001000,000000,000000,000000,0000E9,1926AC,000017,4141B4,190F4F,2951BF,2EB399,0DD10A,3F58BB,0D71A1,0D0897,26AC7C,0060AC,44133C,010328,4FB3F8,2235BD,B16891,FFAA09,190B84*6E
#DEPH 28 1137781466 1000 0 0 0 E9 1926AC 17 4141B4 190F4F 2951BF 2EB399 DD10A 3F58BB D71A1 D0897 26AC7C 60AC 44133C 10328 4FB3F8 2235BD B16891 FFAA09 190B84 &FC
$PMTK001,710,3*36
$[AGT],GSET=4
$[AGT],rm,6,rt,3
$[AGT],receive pmtk
$PMTK015,43296128,4,4836,PMTK710,1E,001000,000000,000000,000000,000007,2426AC,000028,0BA180,2401FE,30CB2E,B785C5,01D000,DA7A9A,18D2A1,0D3863,26AC7C,001681,70BE4A,FFE026,DD5DF4,11FB7C,628CA9,FFA8FA,24E98C*67
#DEPH 30 1137781466 1000 0 0 0 7 2426AC 28 BA180 2401FE 30CB2E B785C5 1D000 DA7A9A 18D2A1 D3863 26AC7C 1681 70BE4A FFE026 DD5DF4 11FB7C 628CA9 FFA8FA 24E98C &6D
$PMTK001,710,3*36
$[AGT],GSET=4
$[AGT],rm,6,rt,3
$[AGT],receive pmtk
$PMTK015,43296129,4,4836,PMTK711,01,59,412901,4E0E13,FD4E00,A10CDC,FECCB9,134ABF,066F64,01000C*40
$PMTK001,711,3*37
$[AGT],GSET=4
$[AGT],rm,6,rt,3
$[AGT],receive pmtk
$PMTK015,43296129,4,4836,PMTK711,02,59,427DA8,4E0032,FD3E00,A10D46,FD0D76,A7494D,1AF3CF,4E0014*36
$PMTK001,711,3*37
$[AGT],GSET=4
$[AGT],rm,6,rt,3
$[AGT],receive pmtk
$PMTK015,43296130,4,4846,PMTK711,03,59,430275,4E0AE0,FD5A00,A10DDA,2933E7,77E513,76F10E,FDFFF8*4F
$PMTK001,711,3*37
$[AGT],GSET=4
$[AGT],rm,6,rt,3
$[AGT],receive pmtk
$PMTK015,43296130,4,4846,PMTK711,05,59,452594,4E027B,FD4C00,A10D5D,28C889,13C808,7E69B6,EC0024*3D
$PMTK001,711,3*37
$[AGT],GSET=4
$[AGT],rm,6,rt,3
$[AGT],receive pmtk
$PMTK015,43296131,4,4846,PMTK711,06,59,460222,4E0DF9,FD4E00,A10CA2,FE74A1,A47038,360CE2,11005C*3D
$PMTK001,711,3*37
$[AGT],GSET=4
$[AGT],rm,6,rt,3
$[AGT],receive pmtk
$PMTK015,43296132,4,4846,PMTK711,07,59,474A10,4E10A6,FD5500,A10D08,7F84FC,92C78A,EA01F4,3D001C*4A
$PMTK001,711,3*37
$[AGT],GSET=4
$[AGT],rm,6,rt,3
$[AGT],receive pmtk
$PMTK015,43296133,4,4846,PMTK711,08,59,480E86,4E0C96,FD3000,A10CAA,D3A319,C56C2F,8F3100,FD0004*4E
$PMTK001,711,3*37
$[AGT],GSET=4
$[AGT],rm,6,rt,3
$[AGT],receive pmtk
$PMTK015,43296134,4,4846,PMTK711,09,59,490506,4E0866,FD3600,A10CB2,539E2D,4CE73F,5D4C00,070054*4F
$PMTK001,711,3*37
$[AGT],GSET=4
$[AGT],rm,6,rt,3
$[AGT],receive pmtk
$PMTK015,43296134,4,4846,PMTK711,0A,59,4A08B7,4E0B0C,FD5900,A10D1C,29090E,885C2B,B168E1,06FFEC*30
$PMTK001,711,3*37
$[AGT],GSET=4
$[AGT],rm,6,rt,3
$[AGT],receive pmtk
$PMTK015,43296135,4,4846,PMTK711,0B,59,4B84EB,4EE186,FD0600,A10CA6,EFCBB0,3CFDDB,EED416,AD0010*3B
$PMTK001,711,3*37
$[AGT],GSET=4
$[AGT],rm,6,rt,3
$[AGT],receive pmtk
$PMTK015,43296135,4,4846,PMTK711,0C,59,4C2F3A,4E1F25,FD6A00,A10C02,AB3E4C,1A4346,DB4409,2F0038*48
$PMTK001,711,3*37
$[AGT],GSET=4
$[AGT],rm,6,rt,3
$[AGT],receive pmtk
$PMTK015,43296136,4,4846,PMTK711,0D,59,4D2637,4E1333,FD4400,A10D00,58766B,50F274,10DDEF,E8FFE8*42
$PMTK001,711,3*37
$[AGT],GSET=4
$[AGT],rm,6,rt,3
$[AGT],receive pmtk
$PMTK015,43296137,4,4846,PMTK711,0E,59,4E4402,4E0E4A,FD3E00,A10D40,56FC2D,B0955A,5B8B51,00FFFC*4F
$PMTK001,711,3*37
$[AGT],GSET=4
$[AGT],rm,6,rt,3
$[AGT],receive pmtk
$PMTK015,43296137,4,4846,PMTK711,0F,59,4F41DE,4EF898,FD2100,A10DC4,5198BA,13586D,3AF5B6,D9000C*46
$PMTK001,711,3*37
$[AGT],GSET=4
$[AGT],rm,6,rt,3
$[AGT],receive pmtk
$PMTK015,43296138,4,4846,PMTK711,10,59,504549,4E1F7A,FD6900,A10D45,AC01F0,0CF60F,85D7DF,FA0024*38
$PMTK001,711,3*37
$[AGT],GSET=4
$[AGT],rm,6,rt,3
$[AGT],receive pmtk
$PMTK015,43296138,4,4846,PMTK711,11,59,5159CF,4E152B,FD3C00,A10C9E,D5B6A2,B031CC,5E2591,E5001C*4B
$PMTK001,711,3*37
$[AGT],GSET=4
