$PMTK013,AgpsMachine,set,0,result,0*17
$[AGT],ipath,/data/misc/
085398.383,HBD,IF1,BOT,UInitCf,1,0,0,16,100,0,255,2000,26000000,115200,1000,0,-2147483456,ffff6753,2

085398.383,HBD,IF1,BOT,MNLVer,_u1MTKChipID=1
085398.383,HBD,IF1,GPS,NVFile,Opened
$[AGT],GSET=0
$[AGT],rm,6,rt,4
$[AGT],SAP,Eidle
$[AGT],e=1,b=1,s=1,aosp=1
085398.391,HBD,IF1,GPS,NVFile,g_BMAP_NVfile_Operation_load,0
085398.391,HBD,IF1,ALO,AlcInit,
085398.391,HBD,IF1,ALO,AlSCIni,
085398.391,HBD,IF1,ALO,PMCmod4,0
085398.391,HBD,IF1,ALO,EdInitD,
085398.391,HBD,IF1,ALO,PmcInit,
085398.391,HBD,IF1,ALO,VtCfgDb,20,20,4294967295
085398.391,HBD,IF1,BOT,InitCfg,1,115200,115200,26000000,255,0,0,0.000000,0.000000
085398.391,HBD,IF1,BOT,BotUrV2,BINFO(): x,-2147483456,y,ffff6753,
085398.391,HBD,IF1,BOT,BotUrV2,BINFO(): MT6753_ DSP
085398.391,HBD,IF1,BOT,BotUrV2,_BINFO(): B,-149904296,L,61448
085398.391,HBD,IF1,BOT,BotUrV2,RFG,3,0,3
085398.883,HBD,IF1,BOT,ClkType,255
$PMTK015,85398880,1,GPS_INIT_DONE*7A
$[AGT],GSET=1
$[AGT],rm,1,rt,11
$[AGT],inco
$[AGT],rm,0
$[AGT],remd == 0
085398.883,HBD,IF1,MSG,MNLInit,OK
085398.883,HBD,IF1,COM,WaitDtt,RECEIVE 1st DTT

#MZYQ.D@1C3&19

$PMTK010,001*2E

$PMTK010,002*2D
$PMTK013,INF,0,128,4,128*59
$PMTK015,85398880,4,85398880,PMTK764,0,0,0,2,0,128,4,128*33
$$PMTK764,0,0,0,2,0,128,4,128*15
085398.883,HBD,IF1,GPS,FrstDtt,00,00
$PMTK015,85398881,2,FIRST_DBTT*25
085398.883,HBD,IF1,GPS,TkDltIn,0,0,0

#MZYQ.@@1B3D5&64
$SELF_ATOW,0,1*4F
085398.883,HBD,IF1,TIM,HALTIME,0,
085398.883,HBD,IF1,TIM,HALTSTA,0,
085398.883,HBD,IF1,TIM,IdbtsDa,RTCstatusA,0,fgSysTimeOK,1,UseSystime,0,LoadRTCUpdateOK,RTC_age,-2
085398.883,HBD,IF1,TIM,IdbtsDa,RTCstatusB,0,fgSysTimeOK,1,UseSystime,0
085398.883,HBD,IF1,TIM,DtsAcRT,PRTC,Load,Wn,1881,Tow,195254.994025252,RtcD,-19.304,
$IRTC,i2RtcTimeLastWn,1881,dfRtcTimeLastTow,195237.986206,*2A
$IRTC,i2RtcTimeLastWn,1881,dfRtcTimeLastTow,195254.986873,*27
$IRTC,dfDltTow1,13.771027,*2B
$IRTC,dfDltTow2,13.771292,*24
$IRTC,i2GpsWn2,1881,dfGpsTow2,195268.765318,*2D
085398.883,HBD,IF1,TIM,DtsAcRT,PRTC,Load,GWn,1881,GTow,195268.765317700,RWn,1881,RTow,195254.986872792,RtcD,-19.304,
$IRTC,dfDltTow,13.771292,HTTFF_163,0,_fgEnableAccIGPST,1*7F

#MZYQ.D@1B3&18
085398.883,HBD,IF1,TIM,IdtsAcT,1,1881,195268.765000000,9,13.8,

#MZYQ.DD1B3&1C

#MZYQ.CB1D3&1B
$QEPO_Request*05
$[AGT],GSET=1
$[AGT],rm,1,rt,10
$[AGT],inco

#MZYQ.DB1C3&1B
$[AGT],rm,0
$[AGT],remd == 0
085398.883,HBD,IF1,TIM,NWloc,fgfirstUseNW,0,case,0,NWAID,0,NWUSE,0
$Boost, hotstart*5A
085398.883,HBD,IF1,AGP,BOOST,Posdiff:157625048104960.000000,0.000000,num:0,PosConverge,0,BoostRemT,20.000
$LOC_Cache_BIT,00000000*7F
$DBnm_NLP,[24.975753,121.327994,0,20.000000][2016/1/26,6:13:59][0][0]*0C
$NLP_from_file,[24.975753,121.327994,0,20.000000][2016/1/26,6:13:59][1881,195256.000000]*4E
$cache_pos,-3007980.055143,4941814.875821,2676702.325693,[1137824055]*6F
$Cache_age,13,NLP_age,12,NV_age,13*15
$NLP_Aid*41
#DBTP 11 1 9 2497575 12132799 146 1881 195268775 1137824054 &A1

#MZYQ.C@1C3&18
085398.883,HBD,IF1,AGP,AGPSMGN,Posdiff:157625048104960.000000,0.000000,num:0,PosConverge,0,AGPSRemT,16.000

#MZYQ.AA1D3&18
085398.883,HBD,IF1,GPS,EpoLoad,HOST_EPO,BAD_Load,ffdfffff,316062,45
085398.883,HBD,IF1,TIM,RstFSAg,0.0

#MZYQ.AE1I3&21

#XPda.@@BC3&42
085398.883,HBD,IF1,GPS,FTModeC,FT_Mode,1,Send_Comd
085398.883,HBD,IF1,AGP,AGPSMGN,AGPSMode:-1,AGPSTimer:0.000
$PMTK015,85398884,10,11,AMode,-1,ATimer,0.000,Remain,16.000*63
$PMTK015,85398884,6,11,NACQ,0,NBS,0,NSFS,0,NEXS,0*6D
$HBD,INF,RTC,F,0,Y,16,M,1,D,26,H,6,M,14,Sec,11,Sub,24813,T,1,SM,7690*36
$DBts1,TSOK,0,WNSet,1,TOWS,9,WN,1881,BAcc,1183216.000,TAcc,1220038.000,*68
$DBts2,TTK,11,TOW,195268.775000000,B,0.000152132,D,0.000001325,*07
085398.883,HBD,IF1,ALO,CdmPvtU,
$HBD,INF,RTC,F,0,Y,16,M,1,D,26,H,6,M,14,Sec,11,Sub,24813,T,1,SM,7690*36
$PMTK013,11,set epo bitmap,R:0,F:1 *1E
$GNGGA,061411.774,2458.5452,N,12119.6796,E,0,0,,131.4,M,15.0,M,,*50
$GPGSA,A,1,,,,,,,,,,,,,99.99,99.99,1.00*01
$GLGSA,A,1,,,,,,,,,,,,,99.99,99.99,1.00*1D
$GPGSV,4,1,13,18,86,158,,193,58,162,,10,57,322,,25,46,148,*4E
$GPGSV,4,2,13,12,44,086,,24,35,036,,14,33,309,,21,26,209,*76
$GPGSV,4,3,13,15,22,080,,20,20,142,,22,18,318,,04,18,318,*73
$GPGSV,4,4,13,31,17,235,*4B
$GLGSV,1,1,0*55
$GNRMC,061411.774,V,2458.5452,N,12119.6796,E,0.000,0.00,260116,,,N*54
$GNVTG,0.00,T,,M,0.000,N,0.000,K,N*2C
$GNACCURACY,39.2*2E
$PMTKDGP,0*4D
$PMTKDBG,11,0,1,0,0,0,1,0,0,0,1,0,0,0,0,0,0,0,0,1,1,1,1,1,0,0,0,0,1,0,0,0,0,0026,0014,0002,0000,0000,0022,0001,0000,0.0000,1.3247,0.0000,0.0000,0.0000,0.0000,*43
$PMTKDB2,0000,0000,0000,0000,0000,0000,0000,0100,1538.85,0000.00,13247.74,1220038.00,0000.00,0152.13,00-0.21,0000.00,*09
$PMTKEPH,17,2,4,5,10,12,13,14,15,18,20,21,22,24,25,29,30,193*51
$PMTKALM,32,1,2,3,5,6,7,8,9,10,11,12,13,14,15,16,17,18,19,20,21,22,23,24,25,26,27,28,29,30,31,32,193*51

#WXM[.?0A2C4E6G8I:K<M>O@QBSDUFWHYJ[L]N_PaRcTeVgXiZk\m^o`qbsdufwhyj{l}npy&37

#NM^Z.BB1CD4F6G8I:K<M>&DD
#\XOU.AF1B3D5F7H9JKLM>O@QBSDUFWHYJ[L]^_`QbSdUfWhijk\m^o`qbstuvgxizk|m~oq&32
#\XOU.BG1B3D5F7H9JKLM>O@QBSDUFWHYJ[L]^_`QbSdUfWhijk\m^o`qbstuvgxizk|m~oq&34
#\XOU.CH1B3D5F7H9JKLM>O@QBSDUFWHYJ[L]^_`QbSdUfWhijk\m^o`qbstuvgxizk|m~oq&36

#NM`a.@A1C3D5F7H9J;L=NOPQRSTUFWHYJ&F1

#NMMN.@0>DCLL6KHRL;MN>PSQSZ]EWYHYJdL^gdbgjaklkWhY&09
#KL_c.C0BKLGFM7IJPK<NSO@VSUDVFWHaZ[_M&DF
#KL_c.@@1DCMLFJ8FKQM=OTPAWTVEWGXIb[\^N&FE
#KL_c.@B1DCKNFP8FKTPP>PUQBXUWFXHYJc\]_O&3F
#KL_c.@D1DCGIJL8FPSU=OTPAWTVEWGXIb[\^N&0E
#KL_c.@E1DCDFLP8FMTMO>PUQBXUWFXHYJc\]aO&39
#KL_c.@H1DDFJJK8FKTUO>PUQBXUWFXHYJc\]_O&40
#KL_c.A@1DCDHMN8FOOOQ>PUQBXUWFXHYJc\]aO&37
#KL_c.AA1DCGENI8FNOPN>PUQBXUWFXHYJc\]aO&31
#KL_c.AB1CLMHGN8JKQL=OTPAWTVEWGXIb[\`N&0F
#KL_c.AD1DCHMOK8FNSTQ>PUQBXUWFXHYJc\]_O&49
#KL_c.AE1DCKKNJ8LOL<NSO@VSUDVFWHaZ[]M&DD
#KL_c.BA1DCDJHL8PML<NSO@VSUDUFWHaZ[]M&CF
#KL_c.@ID2DILIGO9GLRNN?QVRCYVXGYIZKd]^`P&6C
#KLbg.?0BE3EM6HQL:LL=PT@RTCVYFX\I\\L^cObaRefUjWkjZ&E9
#KLbg.@0BF3FEG7JIL;NMQ?RQVCVU[GZY`K^]eObajSfeoWjjj[nno_rrtcvvygzz~k&20

#NMO_.UVWXYZ[\7^_`abcde@ghijklmnIpqrstuvwRyz{|W~`e&3B

#NM`].@A1C3M5HKQPORQ=OQQTTZ]^FX\_J\de_OajgejmmnmYklotvqtqwwdrxwyj{l&08
#NP\U.A0BCFKMGJOOJ;`SROPQBSDUFWHYJ_e_rqdQdShzogziZourpauxvwvhov}̹˫Ȳ޹&EE
#NP\U.C0BCFKMHKHKO;`SRPPQBSDUFWHYJam_tffQxyxgVjmmqrt]tpudx~krxĳǹŰڷ&1B
#NP\U.D0BCFKMGOQQR;`SSOPQBYVU[klIc`nq_cPrdefvmWqkkv^qszzewh|ov}ŷɤǸͽү˶ѽ&C5
#NP\U.@@1CDGLNILILP<aTSPQRCTEVGXIZK^_`uggRyz{gWnnml]pqpu{dxv|krxġʸѿͶ&8B
#NLXZ.@0AB3EMNH8MKMUMR?VTRhUUFml]c[\Mo``tviT{{zmqk[mprxsbx}zhzz{|n&12
#NLXZ.A0AB3EMNH8MLR`_R?VTRSVkFml\b[\Mo``ufdT{zgnil[}trqbtv~{i~|}p&7C
#NLXZ.B0AB3EMNH8MMKNTP?VTRdiXFml^k[\Mo``uvtTgoi{|r[suqxbzyzip&0B
#NLXZ.D0AB3EMNH8MOMQVQ?VTRU[jFml]n[\Mo``ugyTgnzimq[mpswbz~|i|}p&AD
#NLXZ.E0AB3EMNH8MPKNOT?VTRgj[Fml]c[\Mo``tkwT{{m|or[}qxswbvxz~{i{||}p&9D
085398.891,HBD,IF1,COM,WtDtCnt,0
$[AGT],GSET=1
$[AGT],rm,1,rt,7
$[AGT],fgFirstReq:1
$[AGT],bitmap,old:   0,new: 308
$[AGT],inco
$[AGT],srm,1,dsm,4,tp,7,length,12
$[AGT],tp,776,wn,1881,tw,195268,si,12
$[AGT],rm,2
$[AGT],state:7
$[AGT],wn:1881, tw:195268
$[AGT],ergt
$[AGT],
$[AGT],Esgt 1137715200
$[AGT],epegt
$[AGT],gfisiz()
$[AGT],egtEf,1140307200
$Rdon
$[AGT],res,1137824068,sst,1137715200,egsn,1140307200
$[AGT],wk,epo
$[AGT],s,1,m,1
$[AGT],idle
$@#$^ [AGNT] pEd
$[AGT],opmode GLO(1),GEL(0),DB(0)
$[AGT],tw,195268,gs,1137824068
$[AGT],eextd
$[AGT]start verify
$[AGT],gfisiz()
$[AGT]FileType:GPS+GLO
$[AGT],
$[AGT],epegt
$[AGT],gfisiz()
$[AGT],Extract epo done
085398.898,HBD,IF1,MSG,AidEPO,$[AGT],GSET=0
$[AGT],rm,4,rt,8
$[AGT],inco
SV,1,ret,1
085398.898,HBD,IF1,MSG,AidEPO,SV,2,ret,1
085398.898,HBD,IF1,MSG,AidEPO,SV,3,ret,1
085398.898,HBD,IF1,MSG,AidEPO,SV,4,path_2NG,ValidEPO,1,u4CurrGpsSecs,1137824068,u4GpsSecs,1137823200,seq,45,NAseq,0,Age_Epo,17,Naage,0,NaValidGEPO,0
085398.898,HBD,IF1,MSG,AidEPO,SV,5,ret,1
085398.898,HBD,IF1,MSG,AidEPO,SV,6,ret,1
085398.898,HBD,IF1,MSG,AidEPO,SV,7,ret,1
085398.898,HBD,IF1,MSG,AidEPO,SV,8,ret,1
085398.898,HBD,IF1,MSG,AidEPO,SV,9,ret,1
085398.898,HBD,IF1,MSG,AidEPO,SV,10,ret,1
$[AGT],srm,4,dsm,4,tp,8,length,12
$[AGT],tp,776,wn,1881,tw,195268,si,12
$[AGT],rm,3
$[AGT],state:6
$[AGT],wn:1881,tw:195268
085398.906,HBD,IF1,MSG,AidEPO,SV,11,ret,1
085398.906,HBD,IF1,MSG,AidEPO,SV,12,ret,1
085398.906,HBD,IF1,MSG,AidEPO,SV,13,ret,1
085398.906,HBD,IF1,MSG,AidEPO,SV,14,ret,1
085398.906,HBD,IF1,MSG,AidEPO,SV,15,ret,1
085398.906,HBD,IF1,MSG,AidEPO,SV,16,ret,1
085398.906,HBD,IF1,MSG,AidEPO,SV,17,ret,1
085398.906,HBD,IF1,MSG,AidEPO,SV,18,ret,1
085398.906,HBD,IF1,MSG,AidEPO,SV,19,ret,1
085398.906,HBD,IF1,MSG,AidEPO,SV,20,ret,1
085398.906,HBD,IF1,MSG,AidEPO,SV,21,ret,1
085398.906,HBD,IF1,MSG,AidEPO,SV,22,ret,1
085398.906,HBD,IF1,MSG,AidEPO,SV,23,ret,1
085398.906,HBD,IF1,MSG,AidEPO,SV,24,ret,1
085398.906,HBD,IF1,MSG,AidEPO,SV,25,ret,1
085398.906,HBD,IF1,MSG,AidEPO,SV,26,ret,1
085398.906,HBD,IF1,MSG,AidEPO,SV,27,ret,1
085398.906,HBD,IF1,MSG,AidEPO,SV,28,ret,1
085398.906,HBD,IF1,MSG,AidEPO,SV,29,ret,1
085398.906,HBD,IF1,MSG,AidEPO,SV,30,ret,1
085398.906,HBD,IF1,MSG,AidEPO,SV,31,ret,1
085398.906,HBD,IF1,MSG,AidEPO,SV,32,path_2NG,ValidEPO,2,u4CurrGpsSecs,1137824068,u4GpsSecs,1137823200,seq,45,NAseq,0,Age_Epo,17,Naage,0,NaValidGEPO,0
085398.906,HBD,IF1,MSG,AidGLEP,SV,1,ret,1
085398.906,HBD,IF1,MSG,AidGLEP,SV,2,ret,1
085398.906,HBD,IF1,MSG,AidGLEP,SV,3,ret,1
085398.906,HBD,IF1,MSG,AidGLEP,SV,4,ret,1
085398.906,HBD,IF1,MSG,AidGLEP,SV,5,ret,1
085398.906,HBD,IF1,MSG,AidGLEP,SV,6,ret,1
085398.906,HBD,IF1,MSG,AidGLEP,SV,7,ret,1
085398.906,HBD,IF1,MSG,AidGLEP,SV,8,ret,1
085398.906,HBD,IF1,MSG,AidGLEP,SV,9,ret,1
085398.906,HBD,IF1,MSG,AidGLEP,SV,10,ret,1
085398.906,HBD,IF1,MSG,AidGLEP,SV,11,ret,1
085398.906,HBD,IF1,MSG,AidGLEP,SV,12,ret,1
085398.906,HBD,IF1,MSG,AidGLEP,SV,13,ret,1
085398.906,HBD,IF1,MSG,AidGLEP,SV,14,ret,1
085398.906,HBD,IF1,MSG,AidGLEP,SV,15,ret,1
085398.906,HBD,IF1,MSG,AidGLEP,SV,16,ret,1
085398.906,HBD,IF1,MSG,AidGLEP,SV,18,ret,1
085398.906,HBD,IF1,MSG,AidGLEP,SV,19,ret,1
085398.906,HBD,IF1,MSG,AidGLEP,SV,20,ret,1
085398.906,HBD,IF1,MSG,AidGLEP,SV,21,ret,1
085398.906,HBD,IF1,MSG,AidGLEP,SV,22,ret,1
085398.914,HBD,IF1,MSG,AidGLEP,SV,23,ret,1
085398.914,HBD,IF1,MSG,AidGLEP,SV,24,ret,1
$[AGT],BGAI
$[AGT],0,av:62,b_sky:0
$[AGT],1,av:70,b_sky:0
$[AGT],2,av:114,b_sky:0
$[AGT],3,av:0,b_sky:0
$[AGT],4,av:72,b_sky:0
$[AGT],5,av:68,b_sky:0
$[AGT],6,av:68,b_sky:0
$[AGT],7,av:60,b_sky:0
$[AGT],8,av:68,b_sky:0
$[AGT],9,av:124,b_sky:0
$[AGT],10,av:62,b_sky:0
$[AGT],11,av:124,b_sky:0
$[AGT],12,av:72,b_sky:0
$[AGT],13,av:124,b_sky:0
$[AGT],14,av:122,b_sky:0
$[AGT],15,av:58,b_sky:0
$[AGT],16,av:66,b_sky:0
$[AGT],17,av:122,b_sky:0
$[AGT],18,av:64,b_sky:0
$[AGT],19,av:72,b_sky:0
$[AGT],20,av:122,b_sky:0
$[AGT],21,av:124,b_sky:0
$[AGT],22,av:64,b_sky:0
$[AGT],23,av:122,b_sky:0
$[AGT],24,av:122,b_sky:0
$[AGT],25,av:58,b_sky:0
$[AGT],26,av:58,b_sky:0
$[AGT],27,av:64,b_sky:0
$[AGT],28,av:122,b_sky:0
$[AGT],29,av:70,b_sky:0
$[AGT],30,av:56,b_sky:1
$[AGT],31,av:104,b_sky:0
$[AGT],Eend:1, Send:1, ct:1
$[AGT],wkbee
$[AGT],s,1,m,2
$[AGT],idle
$@#$^ [AGNT] sBi
085399.883,HBD,IF1,TIM,DSP,u1ChnNum,37,u2DataSize,57
085399.883,HBD,IF1,COM,BinDecX,65065
085399.883,HBD,IF1,TIM,DSP,u1ChnNum,48,u2DataSize,57
085399.883,HBD,IF1,COM,BinDecX,65065
085399.883,HBD,IF1,GPS,TkDltNo,11,10
085399.883,HBD,IF1,TIM,AcRCCEr,18,773,782,-9,56,98
085399.883,HBD,IF1,TIM,NWloc,fgfirstUseNW,0,case,0,NWAID,0,NWUSE,0
085399.891,HBD,IF1,AGP,BOOST,Posdiff:1808.350342,0.130385,num:0,PosConverge,0,BoostRemT,19.000
$LOC_Cache_BIT,00000002*7D
$DBnm_NLP,[24.975753,121.327994,0,20.000000][2016/1/26,6:13:59][0][1]*0D
$cache_pos,-3007980.055143,4941814.875821,2676702.325693,[1137824055]*6F
$cache,0,18,-1.253418*42
$cache,1,10,-1.102777*46
$cache,3,12,-0.366455*44
$DO_Err,mean,-0.907550,std,0.387523*5E
$Cache_age,14,NLP_age,-99,NV_age,15*3A
085400.227,HBD,IF1,AGP,AGPSMGN,Posdiff:1808.350342,0.130385,num:0,PosConverge,0,AGPSRemT,16.000
085400.227,HBD,IF1,TIM,RstFSAg,1.0

#MZYQ.AE1E3&1D

#XPda.A@BC3&43
085400.227,HBD,IF1,AGP,AGPSMGN,AGPSMode:-1,AGPSTimer:0.000
$PMTK015,85400226,10,1351,AMode,-1,ATimer,0.000,Remain,16.000*61
$PMTK015,85400226,6,1351,NACQ,3,NBS,3,NSFS,0,NEXS,0*6F
$HBD,INF,RTC,F,0,Y,16,M,1,D,26,H,6,M,14,Sec,12,Sub,24883,T,1003,SM,10216*33
$DBts1,TSOK,0,WNSet,1,TOWS,5,WN,1881,BAcc,268.427,TAcc,9999000.000,*6D
$DBts2,TTK,1011,TOW,195269.775000000,B,0.000162123,D,0.000001277,*02
085400.227,HBD,IF1,ALO,CdmPvtU,
$HBD,INF,RTC,F,0,Y,16,M,1,D,26,H,6,M,14,Sec,12,Sub,24883,T,1003,SM,10216*33
$GNGGA,061412.774,2458.5228,N,12119.6766,E,0,0,,131.4,M,15.0,M,,*57
$GPGSA,A,1,,,,,,,,,,,,,4.02,3.89,1.00*05
$GLGSA,A,1,,,,,,,,,,,,,4.02,3.89,1.00*19
$GPGSV,4,1,13,18,86,158,33.3,193,58,162,,10,57,322,33.8,25,46,148,*45
$GPGSV,4,2,13,12,44,086,30.1,24,35,036,,14,33,309,,21,26,209,*6A
$GPGSV,4,3,13,15,22,080,,20,20,142,,22,18,318,,04,18,318,*73
$GPGSV,4,4,13,31,17,235,*4B
$GLGSV,2,1,6,78,80,248,,67,59,074,,68,38,344,,77,38,024,*5C
$GLGSV,2,2,6,79,33,214,,66,18,123,*53
$GNRMC,061412.774,V,2458.5228,N,12119.6766,E,0.000,0.00,260116,,,N*53
$GNVTG,0.00,T,,M,0.000,N,0.000,K,N*2C
$GNACCURACY,27.4*27
$PMTKDGP,0*4D
$PMTKDBG,1011,0,1,0,0,0,0,0,0,0,1,0,0,0,0,0,0,0,0,1,1,1,1,0,0,0,0,0,1,0,0,0,0,0028,0031,0002,0003,0003,0000,0001,0000,0.0000,1.2773,0.0000,0.0000,0.0000,0.0000,*48
$PMTKDB2,0C15,0000,0000,0000,0000,0000,0000,0000,0751.54,0000.00,12773.65,9999000.32,00-0.32,0162.12,00-0.21,0000.00,*69
$PMTKEPH,41,2,4,5,10,12,13,14,15,18,20,21,22,24,25,29,30,-31.2.5,193,-65.2.5,-66.2.5,-67.2.5,-68.2.5,-69.2.5,-70.2.5,-71.2.5,-72.2.5,-73.2.5,-74.2.5,-75.2.5,-76.2.5,-77.2.5,-78.2.5,-79.2.5,-80.2.5,-82.2.5,-83.2.5,-84.2.5,-85.2.5,-86.2.5,-87.2.5,-88.2.5*5B
$PMTKALM,32,1,2,3,5,6,7,8,9,10,11,12,13,14,15,16,17,18,19,20,21,22,23,24,25,26,27,28,29,30,31,32,193*51

#WXM[.?0A2C4E6G8I:K<M>O@QBSDUFWHYJ[L]N_PaRcTeVgXiZk\m^o`qbsdufwhyj{l}npy&37
#NMQR.A0AC3D5FHMI^QSSPeQRR[TUVW\a_]\^_gvecde{mxjrrop^oqt|v{Ŀ³ŶɹӼο&35
#NMQR.A0AD3D5FHMI^QSSPeQRRUTUVWkYc[`rehvacdghnnklk|lt^qqyx|xy{}öǿÿҿ³Ŷʹμο&CE
#NMQR.A0AE3D5FHMI^QSSPeQRfWjkVWY]ncrqdt`ecdmenxkjk|m^usqruy}}ųɵϻν³Ŷ̹μο&79
#NMQR.A0AG3D5FHMI^QSSPeQRSiTUVWna[`qp_t`ecdmlj|kmmro^oyqt{uuyz|ƷǷǾͻ³Ŷȹ̼ο&DE
#NMQR.A0AH3D5FHMI^QSSPeQRUYTUVWilld]^ddvccdh{lxjmkv^rqr|zy|}}Ƽƾǿ³Ŷȹ˼ο&4D
#NMQR.A0AI3D5FHMI^QSSPeQRhVjkVW]lob_qgavwcddgzgj}rlq^wqvy|}z|ŵϿ³Ŷȹ˼ο&BA
#NMQR.A0AJ3D5FHMI^QSSPeQRhVjkVW^]][rqphvucdulg{kossmv^qrvxĶǽǹҿ³Ŷɹмο&E3
#NMQR.A0AK3D5FHMI^QSSPeQRVWTUVWYYbp\d_evwcdkjxokp~~t^qqrttzĵǺǻƿ³Ŷʹμο&43
#NMQR.A0BB3D5FHMI^QSSPeQRhTjkVWZY_q\caq`dcdwvwxkj~nnt^swqrz{ux}xz°ǿϿӿ³Ŷ˹ϼο&1B
#NMQR.A0BC3D5FHMI^QSSPeQRgijkVWmYbdmq_uvbcddlnllkp~m^vvqztyx{}Ĺȹǿ³Ŷ͹˼ο&C3
#NMQR.A0BD3D5FHMI^QSSPeQRSZTUVWmakc^sop`ucdzhxpjrr|s~^qt{vuy}{~¶ν³Ŷ̹мο&1D
#NMQR.A0BE3D5FHMI^QSSPeQRg\jkVWa]^aqe_rvvcdfnigkknqlt^uqtzzx}}òǿ¿³Ŷȹϼο&11
#NMQR.A0BF3D5FHMI^QSSPeQRgfjkVW]]oc\]ruvvcdkiimkmnmr^rtqvu{~|ĲǾĿ³Ŷȹ˼ο&45
#NMQR.A0BG3D5FHMI^QSSPeQRhSjkVWYla_pf_``acdihi{k}rqq^xqv|³ǹпӿ³Ŷɹмο&BA
#NMQR.A0BH3D5FHMI^QSSPeQRSfTUVWja[_rno_`scdmzwgjrs|~u^wvqvyzu|Źͻ³Ŷȹμο&9D
#NMQR.A0BI3D5FHMI^QSSPeQRh\jkVWilncqbqevscdkko}kkpo^vqwyy~||÷ôźǼҿ³Ŷȹͼο&DA
#NMQR.A0BJ3D5FHMI^QSSPeQRTUTUVW]]b\_rq_`dcdvkgkk|pq^pvqzzuywǼǷϼý³ŶɹҼο&BA
#NMQR.A0BK3D5FHMI^QSSPeQRhhjkVW]]]onopqvrcddj{pklrl^qwzt{}~ùǹǺƿ³Ŷɹ̼ο&E6
#NMQR.A0CB3D5FHMI^QSSPeQRSZTUVWXaob__dr`dcdimy|kqmv^vqtsyuyzƴǼϾý³Ŷɹ̼ο&B8
#NMQR.A0CC3D5FHMI^QSSPeQRgijkVW`]b`nqtsvdcdxnzykqjo^uqs}|yúǼǷ̻ҽ³Ŷ͹˼ο&13
#NMQR.A0CD3D5FHMI^QSSPeQRfUjkVW_a^b_b^s`ecdly{|krlp^xwquzwuyz{}|¶ǻϿüҿ³Ŷɹ̼ο&F1
#NMQR.A0CE3D5FHMI^QSSPeQRgijkVWZla\qo_`vwcdhh{xkq{|s~^pqqwz´ǹǼϾϿ³Ŷɹμο&F7
#NMQR.A0CF3D5FHMI^QSSPeQRhejkVWj]b^rratvvcdfnn{kj|ou~^qtz|~}~Ľǿϼѿ³Ŷɹϼο&0A
#NMQR.A0CG3D5FHMI^QSSPeQReZjkVWal[pr_qc`ucdxvx|j|qm^tqt|{u|x}Ŷǿüҿ³Ŷʹμο&81
#NMQR.A0CH3D5FHMI^QSSPeQRYSjkVWX]]^q_^``tcdwlklkis~on^tqr||u}~÷ƻǾμҿ³Ŷɹ̼ο&97
#NMQR.A0CI3D5FHMI^QSSPeQRSiTUVW]la^\dgdvucdklyiklq}r^pqsvyöʼǺϿü³Ŷȹ̼ο&12
#NMQR.A0CJ3D5FHMI^QSSPeQRSZTUVWmY^_`^ed`vcdmj{{jzm~ns^pq{xu}y~ĶǾν³Ŷɹͼο&3B
#NMQR.A0CK3D5FHMI^QSSPeQRR\TUVWlYboabfbvtcdx{fzkloo^yqrstŲǻѿ³Ŷ˹ͼο&C8
#NMQR.A0DB3D5FHMI^QSSPeQRT[TUVWXlkb\of`vwcddio}kiqrv^xqr|w|}ϼҿ³Ŷȹ˼ο&08
#NMQR.A0DC3I5FHMI^QSSPeQRhUjkVWjl`d^btdvvcddfmpj{}uu^uvqv|{~ĵǷϺѿ³Ŷȹ˼ο&8E
#NMQR.A0GG3D5FHMI^QSSPeQRRWTUVWnampqpgp`ccdl{fxiikt}m^wqruuxy~ĺȺνóŶȹмӿ&63
#NMQR.A0GH3D5FHMI^QSSPeQRSSTUVW`alb]cgd`ccdxzh|h~~pmn^pqryzuxy|·ĽȻýƳŶȹмӿ&D0

#NM^Z.BB1CCEF6H8JKP<NNT@QBSD&0B
#\XOU.?0BJ3GL6G8ON;RNP`@QBX\UF\`YJ`L^gOadbdknVhjlopoq^tzcqvx|z{{nqv{~&88
#\XOU.@0BB3GM6G8ON;QNP`@QBVZUFZ^YJ`L^cOadbdknVhjllquq^oqqtcqzyz}|z~lorwz~&48
#\XOU.A0CG3GJ6G8LL;RNPQ@QBSDUF\HbJ\_]_fiQcegelnlYortr^qxqxtuv~gz|jx~otw{~&83
#\XOU.B0BD3GI6G8MS;QNP`@QBUTEXWH^JbL^a_ahkSegigprr[uqt`nsuvx|{~k~nrwz~&5C
#\XOU.C0BKF4HG7H9MS<SSQRARCTEVG]I\K]`^`gjRdemfiqpZpo~_mrrtz{zw~j|mqvy}&A1
#\XOU.@E1DCE5HG8I:S<TNQRARCTEVG]I^K\Mc_egblTm|{oYgntruqywsxdvwgzl}~qsvx}&AD
#\XOU.AF1DG4E6G8I:]MMN?PARCTEYGXI[^\^ehPbdekhmpX~~or]krrqrz{}x{h{zk|m~rtvx}&2A
#\XOU.BG1DCF5F7H9J;QMNO@QBSDUFZHYJ[L_ahdaeSvkhzXfmttvovvttcuxfwhyz{|m~oqsxz}&4E
#\XOU.CH1CG4E6G8I:]MMN?PARCTEYGXI[^\^ehPbdeinijXqt]ktpywx}x|gyj{l}~qsuw|~&10

#NM`a.@@BC3E5F7H9J;L=N?PQRSTUVWHYJ[L&52
#NLPT.@H1CF4EFGK9GMQVNMSARQTUVGZY_\L^c]dhRcbmfiXrhtn]&BD
#NLPT.@@1CF4EFGK9GMRNQMUARQTUVG\Y_]L^c]ccRcbjmoXjjilp^&DA
#NLPT.AE1D3&09
#NLPT.@B1CF4EFGK9GMRMTMTARQTUXGYa[d]cN`d_gkTedgioZnqknr`&4F
#NLPT.@ID2E4&3F
#NLPT.AD1C3&07

#NMMN.@0>DCEF6KHIL;MMOP@RUSU\_GY[J[LbN`ifdimcmnmYj[&51
#KL_c.C0BDEFHFP8JLNQ=TO@RRCUEVG`YZ^L&A0
#KL_c.@@1CEGGLPL9GSQ=TO@YBTDUF_XY[K&79
#KL_c.@B1CEGENPP9GLTSV?VQB[DVFWHaZ[]M&E9
#KL_c.@D1CEFKJJN9GQMP>UPA[CUEVG`YZ\L&A8
#KL_c.@E1CEFHGLP9GNTPU?VQB\DVFWHaZ[_M&E4
#KL_c.@H1CEGJKJL9GLUNT?VQBYDVFWHaZ[]M&DF
#KL_c.A@1CEFHIML9GPORW?VQBTTEWGXIb[\`N&08
#KL_c.AA1CEFKFNI9GOOST?VQB\DVFWHaZ[_M&DC
#KL_c.AB1CEFGIGQ9KMOR>UPASSDVFWHaZ[_M&D0
#KL_c.AD1CEFLNOI9GOTMV?VQB\DVFWHaZ[]M&E8
#KL_c.AE1CEGELNL9NMR=TO@ZBTDUF_XY[K&7E
#KL_c.BA1CEFHKHM9RKQ=TO@RRCVEVG`YZ^L&A3
#KL_c.@ID2DEMFIQP:HMRQS@WRC[EWGXIb[\^N&15
#KL_c.A@E2FILGPL9GOSSU?VQBYDWFWHaZ[_M&EC
#KL_c.AAD2FJGGNI9GMLSR?VQBWDWFWHaZ[]M&D3
#KL_c.AAE2FJEGHJ9SKL=TO@VBUDUF_XY[K&6E
#KL_c.A@G2FJEFIJ9GPPPU?VQBXDWFWHaZ[]M&D6
#KL_c.A@B2FJHIGJ9GLRUN?VQBWDWFWHaZ[]M&D0
#KL_c.A@I2FINKKK9KMUN>UPAWCVEVG`YZ\L&B5
#KLbg.?0BK3EM6IHJ:MMP>PYTBTTEX\HZ\K^^bObahSfiVhlYlkt]pp`rwcvufyzi~k~}or&37
#KLbg.@0C2EDG6IHL:&5E

#\Qpou/FBK3EFOHM9MM<M>O@RVCUYZZ\I[cebNcbbbShhjlXopmu]tusvbsv{g~lqv{&36

#NM`].@@BC3E5K7JMSRQTS?QSSVV\_`HZ^aL^fgaQcliglpopo[mnqvxsvsyyftzy{l}n&66
#NP\U.@B1CDGLNILILP<aTSPQRCTEVGXIZKaf`uggRdkUh}yqs\rwostcv||j|qw~®óΪѱܸӿ&2F
#NP\U.@C1CDGLNIHOQO<aTSPQRCTEVGXIZK]f`uggRyzzoW}qnquq^pyeyy||lszƷ­Ĵ̺&EA
#NP\U.@D1CDGLNILILP<aTSPQRCTEVGXIZKp_tffQxyyxV|pnn[suauvt}{h|~~ov}òƵͩп۷&54
#NP\U.@E1CDGLNILILP<aTSPQRCTEVGXIZKac`uggRyz{fW|rqom^tvqryzey~lsxʿϬųߺ&F4
#NLXZ.F0AB3EMNH8MQO]NN?VTSSeUFml]o[\Mo``ubgTl|n|}p[uoxb}w{i}|}p&B5
#NLXZ.G0AB3EMNH8MRKaUb?VTRf]\Fml\a[\Mo``tswTyipzrm[rvrvb{yi|}~p&E2
#NLXZ.H0AB3EMNH8MSKQM_?VTR[Z[Fml\c[\Mo``ttiTjipn{p[ptqbx~i{|o&66
#NLXZ.@@1BC4FNOI9N\LU`e@WUSfUlGnm_l\]NpaavdxUhphjk\uvvxzcu}jp&DE
#NLXZ.@A1BC4FNOI9N]TQc`@WUhU]ZGnmZ_\]NpaautfU{}{ls~\porwwcvwxjq&35
#NLXZ.@B1BC4FNOI9N^NcRV@WUTjW]Gnm`m\]NpaauceUwykpo\nsyc}{x|j}}~q&E8
$[AGT],GSET=1
$[AGT],rm,1,rt,1
$[AGT],fsm,wm,2
$[AGT],rv PMTKRQTEPH,1881,195269,1,31
$[AGT],GSET=1
$[AGT],rm,1,rt,7
$[AGT],fgFirstReq:0
$[AGT],bitmap,old: 308,new: 108
$[AGT],skip re_agps_req
$[AGT],GSET=1
$[AGT],rm,4,rt,9
$[AGT],inco
$[AGT],sel SI
$[AGT],rm,4
$[AGT],state:4
$[AGT],state:4
$[AGT],wkssi
$[AGT],s,1,m,3
$[AGT],idle
$[AGT],send aosp AGPS req
085400.234,HBD,IF1,BOT,MNLVer,AXN_3.70,1312,MNL_VER_15091601ALPS05_3.70_03,39,76
085400.891,HBD,IF1,TIM,DSP,u1ChnNum,37,u2DataSize,57
085400.891,HBD,IF1,COM,BinDecX,65065
085400.891,HBD,IF1,TIM,DSP,u1ChnNum,48,u2DataSize,57
085400.891,HBD,IF1,COM,BinDecX,65065
085400.891,HBD,IF1,GPS,TkDltIn,1011,1352,341
085400.891,HBD,IF1,TIM,NWloc,fgfirstUseNW,0,case,0,NWAID,0,NWUSE,0
085400.891,HBD,IF1,AGP,BOOST,Posdiff:2925.633057,0.296431,num:0,PosConverge,0,BoostRemT,18.000
$MTK_GPS_BEST,5,2011,PR,7,TT4SV,2011*27
$LOC_Cache_BIT,00000002*7D
$DBnm_NLP,[24.975753,121.327994,0,20.000000][2016/1/26,6:13:59][0][1]*0D
$NLP_from_file,[24.975728,121.328006,0,20.000000][2016/1/26,6:14:13][1881,195270.000000]*42
$cache_pos,-3007980.055143,4941814.875821,2676702.325693,[1137824055]*6F
$cache,0,18,0.737701*62
$cache,2,25,0.581940*6A
$cache,3,12,0.770386*63
$cache,6,24,-0.355408*4C
$cache,8,15,0.113892*62
$cache,10,22,0.032410*5B
$DO_Err,mean,0.313487,std,0.413732*7F
$Cache_age,15,NLP_age,0,NV_age,16*25
085400.891,HBD,IF1,AGP,AGPSMGN,Posdiff:2925.633057,0.296431,num:0,PosConverge,0,AGPSRemT,16.000
085400.891,HBD,IF1,TIM,RstFSAg,2.0

#XPda.B@BC3&44

#MZYQ.@B1UUV5F7JQQL<&EF

#MZYQ.AH1HG4&57
085400.891,HBD,IF1,AGP,AGPSMGN,AGPSMode:-1,AGPSTimer:0.000
$PMTK015,85400890,10,2021,AMode,-1,ATimer,0.000,Remain,16.000*61
085400.891,HBD,IF1,AGP,AGPSMGN,DOP.H :1.210347,PosCon:0,[77.030838,59.559277,4.942833]
$PMTK015,85400890,6,2021,NACQ,6,NBS,6,NSFS,0,NEXS,0*6F
$HBD,INF,RTC,F,0,Y,16,M,1,D,26,H,6,M,14,Sec,13,Sub,24912,T,2004,SM,8635*03
$DBts1,TSOK,0,WNSet,1,TOWS,5,WN,1881,BAcc,45.432,TAcc,9999000.000,*54
$DBts2,TTK,2011,TOW,195270.752125671,B,0.000163371,D,0.000001291,*06
085400.891,HBD,IF1,ALO,CdmPvtU,
$HBD,INF,RTC,F,0,Y,16,M,1,D,26,H,6,M,14,Sec,13,Sub,24912,T,2004,SM,8635*03
$GNGGA,061413.751,2458.5493,N,12119.6630,E,1,7,1.21,131.4,M,15.0,M,,*4F
$GPGSA,A,3,18,25,12,193,24,15,22,,,,,,1.51,1.21,0.91*39
$GLGSA,A,3,,,,,,,,,,,,,1.51,1.21,0.91*11
$GPGSV,4,1,13,18,86,158,34.3,193,58,162,37.0,10,57,322,,25,46,148,30.2*51
$GPGSV,4,2,13,12,44,086,33.7,24,35,036,27.1,14,33,309,,21,26,209,*75
$GPGSV,4,3,13,15,22,080,29.0,20,20,142,,22,18,318,28.3,04,18,318,*71
$GPGSV,4,4,13,31,17,235,*4B
$GLGSV,2,1,6,78,80,248,,67,59,074,,68,38,344,,77,38,024,*5C
$GLGSV,2,2,6,79,33,214,,66,18,123,*53
$GNRMC,061413.751,A,2458.5493,N,12119.6630,E,0.576,346.32,260116,,,A*4D
$GNVTG,346.32,T,,M,0.576,N,1.067,K,A*27
$GNACCURACY,9.9*16
$PMTKDGP,0*4D
$PMTKDBG,2011,0,1,0,0,0,0,0,1,0,0,0,0,0,0,0,0,0,0,1,1,1,1,1,0,0,0,0,0,0,0,0,0,0028,0031,0002,0007,0007,0000,0001,0000,0.0000,1.2909,0.0000,0.0000,0.0000,0.0000,*48
$PMTKDB2,0D18,0000,0000,0000,0000,0000,0000,0000,0097.37,1290.19,12909.65,9999000.32,0000.62,0163.37,00-0.21,0000.00,*74
$PMTKEPH,41,2,4,5,10,12,13,14,15,18,20,21,22,24,25,29,30,-31.2.5,193,-65.2.5,-66.2.5,-67.2.5,-68.2.5,-69.2.5,-70.2.5,-71.2.5,-72.2.5,-73.2.5,-74.2.5,-75.2.5,-76.2.5,-77.2.5,-78.2.5,-79.2.5,-80.2.5,-82.2.5,-83.2.5,-84.2.5,-85.2.5,-86.2.5,-87.2.5,-88.2.5*5B
$PMTKALM,32,1,2,3,5,6,7,8,9,10,11,12,13,14,15,16,17,18,19,20,21,22,23,24,25,26,27,28,29,30,31,32,193*51

#WXM[.?0A2C4E6G8I:K<M>O@QBSDUFWHYJ[L]N_PaRcTeVgXiZk\m^o`qbsdufwhyj{l}npy&37
#NMQR.A0GI3D5FHMI^QSSPeQRR\TUVWj]pl\dcp`ccdvmmphjm~^qqrvuxz{{ƱɸȺüӿǳŶɹмӿ&F5
#NMQR.A0GJ3D5FHMI^QSSPeQRRhTUVWna^c]a`d`ccdmzfnh|^qr{yuwx}}ŲŸȻϽѿȳŶȹмӿ&9D
#NMQR.A0GK3D5FHMI^QSSPeQRhYjkVW[Y[l\]fa`ccdy{zlhkkp^qwqr|uwwǼȺппóŶɹмӿ&71
#NMQR.A0HB3D5FHMI^QSSPeQRRXTUVWlYn\\net`dcdui|xhqrp^rxqruxyxżȺüӿƳŶɹмӿ&29
#NMQR.A0HC3D5FHMI^QSSPeQRhhjkVWkl^\rs_r`dcdgljzhkspu^qryuxw}õƼȻϿǳŶɹмӿ&AC
#NMQR.A0HD3D5FHMI^QSSPeQRRSTUVWi]a_rpfg`ccdzxlyhrtu^vtqruw{ȻϼýȳŶɹмӿ&F8
#NMQR.A0HE3D5FHMI^QSSPeQRR\TUVW`]^n\`qh`ecdufomhq}kmo^wyqs}uz~~÷ȽȽҿĳŶȹмӿ&7A
#NMQR.A0HF3D5FHMI^QSSPeQRRZTUVWnYmb\]`a`fcdey|ihnmu^uqryvuz{|ƹпɳŶȹмӿ&8B
#NMQR.A0HG3D5FHMI^QSSPeQRRYTUVWXYpb\_oc`ecdjzzihokr^qrtxuzx{ķȿͻϿ³Ŷȹмӿ&4E
#NMQR.A0HH3D5FHMI^QSSPeQRReTUVWl]`l\aag`fcdxmgkhql~r^rqsvuzw~ȾлϿóŶȹмӿ&D4
#NMQR.A0HI3D5FHMI^QSSPeQRhgjkVWila`\^b``fcdy{ozhortpp^xtqr{uz}{²ƵʶȾϺпĳŶȹмӿ&5F
#NMQR.A0HJ3D5FHMI^QSSPeQRTeTUVW\Ync^`ab`fcdmxknhn}tmm^sxqr{uz|²ŸȿϿɳŶȹмӿ&2D
#NMQR.A0HK3D5FHMI^QSSPeQRRYTUVWm]\d\etd`ecdzlklhnlkmn^ruqszuz{y}{}ôĴο³Ŷȹмӿ&BC
#NMQR.A0IB3D5FHMI^QSSPeQRRdTUVW`anp\`gb`ecdjggnhq~}n^qs{|uz|{÷ƺƳȾͻѿóŶȹмӿ&0F
#NMQR.A0ID3D5FHMI^QSSPeQRRiTUVW]]_\\opevicduwf|hps^pqrzy}·óȴȻȸϺųŶʹмӿ&50
#NMQR.A0IE3D5FHMI^QSSPeQRh[jkVWl]mbqpdcvicdwgohh}q}n^orqrw}x{|ĴȾȹҿųŶ˹мӿ&6E
#NMQR.A0IF3D5FHMI^QSSPeQRhSjkVWXYkbq`opvicdjjoxh}orm^xrqrx|xųȺҿĳŶ˹мӿ&A4
#NMQR.A0IG3D5FHMI^QSSPeQRRhTUVWia_a\cfhvicduymhhp}t^ouqryzw}z{ŴȷȹƳŶȹмӿ&24
#NMQR.A0IH3D5FHMI^QSSPeQRReTUVWnYna]etqvhcdeynyh~~sms^wsqssw|~|²·ȹοҾųŶʹмӿ&30
#NMQR.A0II3D5FHMI^QSSPeQRffjkVWZY^arctrvhcdvehoh~pms^vqr~{{ï¶ȹϺҾųŶʹмӿ&30
#NMQR.A0IJ3D5FHMI^QSSPeQRhgjkVWXlbnqre`vicduihmh~q|pr^xqru}ŲȻȹϾҿĳŶ̹мӿ&6B

#NM^Z.BB1DCEF6H8JKR<NNT@QBSD&0E
#\XOU.?0BJ3GM6G8ON;QNPb@QBTX[VGY]`[LbNabQcfdfngXplolpq_qydrwy|orw|&4D
#\XOU.@0BB3GL6G8LL;RNPQ@QBSDUF\H[[K]`^`haRjffgpkYlov^lwvutvwgz~j|nsvz}&64
#\XOU.A0CG3GI6G8ON;RNP`@QB[TUF_XYJ`L^fOadbdleVnirkrp]subuzwwwy~k~n|sx{&A4
#\XOU.B0BD3GL6G8ON;RNP`@QB[ZUF_^YJ`L_bOadbdleVnirmts]utbpuwzyx}mpuz}&63
#\XOU.C0BKF4IF7H9PO<RSQaARC\UVG`YZKaMacPbecemfWnorrus^vyxscqvvyy{|nqv{~&4B
#\XOU.D0E2C4E6G8[KKL=N?PARCWEVGY\Z\d]NfaajcfUymojZrsrpxpyzcuzf{zj{|}~oqsuz|&B4
#\XOU.E0CF3GF6G8ON;SNP`@QBUZUFY^YJ`LaN`cackdUmhnlqs\praovu{z|z~{l~oty|&B8
#\XOU.F0BF3D5F7H9\LLM>O@QBSDXFWHZ][]e^OgbflfmVpo~}[iqqtxrvwtewhyj{|}~oqsuz|&99
#\XOU.G0BG3GG6G8ON;SNP`@QBTTUFXXYJ`L`N`cackdUmhioop\nsaouyw{zl~oty|&58
#\XOU.H0CB3D5F7H9\LLM>O@QBSDXFWHZ][]e^OgbckihVpzn~[ipssvrwu}{fx~izk|}~prtv{}&C7
#\XOU.@@1DE4HH7H9OQ<SOQaARCUWVGY[ZKaMaOadbdleVniirll]pwqbz}y|xz}k}n|sxz~&B4
#\XOU.@E1DCE5GI8I:NN=WPPQBSDUFWH^J[L`aaedRfjhigiYpr}v^lqquyt}y|zi{l~puwy{&DA
#\XOU.@F1DCE5M7H9MM<^OOPARCTEVG]IZK_``dcQeiggopXol]kppz{tvvw}hz{k~}otvxz&D4
#\XOU.@G1DDG5F7H9J;UNNO@QBSDUFZHYJ^__cbPdheekmWmr~n\jorusxywuzgyyj{l}~qsuw|~&0A
#\XOU.@H1DDH5F7H9J;UNNO@QBSDUFZHYJ^__cbPdhceeoWlqp|\rvxxsvstewwhyj{|}~oqsuz|&AD
#\XOU.@I1DCJ5F7H9J;UNNO@QBSDUFZHYJ^__cbPdhcdfmWlrkl\jqtvts|vxxgyyj{l}~qsuw|~&F4
#\XOU.A@1DCL5F7H9J;UNNO@QBSDUFZHYJ^__cbPdgliifWnqlt\urupw{zzewwhyj{|}~oqsuz|&B0
#\XOU.AA1DCH5F7H9J;UNNO@QBSDUFZHYJ^__cbPdgjemoWo~~p\jqprussuvxgyyj{l}~qsuw|~&0E
#\XOU.AB1DCE5F7H9J;UNNO@QBSDUFZHYJ^__cbPdhffnnWoqls\jopprrsx}vgizk|}~prtv{}&C6
#\XOU.AF1CG4E6G8I:]MMN?PARCTEYGXI[^\^f_PhcghgjWq}m\jroqxuxz}fxizk|}~prtv{}&C2
#\XOU.BG1DDG5F7H9J;UNNO@QBSDUFZHYJ^__cbPdhdmfkWmzqk\jorusxywuzgyj{l}~qsuw|~&0C
#\XOU.CH1DD4E6G8I:SQMN?PARCTEYGXI[^\^f_PhcfdhlWozo\jpwwvyt}{~gyj{l}~qsuw|~&FA

#NM`a.A@BC3E5F7H9J;L=N?PQRSTUVWHYJ[L&53
#NLPT.@H1CF4EFGK9JIQ=NMPRXCUU]]HVZY\aN_^abfTidopY&E8
#NLPT.@@1D3&03
#NLPT.AE1CF4EFGK9KMJS>ONQRXDWWYYIZY\`N_^abdTffelqZ&09
#NLPT.@B1CF4EFGK9KIL=NMPQRCVU[]HVZY_`N_^bbiTndooY&E0
#NLPT.@ID2DG5FGHL:LMKN?PORUZEW``YJ[Z^fO`_bfhUoekpZ&29
#NLPT.C0B2&D5
#NLPT.AD1CF4EFGK9GMLKS?PORSZE_[\b`K\[c_Pa`dfjVihgrq\&8A
#NLPT.@D1C3&06
#NLPT.@E1CF4EFGK9KLJS>ONQTYD^Z\X`J[Z]aO`_bceUhjfil[&47
#NLPT.A@1C3&03
#NLPT.AB1CF4IFGK9KMJQ>ONQTWD^[ZY[JX\[`bPa`celVjigjm\&76
#NLPT.A@B2E4&35
#NLPT.A@B2F4&36
#NLPT.AAD2D4&37
#NLPT.AAE2D4&38
#NLPT.A@G2D4&39
#NLPT.A@I2D4&3B
#NLPT.A@E2D4&37
#NLPT.A@B2F4&36
#NLPT.@D1E3&08

#NMMN.@0>DCGH6JQQQ;NMOP@RUSU]VGY[J[LbN`ifdjdcmljYj[&56
#KL_c.C0GJJHEO7IKKN<QS?VASCTE^WX\J&53
#KL_c.@@1HLKLOJ8FKLM=RT@VBTDUF_XY[K&7D
#KL_c.@B1HLINON8FKSUQ>SUAVCUEVG`YZ\L&C5
#KL_c.@D1HLEJIL8FPNS=RT@UBTDUF_XY[K&81
#KL_c.@E1HKLGKL8FMSRM>SUAWCUEVG`YZ^L&BB
#KL_c.@H1ICDKII8FKTPP>SUAVCUEVG`YZ\L&AB
#KL_c.A@1HKLILG8FONTP>SUAXCUEVG`YZ^L&B8
#KL_c.AA1HLEFLN8FNNUN>SUAWCUEVG`YZ^L&B4
#KL_c.AB1HKKIFP8JLLO=RT@WBTDUF_XY]K&83
#KL_c.AD1HLFNMO8FNSOO>SUAWCUEVG`YZ\L&C0
#KL_c.AE1HLILMK8MJK<QS?UASCTE^WXZJ&54
#KL_c.BA1HKLKGL8PRM<QS?TWBUDUF_XY]K&92
#KL_c.@ID2IHJIPN9GLQSN?TVBWDVFWHaZ[]M&E9
#KL_c.A@E2FHJKGL9GOSVP?TVBWDWFWHaZ[_M&E3
#KL_c.AAD2FIEJOI9GMLVO?TVBWDWFWHaZ[]M&D7
#KL_c.AAE2FHMJIK9RRR=RT@UBUDUF_XY[K&87
#KL_c.A@G2FHMIJJ9GPPSO?TVBWDWFWHaZ[]M&DF
#KL_c.A@B2FIFLHK9GLSMV?TVBWDWFWHaZ[]M&D6
#KL_c.A@I2FHLNLM9KMRR>SUAVCVEVG`YZ\L&BB
#KLbg.?0BK3EM6IHJ:MMP>PYTBTTEX\HZ\K^^bObahSfiVhlYlkt]pp`rwcvufyzi~k~}or&37
#KLbg.@0C2EDG6IHL:&5E

#\Qpou/BDJ3EGFHL9S;L=N?SASW\YZGYZa[L`ccfQelgjVmlno[rpvx`qt|ew~j~oty~&C6
#NP\U.@H1CDGLNILILP<aTSPQRCTEVGXIZK_]`uggRefUi|pjoo\pnotycw}}j|qw~˼۸ӿ&E3
#NP\U.A@1CDGLNILILP<aTSPQRCTEVGXIZK]a`ugfRdkUii}pjo\nrortcw}{}j}qw~ĵʽǳɺ&66
#NP\U.AA1CDGLNILILP<aTSPQRCTEVGXIZK`b`uggRyzz|Wz}rptq^suwyey}lszöʵʶϽ&E0
#NP\U.AB1CDGLNIKRJS<aTTQQRCZfV\lmJdaor`dQsefgwnXrll_vutw}f|kryöâ˩оŮֵм&CD
#NLXZ.@C1BC4FNOI9N_NSQT@WUTWXXGnm^b\]NpaavciUkonk\rnycuuwzjq&D8
#NLXZ.@D1BC4FNOI9N`PPdd@WUSiYgGnm^\\]NpaavgjUkm~m}\nxwwycyzjo&CB
#NLXZ.@E1BC4FNOI9NaPNcU@WUi\^gGnm\a\]NpaavvvUkhqi\nqtuzcww~~jq&2E
#NLXZ.@F1BC4FNOI9OKPRSU@WUTj\iGnm`m\]NpaavgkUwy~{jl\b{x}i|}p&F7
#NLXZ.@G1BC4FNOI9OLQVbU@WUTYWjGnm^]\]NpaauteUzlynk\nruycy{y|j}~q&C1
#NLXZ.@H1BC4FNOI9OMTTWd@WUiX^YGnm]q\]NpaauwhUhohins\ouyc}y}j~}~q&E2
$[AGT],GSET=1
$[AGT],rm,1,rt,7
$[AGT],fgFirstReq:0
$[AGT],bitmap,old: 108,new: 108
$[AGT],fsm,wm,3
$[AGT],skip
085401.891,HBD,IF1,TIM,DSP,u1ChnNum,37,u2DataSize,57
085401.891,HBD,IF1,COM,BinDecX,65065
085401.891,HBD,IF1,TIM,DSP,u1ChnNum,48,u2DataSize,57
085401.891,HBD,IF1,COM,BinDecX,65065
085401.891,HBD,IF1,GPS,TkDltIn,2011,2017,6
085401.891,HBD,IF1,TIM,NWloc,fgfirstUseNW,0,case,0,NWAID,0,NWUSE,0
085401.898,HBD,IF1,AGP,BOOST,Posdiff:1469.120605,0.556354,num:0,PosConverge,0,BoostRemT,17.000

#MZYQ.C@1B3&17
$LOC_Cache_BIT,00000002*7D
085401.898,HBD,IF1,AGP,AGPSMGN,Posdiff:1469.120605,0.556354,num:0,PosConverge,0,AGPSRemT,16.000
085401.898,HBD,IF1,TIM,RstFSAg,3.0

#MZYQ.AE1B3&1A

#XPda.CBDI3&4F

#MZYQ.@B1CCLX6G8Z[RU=&24

#MZYQ.AH1HG4&57
085401.898,HBD,IF1,AGP,AGPSMGN,AGPSMode:-1,AGPSTimer:0.000
$PMTK015,85401894,10,3011,AMode,-1,ATimer,0.000,Remain,16.000*66
085401.898,HBD,IF1,AGP,AGPSMGN,DOP.H :1.105807,PosCon:0,[32.710793,22.438700,3.551899]
$PMTK015,85401894,6,3011,NACQ,8,NBS,8,NSFS,4,NEXS,4*68
$HBD,INF,RTC,F,0,Y,16,M,1,D,26,H,6,M,14,Sec,14,Sub,24951,T,3005,SM,12069*37
$DBts1,TSOK,1,WNSet,1,TOWS,9,WN,1881,BAcc,22.008,TAcc,22.008,*6D
$DBts2,TTK,3011,TOW,195271.775000000,B,0.000164685,D,0.000001316,*02
$RtcUpdate,TOW,195271.775000000,*06
085401.898,HBD,IF1,TIM,HALTIME,0,
085401.898,HBD,IF1,TIM,HALTSTA,0,
085401.898,HBD,IF1,TIM,HALTIME,2,REST
$RtcAcc,InitTick,1.000000000,InitTow,195268.764847881,Accus,8.603*26
085401.898,HBD,IF1,ALO,CdmPvtU,
$HBD,INF,RTC,F,0,Y,0,M,0,D,0,H,0,M,0,Sec,0,Sub,0,T,0,SM,0*02
$GNGGA,061414.774,2458.5476,N,12119.6857,E,1,9,1.11,131.5,M,15.0,M,,*47
$GPGSA,A,3,18,10,25,12,193,24,14,15,22,,,,1.42,1.11,0.89*35
$GLGSA,A,3,,,,,,,,,,,,,1.42,1.11,0.89*19
$GPGSV,4,1,13,18,86,158,33.3,193,58,162,37.0,10,57,322,33.2,25,46,148,31.3*4A
$GPGSV,4,2,13,12,44,086,34.4,24,35,036,28.3,14,33,309,27.6,21,26,209,*61
$GPGSV,4,3,13,15,22,080,29.6,20,20,142,,22,18,318,32.5,04,18,318,*7A
$GPGSV,4,4,13,31,17,235,*4B
$GLGSV,2,1,6,78,80,248,,67,59,074,,68,38,344,,77,38,024,*5C
$GLGSV,2,2,6,79,33,214,,66,18,123,*53
$GNRMC,061414.774,A,2458.5476,N,12119.6857,E,1.081,183.67,260116,,,A*4E
$GNVTG,183.67,T,,M,1.081,N,2.003,K,A*21
$GNACCURACY,6.2*12
$PMTKDGP,0*4D
$PMTKDBG,3011,1,1,0,1,0,0,0,1,0,0,0,0,0,0,0,0,0,0,1,1,1,1,1,0,0,0,0,0,0,0,0,0,0028,0031,0002,0009,0009,0000,0001,0000,0.0000,1.3163,0.0000,0.0000,0.0000,0.0000,*4C
$PMTKDB2,0D1F,0000,0000,0000,0000,0000,0000,0700,0039.67,0000.00,13163.39,0022.01,0001.71,0164.68,00-0.21,0000.00,*3C
$PMTKEPH,41,2,4,5,10,12,13,14,15,18,20,21,22,24,25,29,30,-31.2.5,193,-65.2.5,-66.2.5,-67.2.5,-68.2.5,-69.2.5,-70.2.5,-71.2.5,-72.2.5,-73.2.5,-74.2.5,-75.2.5,-76.2.5,-77.2.5,-78.2.5,-79.2.5,-80.2.5,-82.2.5,-83.2.5,-84.2.5,-85.2.5,-86.2.5,-87.2.5,-88.2.5*5B
$PMTKALM,32,1,2,3,5,6,7,8,9,10,11,12,13,14,15,16,17,18,19,20,21,22,23,24,25,26,27,28,29,30,31,32,193*51

#WXM[.?0A2C4E6G8I:K<M>O@QBSDUFWHYJ[L]N_PaRcTeVgXiZk\m^o`qbsdufwhyj{l}npy&37

#NM^Z.BB1ECEF6H8JKS<NNT@QBSD&10
#\XOU.?0BJ3GK6G8ON;RPPb@QBUWWVGZ\\[LbNacQcfdfnhXkkmqpo_rs|drwzx~orw|&8C
#\XOU.@0BB3GK6G8ON;RPPb@QBVTUFZXYJ`L_bOadbdlfVihrpto]wrwbpuuzzylosx{&7D
#\XOU.A0CG3GK6G8NO;RPPb@QB[TE^WH^J]\M_b`bjdTgfnnpn[ouq`sutw~~zzi|~lzrwz~&56
#\XOU.B0BD3GM6G8ON;QPPb@QBWXUF[\YJ`L_dOadbdlfVihprtr]ubpuw}x|z}}mpuz}&28
#\XOU.C0BKF4IF7H9PO<RUQcARCU[\WHZ`a\McOcfRdgegoiYkpsowt`xryesxx~{}psx}&B0
#\XOU.D0E2C4E6G8[KKL=N?PARCWEVGY\Z\d^N`ijecgUnyiZrsrpxpyzcuzf{zj{|}~oqsuz|&CC
#\XOU.E0CF3GG6G8ON;TNP`@QBTV[VGY[`[LbNePbecemgWjinssr^yrcqxxwxy~}nqv{~&2D
#\XOU.F0BF3GF6G8ON;TNP`@QBXVUF\ZYJ`LcN`cackeUhgkmmp\uoaowyu{z}y~k}nrwz~&6A
#\XOU.G0BG3GG6G8ON;SNP`@QBTUUVGYZZ[LbNfPbecemgWjijlqp^stucqw{}z|nqv{~&B2
#\XOU.H0CB3FJ6G8LS;TRPQ@QBSDUF\HZJ\_]_gaQdcdhkmXppo]kruvvxwyxxhzk}puw{}&05
#\XOU.@@1DE4HK7H9PO<SOQaARCUUXWHZZ]\McOafRdgegoiYktupoo`rxe}}xnqw|&8C
#\XOU.@E1DCE5GN8I:NN=WPPQBSDUFWH^J[L`aaeeRfjhighYmqo^lqrsxtzi{l~qvxz|&37
#\XOU.@F1DCE5GI8I:ML=_PRSBSDUFWH^J\L`aaeeRfjhhppYps^lqq{zt{{|zi{|l~qvx{}&AD
#\XOU.@G1DDG5F7H9J;UNNO@QBSDUFZHYJ^__ccPdgchlmWmp{t\jorwqux{||gy|j{l}~qsuw|~&19
#\XOU.@H1DCL5F7H9J;UNNO@QBSDUFZHYJ^__ccPdfjljhWnoj|\upxptrwtewyhyj{|}~oqsuz|&AD
#\XOU.@I1DCH5F7H9J;UNNO@QBSDUFZHYJ^__ccPdfhhnoWo|n\jqptqv{yvxgy{j{l}~qsuw|~&23
#\XOU.A@1DCE5F7H9J;UNNO@QBSDUFZHYJ^__ccPdgdjeoWon~n\jopqzuxx}~gyyj{l}~qsuw|~&09
#\XOU.AA1DCJ5F7H9MM<_OOPARCTEVG]IZK_``ddQeglempX~|ru]kruyrv{xy}hz{k~otvxz&0C
#\XOU.AB1DDH5J7H9MM<_OOPARCTEVG]IZK_``ddQeglhkiXr}]svuqwyv}fxziw~nsuwy~&C3
#\XOU.AC1DDG5GH8I:NN=`PPQBSDUFWH^J[L`aaeeRfjgihjYq}^lqtwt{}vy|ik}puwy{&32
#\XOU.AD1DDH5F7H9J;UNNO@QBSDUFZHYJ^__ccPdfkhgfWlor|\ruspzwvzegxiz{|}nprty{~&88
#\XOU.AE1DCJ5F7H9J;UNNO@QBSDUFZHYJ^__ccPdfkggmWlpk\jqtwy{ut~|gy|j{l}~qsuw|~&1F
#\XOU.AF1ED4E6G8I:SMMN?PARCTE\GXI[^\^f`PbiimmmWimlk\qvxuvu|vewzhyj{|}~ortv{}&AC
#\XOU.BG1DCL5F7H9J;UNNO@QBSDUFZHYJ^__ccPdfjjefWnn{n\upxptrwtewwhyj{|}~oqsuz|&A5
#\XOU.CH1DD4E6G8I:SQMN?PARCTE\GXI[^\^f`PcbdkkiWl}q\jpwwvyt}{~gyj{l}~qsuw|~&04

#NM`a.B@BC3E5F7H9J;L=N?PQRSTUVWHYJ[L&54
#NLPT.@H1CF4EFGK9GTJM>ONRRXD[YYHVcYabN`^ibcTfdopY&F7
#NLPT.@@1CF4EFGK9GORKN?PORY\E_Za^\KYf\abQbadehWiohss]&C1
#NLPT.AE1CF4EFGK9GLRKT?POR[XE_[`_[KYe\fgQbahekWjnhtl]&D2
#NLPT.@B1CF4EFGK9GPJR>ONYRVDYV\^IWcZe_O`_cheUoepoZ&2D
#NLPT.@ID2DG5FGHL:HRKP?PORS\EWWX^JXe[bbPd`kdhVkflq[&56
#NLPT.C0B2&D5
#NLPT.AD1CF4EFGK9JIR=NMUZZCU[XXHVcYcaN`^ahhTldmmY&08
#NLPT.@D1CF4EFGK9GNOKT?PORTYEX\aaJXe[daPa`kdmVhkgkk\&8C
#NLPT.@E1CF4EFGK9KLJU>ONQRVDV\ZZIWdZbdOd_edlUleqrZ&35
#NLPT.A@1D3&04
#NLPT.AB1CF4IFGK9GONKN?QOYWXEWX]bJXe[gaPe`limVlfnn[&71
#NLPT.A@B2E4&35
#NLPT.A@B2F4&36
#NLPT.AAD2F4&39
#NLPT.A@I2D4&3B
#NLPT.A@E2D4&37
#NLPT.A@B2F4&36
#NLPT.A@G2E4&3A
#NLPT.AAE2E4&39
#NLPT.AAD2E4&38
#NLPT.AAE2F4&3A
#NLPT.A@G2F4&3B
#NLPT.BA1C3&05

#NMMN.@0>DCKH6JQQN;OMOP@RUSU]WGY[J[LfN`ifdjecmnmYj[&63
#KL_c.C0BKLGFF7IJPS<QP?TASCWE^WX\J&4F
#KL_c.@@1DCMKOJ8FKPT=RQ@UBTDXF_XY[K&7B
#KL_c.@B1DCKMOM8FKTOU>SRAVCUEYG`YZ\L&B7
#KL_c.@D1DCGIIL8FPSN=RQ@UBTDXF_XY[K&75
#KL_c.@E1DCDFKJ8FMTLP>SRAVCUEYG`YZ^L&A1
#KL_c.@H1DDFJIH8FKTTV>SRAVCUEYG`YZ\L&B1
#KL_c.A@1DCDHKN8FOONO>SRAVCUEYG`YZ^L&A1
#KL_c.AA1DCGELL8FNOOM>SRAVCUEYG`YZ^L&9F
#KL_c.AB1CLMHGG8JKQT=RQ@UBTDXF_XY]K&7F
#KL_c.AD1DCHMML8FNSSU>SRAVCUEYG`YZ\L&BA
#KL_c.AE1DCKKMK8LOS<QP?TASCWE^WXZJ&53
#KL_c.BA1DCDJGM8PNM<QP?TWBUDUF_XY]K&77
#KL_c.@ID2DILHPM9GLRMQ?TSBWDVFZHaZ[]M&E3
#KL_c.A@E2FILGPI9GOTPP?TSBWDWFZHaZ[_M&E3
#KL_c.AAD2FJGGMQ9GMMPU?TSBWDWFZHaZ[]M&DE
#KL_c.AAE2FJEGHJ9RMT=RQ@UBUDXF_XY[K&79
#KL_c.A@G2FJEFHQ9GPQMW?TSBWDWFZHaZ[]M&DE
#KL_c.A@B2FJHIGI9GLSRS?TSBWDWFZHaZ[]M&D5
#KL_c.A@I2FINKKL9KMNQ>SRAVCVEYG`YZ\L&B4
#KLbg.?0BK3EM6IHJ:MMP>PYTBTTEX\HZ\K^^bObahSfiVhlYlkt]pp`rwcvufyzi~k~}or&37
#KLbg.@0C2EDG6IHL:&5E

#\Qpou/BAB3EGGNN9KN<M>O@QBTX^[\Hbb\L`cccQeghlVmnrp[rtpw`qtewj~oty~&D6
#NP\U.AD1CDGLNILILP<aTSPQRCTEVGXIZK`a`uggRyz{xW~~rn~q^sty|eyy|lszñȣ̻Ͼڶӽ&AF
#NP\U.AE1CDGLNILILP<aTSQQRCTEVGXIZKad`uggRyzxmW~kku^twqsexzlsyôͽ˫Բ˹&47
#NP\U.AI1CDGLNHPLKS<aTSPQRCTEVGXIZKe_tffQkSijn{|iZt`tt{vgnu|óǦĭشһ&D3
#NP\U.B@1CDGLNHIKOM<aTSPQRCTEVGXIZK^n`sreRelUxxmn[n~bvuu{ipw~ŲʻϫſԲڹ&39
#NLXZ.@I1BC4FNOI9ONQ`Qc@WUTWY_Gnm^[\]NpabkdzUznylk\nwsqwcwzj}~q&CE
#NLXZ.A@1BC4FNOI9OONUVO@WUiY[^Gnm]p\]NpaavdgUhl}kjt\pspqcw~~|j~}~q&8A
#NLXZ.AA1BC4FNOI9OP^``P@WUifggGnm]^\]NpaauywU|{p{~\sqxvcu}~jq&95
#NLXZ.AB1BC4FNOI9OQObOd@WUiWWiGnm]m\]NpabjhkUhohqqo\~v{c{xwz|j~q&EB
#NLXZ.AC1BC4FNOI9ORQRVT@WUSV]ZGnm]\\]NpaavihUkj|qm\vsvwvcv~y|jq&E9
#NLXZ.AD1BC4FNOI9OSNORU@WUSY^hGnm]q\]NpaautlUm{yp|\qvvsbtt}xwzi|}p&88
$[AGT],GSET=2
$[AGT],rm,1,rt,7
$[AGT],fgFirstReq:0
$[AGT],bitmap,old: 108,new: 108
$[AGT],fsm,wm,3
$[AGT],skip
085403.109,HBD,IF1,TIM,DSP,u1ChnNum,37,u2DataSize,57
085403.109,HBD,IF1,COM,BinDecX,65065
085403.109,HBD,IF1,GPS,TkDltIn,3011,3024,13
$QEPO_Request*05
$[AGT],GSET=3
$[AGT],rm,1,rt,10
$[AGT],set Qepo req
$[AGT],TSETe=3
$[AGT],inco
$[AGT],rm,0
$[AGT],remd == 0
085403.109,HBD,IF1,TIM,NWloc,fgfirstUseNW,0,case,0,NWAID,0,NWUSE,0
085403.109,HBD,IF1,AGP,BOOST,Posdiff:45.154266,0.327218,num:10,PosConverge,1,BoostRemT,15.774
$Boost, flag on*64
$LOC_Cache_BIT,00000002*7D
085403.109,HBD,IF1,AGP,AGPSMGN,Posdiff:45.154266,0.327218,num:0,PosConverge,0,AGPSRemT,16.000

#XPda.DBDI3&50

#MZYQ.@B1CGKI6G8Z\_^=&2F

#MZYQ.AH1HG4&57
085403.109,HBD,IF1,AGP,AGPSMGN,AGPSMode:-1,AGPSTimer:0.000
$PMTK015,85403114,10,4237,AMode,-1,ATimer,0.000,Remain,16.000*64
085403.109,HBD,IF1,AGP,AGPSMGN,DOP.H :0.815512,PosCon:0,[20.053028,14.186833,2.951393]
$PMTK015,85403114,6,4237,NACQ,10,NBS,10,NSFS,4,NEXS,4*6A
$HBD,INF,RTC,F,0,Y,16,M,1,D,26,H,6,M,14,Sec,15,Sub,6704,T,4229,SM,11961*01
$DBts1,TSOK,1,WNSet,1,TOWS,9,WN,1881,BAcc,14.621,TAcc,14.621,*6D
$DBts2,TTK,4237,TOW,195273.001000000,B,0.000166328,D,0.000001318,*0B
085403.109,HBD,IF1,TIM,HALTIME,0,
085403.109,HBD,IF1,TIM,HALTSTA,0,
$RtcAcc,InitTick,1.000000000,InitTow,195268.764847881,Accus,8.625*22
085403.109,HBD,IF1,ALO,CdmPvtU,
$HBD,INF,RTC,F,0,Y,16,M,1,D,26,H,6,M,14,Sec,15,Sub,6704,T,4229,SM,11961*01
$GNGGA,061416.000,2458.5445,N,12119.6837,E,1,11,0.82,131.4,M,15.0,M,,*74
$GPGSA,A,3,18,10,25,12,193,24,14,15,20,22,31,,1.14,0.82,0.79*32
$GLGSA,A,3,,,,,,,,,,,,,1.14,0.82,0.79*1E
$GPGSV,4,1,13,18,86,158,31.0,193,58,162,36.0,10,57,322,33.4,25,46,148,31.6*49
$GPGSV,4,2,13,12,44,086,34.2,24,35,036,29.1,14,33,309,28.2,21,26,209,*6F
$GPGSV,4,3,13,15,22,080,28.5,20,20,142,22.6,22,18,318,31.9,04,18,318,*6F
$GPGSV,4,4,13,31,17,235,31.3*54
$GLGSV,2,1,6,78,80,248,,67,59,074,,68,38,344,,77,38,024,*5C
$GLGSV,2,2,6,79,33,214,,66,18,123,*53
$GNRMC,061416.000,A,2458.5445,N,12119.6837,E,0.636,206.90,260116,,,A*43
$GNVTG,206.90,T,,M,0.636,N,1.178,K,A*22
$GNACCURACY,4.9*1B
$PMTKDGP,0*4D
$PMTKDBG,4237,1,1,0,1,0,0,0,1,0,0,0,0,0,0,0,0,0,0,1,1,1,1,1,0,0,0,0,0,0,0,0,1,0028,0035,0002,0011,0011,0000,0001,0000,0.0000,1.3180,0.0000,0.0000,0.0000,0.0000,*45
$PMTKDB2,0D12,0000,0000,0000,0000,0000,0000,0700,0024.56,0000.00,13180.70,0014.62,0000.34,0166.33,00-0.21,0000.00,*4A
$PMTKEPH,41,2,4,5,10,12,13,14,15,18,20,21,22,24,25,29,30,-31.2.5,193,-65.2.5,-66.2.5,-67.2.5,-68.2.5,-69.2.5,-70.2.5,-71.2.5,-72.2.5,-73.2.5,-74.2.5,-75.2.5,-76.2.5,-77.2.5,-78.2.5,-79.2.5,-80.2.5,-82.2.5,-83.2.5,-84.2.5,-85.2.5,-86.2.5,-87.2.5,-88.2.5*5B
$PMTKALM,32,1,2,3,5,6,7,8,9,10,11,12,13,14,15,16,17,18,19,20,21,22,23,24,25,26,27,28,29,30,31,32,193*51

#WXM[.?0A2C4E6G8I:K<M>O@QBSDUFWHYJ[L]N_PaRcTeVgXiZk\m^o`qbsdufwhyj{l}npy&37

#NM^Z.BB1FEGL6H8JKT<NNT@QBSD&1C
#\XOU.?0BJ3GI6G8OM;QPPb@QBVX[VG[]`[LbNdgQcfdfnhXjnqrtpw`twesxz~psx}&CE
#\XOU.@0BB3GK6G8ON;QPPb@QBTYUVGY^Z[LbNe`QcfdfnhXjnqouwp`y|esz}|nquz|&E1
#\XOU.A0CG3GJ6G8ON;QPPb@QBTVWVGY[\[LbNdfQcfdfnhXjnqmuur`sx}exz|||}nqw|&71
#\XOU.B0BD3GL6G8ON;QPPb@QBTZUVGY_Z[LbNdhQcfdfnhXjnqnmwq`xy|esxz}}psx}&C9
#\XOU.C0BKF4HO7H9PO<RUQcARCV]XWH[b]\McOeiRdgegoiYkomnrxrat{ftyy~qty~&16
#\XOU.D0E2C4E6G8[KKL=N?PARCWEVGY\Z\d^N`dfehdgVn{mj[stsqyqz{dwwg|{k|}~prtv{}&E1
#\XOU.E0CF3GG6G8ON;RNPb@QBUU[VGZZ`[LbNbfQcfdfnhXjnpumtx`zeszypsy~&EF
#\XOU.F0BF3GF6G8OM;QNPb@QBTYYVGY^^[LbNbdQcfdfnhXjnpssqq`tes{|~}orw|~&2E
#\XOU.G0BG3GG6G8ON;RNPb@QBT]]VGYbb[LbNb`QcfdfnhXjnppprw`stwesy}~|psx}&A8
#\XOU.H0CB3FK6G8ON;URP`@QBTUWVGYZ\[LbNePbecemgWimooqrn_rvzvdry|}~orw|&20
#\XOU.@@1DE4HK7H9PO<ROQcARCVV^WH[[c\McOeiRdgegoiYkoqpsoyazzf~~~}orx}&93
#\XOU.@A1DD4E6G8I:]OMN?PARCTEYGXI[^\^f`PbfhkgjpXrjlr]kqyquuxy~wh{~k|m~rtvx}&FD
#\XOU.@B1ED4HJ7H9PO<ROQcARC]UVGaYZKaMbhPbecemgWimoosnr_yusydy~{zz~}mp~uz|&94
#\XOU.@E1DCE5GL8I:ML=`PRSBSDUFWH^J\L`aaefRgkmmonYmtpo^lqrrt{yy~i{l~qvx{}&85
#\XOU.@F1DCF5L7H9KS<TNOPARCTEVG]I[K\M_hffhkTvwlkYgnoororrsudvwg~}k|}~pruw|~&47
#\XOU.@G1DCL5F7H9J;^PNO@QBSDUFZHYJ^__cdPeihdgmWopq\unqqwryxewwhyj{|}~oqsuz|&C1
#\XOU.@H1DCH5F7H9J;^PNO@QBSDUFZHYJ^__cdPeiejlhWjp~q\jqpvwx|}zxgz~j{l}~qsuw|~&30
#\XOU.A@1DCE5GN8I:NN=WPPQBSDUFWH^J[L`aaefRgjlfpkY|m^lqqz{z{{}xi{{l~qvxz|&63
#\XOU.AA1DCJ5GG8I:NN=`PPQBSDUFWH^J[L`aaefRgjhkmkY}rt^lsv{ut|v{|i{lqvxz|&58
#\XOU.AB1DDH5GO8I:LR=`PRSBSDUFWH^J\L`aaefRgjhnjpYpoq^txz{x}uzgyjx}puwz|&6B
#\XOU.AC1DDG5GK8I:LP=`PRSBSDUFWH^J\L`aaefRgklmpoY|lrm^lqtwyz~}i{l~qvx{}&C0
#\XOU.AD1DCG5HH8I:LP=UORSBSDUFWH^J`L]Nc`gkhkU|zklZhotvuyxwy|ew{h|{}m~rtwy~&D2
#\XOU.AF1DCG5F7H9J;QMNO@QBSDUFZHYJ[Lc__feRxujjWekqklmvrrqbtuevgxyz{l}nprwy|~&FF
#\XOU.BG1EJ4E6G8I:PLMN?PARCTEYGXIZK]^b_feRyz{|Wlqkqtvto`rsctevwxyj{l}npuwz|~&AF
#\XOU.CH1B3D5F7H9JKLM>O@QBSDUFWHYJ[L]^_`QbSdUfWhijk\m^o`qbstuvgxizk|m~oq&36

#NM`a.CBDI3E5F7H9J;L=N?PQRSTUVWHYJ[L&5F
#NLPT.@H1CF4EFGK9GOJR>ONQS\D\_YHZX_cM^]ihkSgcikX&D7
#NLPT.@@1CF4EFGK9GMRKO?QOUSVEWW_`J\Z_eOa_cfkUjepkZ&1D
#NLPT.AE1CF4EFGK9GMOKW?QOUZUEWX\_J[Z]dO`_cfgUkekmZ&20
#NLPT.@B1CF4EFGK9GMOKR?PO[WZEWW`ZJ[ZafO`_bgfUjepjZ&22
#NLPT.@ID2DG5FGHL:HTKU?POR\VE[]YIZYccN_^hjeTfdjmY&04
#NLPT.C0B2&D5
#NLPT.AD1CF4EFGK9GMQKN?POTV]EWX_`J[Za^O`_bcgUieioZ&16
#NLPT.@D1CF4EFGK9GOJV>ONQSYDV]Y[IZY_cN_^abhTldhlY&EA
#NLPT.@E1CF4EFGK9GLMKP?PORSTEW][[JX\[abPa`elhVmfkl[&3A
#NLPT.A@1CF4EFGK9GNUVLS@QPTYWFXX[[]c`fO]b`elUfelmq[msltva&8E
#NLPT.AB1CF4IFGK9GLRKU?POTZVE]X]IZY]fN_^ahjTgdjlY&F8
#NLPT.AA1C3&04
#NLPT.BA1CF4MFGK9GKJV>ONQRZDWW[\IW[Zb_O`_hekUggfln[&4B
#NLPT.A@B2F4&36
#NLPT.A@I2D4&3B
#NLPT.A@E2D4&37
#NLPT.A@B2E4&35
#NLPT.A@G2E4&3A
#NLPT.AAE2E4&39
#NLPT.AAD2E4&38

#NMMN.@0>DCKK6JQOP;POQV@RUSU]WGY[J[LfN`ifdjgcfgiYj[&61
#KL_c.C0BFHGJFP8JKQU=PV@UBTDXF_XY]K&87
#KL_c.@@1CGJHNPI9GLQR>QWAVCUEYG`YZ\L&AE
#KL_c.@B1CGJGFPK9GLUPU?RXBWDVFZHaZ[]M&E2
#KL_c.@D1CGILLJJ9GQTM>QWAVCUEYG`YZ\L&B1
#KL_c.@E1CGIIIKP9GNUMR?RXBWDVFZHaZ[_M&E7
#KL_c.@H1CGJKMIP9GLUUS?RXBWDVFZHaZ[]M&F4
#KL_c.A@1CGIIKLI9GPPOR?RXBWDVFZHaZ[_M&DE
#KL_c.AA1CGILHLQ9GOPPO?RXBWDVFZHaZ[_M&E4
#KL_c.AB1CGIHKGQ9KLRV>QWAVCUEYG`YZ^L&B7
#KL_c.AD1CGINFMQ9GOTTT?RXBWDVFZHaZ[]M&F3
#KL_c.AE1CGJFNNK9MPU=PV@UBTDXF_XY[K&8B
#KL_c.BA1CGIIMHL9QOM=PV@UXCVEVG`YZ^L&B5
#KL_c.@ID2DHFGKQK:HMSNO@SYCXEWG[Ib[\^N&0C
#KL_c.A@E2GKGLNM9GOTPR?RXBWDWFZHaZ[_M&ED
#KL_c.AAD2GKLLLL9GMMPS?RXBWDWFZHaZ[]M&E5
#KL_c.AAE2GKJKPQ9RNM=PV@UBUDXF_XY[K&90
#KL_c.A@G2GKJKGK9GPQMU?RXBWDWFZHaZ[]M&E4
#KL_c.A@B2GKMMON9GLSRO?RXBWDWFZHaZ[]M&EC
#KL_c.A@I2GKJFJI9KMNQ>QWAVCVEYG`YZ\L&AD
#KLbg.?0BK3EM6IHJ:MMP>PYTBTTEX\HZ\K^^bObahSfiVhlYlkt]pp`rwcvufyzi~k~}or&37
#KLbg.@0C2EDG6IHL:&5E

#\Qpou/BH2DGMJH8I:K<M>O@RWZY]FY\bJ\ca`OaiegTjhgmYolus^ortcv}h|~m~rw|&51
#NP\U.BC1CDGLNIKRMS<aTUPQVC\UVWXYJ[L]NueQwxgeknXkmp_rf{msz¶ȣΪſҰƷ;&8A
#NLXZ.AE1BC4FNOI9OTNVRS@WUT[]kGnm`]\]NpaaufeUwpklk\nstrvcvyyj}q&D4
#NLXZ.AF1BC4FNOI9O\LSRa@WUSfi]Gnm_\\]NpaavfzUwo}{qm\vxwzcxyzj}q&35
#NLXZ.AG1BC4FNOI9O]MVTO@WUTUihGnm]p\]NpaauteUzjy}}o\uupsbx||i{|~o&71
#NLXZ.AH1BC4FNOI9O^]Pae@WUTi^lGnm`m\]NpaauudUwzkikl\xqzc{{|j}}~q&19
#NLXZ.AI1BC4FNOI9O_LURc@WUTYh]Gnm^]\]NpaaulfUzmilqm\voc{~zj}~q&D5
#NLXZ.B@1BC4FNOI9O`La_U@WUS[ZjGnm^]\]NpaauuwUnhm{l\truzc|j|}p&DB
$[AGT],GSET=3
$[AGT],rm,1,rt,7
$[AGT],fgFirstReq:0
$[AGT],bitmap,old: 108,new: 108
$[AGT],inco
$[AGT],srm,1,dsm,4,tp,7,length,12
$[AGT],tp,264,wn,1881,tw,195273,si,12
$[AGT],rm,2
$[AGT],state:7
$[AGT],wn:1881, tw:195273
$[AGT],ergt
$[AGT],
$[AGT],Esgt 1137715200
$[AGT],epegt
$[AGT],gfisiz()
$[AGT],egtEf,1140307200
$Rdon
$[AGT],res,1137824073,sst,1137715200,egsn,1140307200
$[AGT],wk,epo
$[AGT],s,1,m,1
$[AGT],idle
$@#$^ [AGNT] pEd
$[AGT],opmode GLO(1),GEL(0),DB(0)
$[AGT],tw,195273,gs,1137824073
$[AGT],eextd
$[AGT]start verify
$[AGT],gfisiz()
$[AGT]FileType:GPS+GLO
$[AGT],
$[AGT],epegt
$[AGT],gfisiz()
$[AGT],Extract epo done
$[AGT],GSET=3
$[AGT],rm,4,rt,8
$[AGT],inco
$[AGT],srm,4,dsm,4,tp,8,length,12
$[AGT],tp,264,wn,1881,tw,195273,si,12
$[AGT],rm,3
$[AGT],state:6
$[AGT],wn:1881,tw:195273
085403.117,HBD,IF1,MSG,AidEPO,SV,1,path_2NG,ValidEPO,0,u4CurrGpsSecs,1137824073,u4GpsSecs,1137823200,seq,45,NAseq,45,Age_Epo,17,Naage,17,NaValidGEPO,1
085403.117,HBD,IF1,MSG,AidEPO,SV,2,path_2NG,ValidEPO,0,u4CurrGpsSecs,1137824073,u4GpsSecs,1137823200,seq,45,NAseq,45,Age_Epo,17,Naage,17,NaValidGEPO,1
085403.117,HBD,IF1,MSG,AidEPO,SV,3,path_2NG,ValidEPO,0,u4CurrGpsSecs,1137824073,u4GpsSecs,1137823200,seq,45,NAseq,45,Age_Epo,17,Naage,17,NaValidGEPO,1
085403.117,HBD,IF1,MSG,AidEPO,SV,4,path_2NG,ValidEPO,1,u4CurrGpsSecs,1137824073,u4GpsSecs,1137823200,seq,45,NAseq,0,Age_Epo,17,Naage,0,NaValidGEPO,0
085403.117,HBD,IF1,MSG,AidEPO,SV,5,path_2NG,ValidEPO,0,u4CurrGpsSecs,1137824073,u4GpsSecs,1137823200,seq,45,NAseq,45,Age_Epo,17,Naage,17,NaValidGEPO,1
085403.117,HBD,IF1,MSG,AidEPO,SV,6,path_2NG,ValidEPO,0,u4CurrGpsSecs,1137824073,u4GpsSecs,1137823200,seq,45,NAseq,45,Age_Epo,17,Naage,17,NaValidGEPO,1
$[AGT],BGAI
085403.117,HBD,IF1,MSG,AidEPO,$[AGT],0,av:62,b_sky:0
$[AGT],1,av:70,b_sky:0
$[AGT],2,av:114,b_sky:0
$[AGT],3,av:0,b_sky:0
$[AGT],4,av:72,b_sky:0
$[AGT],5,av:68,b_sky:0
$[AGT],6,av:68,b_sky:0
$[AGT],7,av:60,b_sky:0
$[AGT],8,av:68,b_sky:0
$[AGT],9,av:124,b_sky:0
$[AGT],10,av:62,b_sky:0
$[AGT],11,av:124,b_sky:0
$[AGT],12,av:72,b_sky:0
$[AGT],13,av:124,b_sky:0
$[AGT],14,av:122,b_sky:0
$[AGT],15,av:58,b_sky:0
$[AGT],16,av:66,b_sky:0
$[AGT],17,av:122,b_sky:0
$[AGT],18,av:64,b_sky:0
$[AGT],19,av:72,b_sky:0
$[AGT],20,av:122,b_sky:0
$[AGT],21,av:124,b_sky:0
$[AGT],22,av:64,b_sky:0
$[AGT],23,av:122,b_sky:0
$[AGT],24,av:122,b_sky:0
$[AGT],25,av:58,b_sky:0
$[AGT],26,av:58,b_sky:0
$[AGT],27,av:64,b_sky:0
$[AGT],28,av:122,b_sky:0
$[AGT],29,av:70,b_sky:0
$[AGT],30,av:56,b_sky:1
$[AGT],31,av:104,b_sky:0
$[AGT],Eend:1, Send:1, ct:1
$[AGT],wkbee
$[AGT],s,1,m,2
$[AGT],idle
$@#$^ [AGNT] sBi
SV,7,path_2NG,ValidEPO,0,u4CurrGpsSecs,1137824073,u4GpsSecs,1137823200,seq,45,NAseq,45,Age_Epo,17,Naage,17,NaValidGEPO,1
085403.125,HBD,IF1,MSG,AidEPO,SV,8,path_2NG,ValidEPO,0,u4CurrGpsSecs,1137824073,u4GpsSecs,1137823200,seq,45,NAseq,45,Age_Epo,17,Naage,17,NaValidGEPO,1
085403.125,HBD,IF1,MSG,AidEPO,SV,9,path_2NG,ValidEPO,0,u4CurrGpsSecs,1137824073,u4GpsSecs,1137823200,seq,45,NAseq,45,Age_Epo,17,Naage,17,NaValidGEPO,1
085403.125,HBD,IF1,MSG,AidEPO,SV,10,path_2NG,ValidEPO,0,u4CurrGpsSecs,1137824073,u4GpsSecs,1137823200,seq,45,NAseq,45,Age_Epo,17,Naage,17,NaValidGEPO,1
085403.125,HBD,IF1,MSG,AidEPO,SV,11,path_2NG,ValidEPO,0,u4CurrGpsSecs,1137824073,u4GpsSecs,1137823200,seq,45,NAseq,45,Age_Epo,17,Naage,17,NaValidGEPO,1
085403.125,HBD,IF1,MSG,AidEPO,SV,12,path_2NG,ValidEPO,0,u4CurrGpsSecs,1137824073,u4GpsSecs,1137823200,seq,45,NAseq,45,Age_Epo,17,Naage,17,NaValidGEPO,1
085403.125,HBD,IF1,MSG,AidEPO,SV,13,path_2NG,ValidEPO,0,u4CurrGpsSecs,1137824073,u4GpsSecs,1137823200,seq,45,NAseq,45,Age_Epo,17,Naage,17,NaValidGEPO,1
085403.125,HBD,IF1,MSG,AidEPO,SV,14,path_2NG,ValidEPO,0,u4CurrGpsSecs,1137824073,u4GpsSecs,1137823200,seq,45,NAseq,45,Age_Epo,17,Naage,17,NaValidGEPO,1
085403.125,HBD,IF1,MSG,AidEPO,SV,15,path_2NG,ValidEPO,0,u4CurrGpsSecs,1137824073,u4GpsSecs,1137823200,seq,45,NAseq,45,Age_Epo,17,Naage,17,NaValidGEPO,1
085403.125,HBD,IF1,MSG,AidEPO,SV,16,path_2NG,ValidEPO,0,u4CurrGpsSecs,1137824073,u4GpsSecs,1137823200,seq,45,NAseq,45,Age_Epo,17,Naage,17,NaValidGEPO,1
085403.125,HBD,IF1,MSG,AidEPO,SV,17,path_2NG,ValidEPO,0,u4CurrGpsSecs,1137824073,u4GpsSecs,1137823200,seq,45,NAseq,45,Age_Epo,17,Naage,17,NaValidGEPO,1
085403.125,HBD,IF1,MSG,AidEPO,SV,18,path_2NG,ValidEPO,0,u4CurrGpsSecs,1137824073,u4GpsSecs,1137823200,seq,45,NAseq,45,Age_Epo,17,Naage,17,NaValidGEPO,1
085403.125,HBD,IF1,MSG,AidEPO,SV,19,path_2NG,ValidEPO,0,u4CurrGpsSecs,1137824073,u4GpsSecs,1137823200,seq,45,NAseq,45,Age_Epo,17,Naage,17,NaValidGEPO,1
085403.125,HBD,IF1,MSG,AidEPO,SV,20,path_2NG,ValidEPO,0,u4CurrGpsSecs,1137824073,u4GpsSecs,1137823200,seq,45,NAseq,45,Age_Epo,17,Naage,17,NaValidGEPO,1
085403.125,HBD,IF1,MSG,AidEPO,SV,21,path_2NG,ValidEPO,0,u4CurrGpsSecs,1137824073,u4GpsSecs,1137823200,seq,45,NAseq,45,Age_Epo,17,Naage,17,NaValidGEPO,1
085403.125,HBD,IF1,MSG,AidEPO,SV,22,path_2NG,ValidEPO,0,u4CurrGpsSecs,1137824073,u4GpsSecs,1137823200,seq,45,NAseq,45,Age_Epo,17,Naage,17,NaValidGEPO,1
085403.125,HBD,IF1,MSG,AidEPO,SV,23,path_2NG,ValidEPO,0,u4CurrGpsSecs,1137824073,u4GpsSecs,1137823200,seq,45,NAseq,45,Age_Epo,17,Naage,17,NaValidGEPO,1
085403.125,HBD,IF1,MSG,AidEPO,SV,24,path_2NG,ValidEPO,0,u4CurrGpsSecs,1137824073,u4GpsSecs,1137823200,seq,45,NAseq,45,Age_Epo,17,Naage,17,NaValidGEPO,1
085403.125,HBD,IF1,MSG,AidEPO,SV,25,path_2NG,ValidEPO,0,u4CurrGpsSecs,1137824073,u4GpsSecs,1137823200,seq,45,NAseq,45,Age_Epo,17,Naage,17,NaValidGEPO,1
085403.125,HBD,IF1,MSG,AidEPO,SV,26,path_2NG,ValidEPO,0,u4CurrGpsSecs,1137824073,u4GpsSecs,1137823200,seq,45,NAseq,45,Age_Epo,17,Naage,17,NaValidGEPO,1
085403.125,HBD,IF1,MSG,AidEPO,SV,27,path_2NG,ValidEPO,0,u4CurrGpsSecs,1137824073,u4GpsSecs,1137823200,seq,45,NAseq,45,Age_Epo,17,Naage,17,NaValidGEPO,1
085403.125,HBD,IF1,MSG,AidEPO,SV,28,path_2NG,ValidEPO,0,u4CurrGpsSecs,1137824073,u4GpsSecs,1137823200,seq,45,NAseq,45,Age_Epo,17,Naage,17,NaValidGEPO,1
085403.125,HBD,IF1,MSG,AidEPO,SV,29,path_2NG,ValidEPO,0,u4CurrGpsSecs,1137824073,u4GpsSecs,1137823200,seq,45,NAseq,45,Age_Epo,17,Naage,17,NaValidGEPO,1
085403.125,HBD,IF1,MSG,AidEPO,SV,30,path_2NG,ValidEPO,0,u4CurrGpsSecs,1137824073,u4GpsSecs,1137823200,seq,45,NAseq,45,Age_Epo,17,Naage,17,NaValidGEPO,1
085403.125,HBD,IF1,MSG,AidEPO,SV,31,path_2NG,ValidEPO,0,u4CurrGpsSecs,1137824073,u4GpsSecs,1137823200,seq,45,NAseq,45,Age_Epo,17,Naage,17,NaValidGEPO,1
085403.125,HBD,IF1,MSG,AidEPO,SV,32,path_2NG,ValidEPO,2,u4CurrGpsSecs,1137824073,u4GpsSecs,1137823200,seq,45,NAseq,0,Age_Epo,17,Naage,0,NaValidGEPO,0
085404.109,HBD,IF1,TIM,DSP,u1ChnNum,37,u2DataSize,57
085404.109,HBD,IF1,COM,BinDecX,65065
085404.109,HBD,IF1,GPS,TkDltIn,4237,4247,10
085404.109,HBD,IF1,TIM,NWloc,fgfirstUseNW,0,case,0,NWAID,0,NWUSE,0
085404.109,HBD,IF1,AGP,BOOST,Posdiff:30.562567,0.450845,num:10,PosConverge,1,BoostRemT,14.774
$Boost, flag on*64
$LOC_Cache_BIT,00000002*7D
085404.117,HBD,IF1,AGP,AGPSMGN,Posdiff:30.562567,0.450845,num:0,PosConverge,0,AGPSRemT,16.000
085404.117,HBD,IF1,TIM,NWloc,Core_Save,fgHaveNWloc,1,fgHaveSaved,0
085404.117,HBD,IF1,TIM,NWloc,NWloc_match,0,oldest_gpssec_index,5,num_NV_NWlocData,9
085404.117,HBD,IF1,TIM,NWloc,Core_Save,NV_index,0,fgUsage,1

#XPda.EBDI3&51

#MZYQ.@B1CKIX6G8Z^NT=&27

#MZYQ.AH1HG4&57
085404.117,HBD,IF1,AGP,AGPSMGN,AGPSMode:-1,AGPSTimer:0.000
$PMTK015,85404122,10,5247,AMode,-1,ATimer,0.000,Remain,16.000*60
085404.117,HBD,IF1,AGP,AGPSMGN,DOP.H :0.815572,PosCon:0,[24.383991,18.158203,4.976166]
$PMTK015,85404123,6,5247,NACQ,10,NBS,10,NSFS,4,NEXS,4*6F
$HBD,INF,RTC,F,0,Y,16,M,1,D,26,H,6,M,14,Sec,16,Sub,6796,T,5232,SM,9145*35
$DBts1,TSOK,1,WNSet,1,TOWS,9,WN,1881,BAcc,16.685,TAcc,16.685,*6D
$DBts2,TTK,5237,TOW,195274.001000000,B,0.000167666,D,0.000001314,*0F
085404.117,HBD,IF1,TIM,HALTIME,0,
085404.117,HBD,IF1,TIM,HALTSTA,0,
$RtcModel,Rtc1,195256.207397461,Tow1,195273.996391052,Tick1,5232.558712,_dfPreRtcTow,195255.204589844,_dfPreGpsTow,195272.993564437,Rtcppm,-18.945*35
$SaveRtcAcc,TOW,195273.996391052,RtcD,-18.945*45
$RtcAcc,InitTick,1.000000000,InitTow,195268.764847881,Accus,8.668*2B
085404.117,HBD,IF1,GPS,UpdtNVS,
085404.117,HBD,IF1,GPS,NVFile,Opened
085404.117,HBD,IF1,GPS,UpdtNVC,
085404.125,HBD,IF1,GPS,UpdtNVE,
085404.125,HBD,IF1,ALO,CdmPvtU,
$HBD,INF,RTC,F,0,Y,16,M,1,D,26,H,6,M,14,Sec,16,Sub,6796,T,5232,SM,9145*35
$GNGGA,061417.000,2458.5430,N,12119.6808,E,1,11,0.82,131.3,M,15.0,M,,*7C
$GPGSA,A,3,18,10,25,12,193,24,14,15,20,22,31,,1.14,0.82,0.79*32
$GLGSA,A,3,,,,,,,,,,,,,1.14,0.82,0.79*1E
$GPGSV,4,1,13,18,86,158,29.1,193,58,162,33.0,10,57,322,30.7,25,46,148,29.1*4A
$GPGSV,4,2,13,12,44,086,31.7,24,35,036,27.1,14,33,309,25.7,21,26,209,*69
$GPGSV,4,3,13,15,22,080,26.5,20,20,142,21.9,22,18,318,29.7,04,18,318,*6A
$GPGSV,4,4,13,31,17,235,29.3*5D
$GLGSV,2,1,6,78,80,248,,67,59,074,,68,38,344,,77,38,024,*5C
$GLGSV,2,2,6,79,33,214,,66,18,123,*53
$GNRMC,061417.000,A,2458.5430,N,12119.6808,E,0.876,211.87,260116,,,A*46
$GNVTG,211.87,T,,M,0.876,N,1.623,K,A*21
$GNACCURACY,5.5*16
$PMTKDGP,0*4D
$PMTKDBG,5237,1,1,0,1,0,0,0,1,0,0,0,0,0,0,0,0,0,0,1,1,1,1,1,0,0,0,0,0,0,0,0,1,0099,0035,0002,0011,0011,0000,0001,0000,0.0000,1.3136,0.0000,0.0000,0.0000,0.0000,*43
$PMTKDB2,0D1B,0000,0000,0000,0000,0000,0000,0700,0030.40,0000.00,13136.27,0016.68,0000.01,0167.67,00-0.21,0000.00,*39
$PMTKEPH,41,2,4,5,10,12,13,14,15,18,20,21,22,24,25,29,30,-31.2.5,193,-65.2.5,-66.2.5,-67.2.5,-68.2.5,-69.2.5,-70.2.5,-71.2.5,-72.2.5,-73.2.5,-74.2.5,-75.2.5,-76.2.5,-77.2.5,-78.2.5,-79.2.5,-80.2.5,-82.2.5,-83.2.5,-84.2.5,-85.2.5,-86.2.5,-87.2.5,-88.2.5*5B
$PMTKALM,32,1,2,3,5,6,7,8,9,10,11,12,13,14,15,16,17,18,19,20,21,22,23,24,25,26,27,28,29,30,31,32,193*51

#WXM[.?0A2C4E6G8I:K<M>O@QBSDUFWHYJ[L]N_PaRcTeVgXiZk\m^o`qbsdufwhyj{l}npy&37

#NM^Z.BB1GEGL6H8JLS<NNT@QBSD&1D
#\XOU.?0BJ3GG6G8OK;QPPb@QBWV[VG\[`[LbNceQcfdfniXropnot_sszdrwy}{orx}&44
#\XOU.@0BB3GH6G8OK;QPPb@QBUXYVGZ]^[LbNchQcfdfniXromovo_ydr|zzmpty{&90
#\XOU.A0CG3GG6G8ON;QPPb@QBUUUVGZZZ[LbNcaQcfdfniXrokotq_vsydwzyy|mp~v{}&D1
#\XOU.B0BD3GJ6G8ON;QPPb@QBUZUVGZ_Z[LbNd`QcfdfniXrokqvo_wdrwy~~|orw|~&6E
#\XOU.C0BKF4HL7H9PO<RUQcARCW]XWH\b]\McOeaRdgegojYrtuvwp`r|esxx}~{~}psx}&FC
#\XOU.D0E2C4E6G8[KKL=N?PARCWEVGY\Z\d_NhdcbcgUkgnoZspqooswzcvvf{zj{|}~oqsuz|&97
#\XOU.E0CF3GE6G8ON;RNPb@QBVTUVG[YZ[LbNadQcfdfniXrnrqst_trsdryxz~orx}&6A
#\XOU.F0BF3FL6G8ON;SNPb@QBUV[VGZ[`[LbNadQcfdfniXrnqmpp_xsysdrz{y~z~nqv{}&BE
#\XOU.G0BG3FN6G8ON;RNPb@QBU[YVGZ`^[LbNadQcfdfniXrnmtqs_udrx|}|{~orx}&4E
#\XOU.H0CB3FI6G8ON;TRP`@QBT]WVGYb\[LbNcPbecemhWqmmkps^xcqx{||~}~~~nqw|~&FE
#\XOU.@@1DE4HI7H9PO<ROQcARCWVZWH\[_\McOdiRdgegojYsonmoo`xwe}~yy|nqw|~&BB
#\XOU.@A1DD4GK7H9MQ<UUQRARCTEVG]I`K]`^`hcRlhjmlmYr~l^lrzrtz~~}zi|l~qvx|&A0
#\XOU.@B1ED4HH7H9PN<ROQcARCU[\WHZ`a\McOdcRdgegojYsoooot`rrtez}~nqw|~&69
#\XOU.@E1DCE5GG8I:ML=`PRSBSDUFWH^J\L`aaegRgkmmomY{r^lqrrx|vx}zi{lqvx{}&90
#\XOU.@F1DCL5F7H9J;^PNO@QBSDUFZHYJ^__cePeihdgnWnio\unqqwryxewwhz~}m~rtvx}&A1
#\XOU.@G1DCH5F7H9J;^PNO@QBSDUFZHYJ^__cePeiejlfWpin\jqpvyrttwzgz~j{l}~qsuw|~&16
#\XOU.@I1DDG5F7H9J;^PNO@QBSDUFZHYJ^__cePeijjjfWmpo\joryzs|w{vgy~jxotvxz&FB
#\XOU.A@1DCE5O7H9KQ<_OQRARCTEVG]I[K_``dfQfikeojXlpn]kppzu{xy|zhz~kpuwz|&64
#\XOU.AA1DCJ5GH8I:LT=`PRSBSDUFWH^J\L`aaegRgjhkmjYjrq^lsv{vy}|xzi{l~rwy|~&CC
#\XOU.AB1DDH5GO8I:LN=`PRSBSDUFWH^J\L`aaegRgjhnjqYml^txvuyt~|gyjx~puwz|&7E
#\XOU.AC1DCG5HG8I:ML=UORSBSDUFWH^J\L]NabfccfUgx{nZhomutqx{utew{hl}~qsvx}&5F
#\XOU.AF1DCF5F7H9J;QMNO@QBSDUFZHYJ[L^`dajRyw{jWejpmtrtxvqbtvevgxyz{l}nprwy|~&29
#\XOU.BG1EJ4E6G8I:PLMN?PARCTEYGXIZK`_bdeQbcjmVhnioqoon_rrbsduvwxizk|m~otvy{}&27
#\XOU.CH1B3D5F7H9JKLM>O@QBSDUFWHYJ[L]^_`QbSdUfWhijk\m^o`qbstuvgxizk|m~oq&36

#NM`a.DBDI3E5F7H9J;L=N?PQRSTUVWHYJ[L&60
#NLPT.@H1CF4EFGK9MIM=NMRU[CUW^`H[X[cM^]adbSichnX&C8
#NLPT.@@1CF4EFGK9GLRKV?PO[SYE_`[I[YddN_^bflTjdjmY&08
#NLPT.AE1CF4EFGK9GLSKN?POTVVEWX`YJ]Z`_O`_elfUieikZ&14
#NLPT.@B1CF4EFGK9GLLKQ?PORTZE\^ZI[Y_fN_^aclTgdjlY&E7
#NLPT.@ID2DG5FGHL:HNKU?POSWZE\Z\I[Y``N_^cflTfdoiY&F9
#NLPT.C0B2&D5
#NLPT.AD1CF4EFGK9GLLKN?PORSUEWX_`J\Z^bO`_bjhUiejkZ&0A
#NLPT.@D1CF4EFGK9NIL=NMPWSCVWZ[HZX]^M^]`cfSlcmpX&BC
#NLPT.@E1CF4EFGK9KIO=NMQRUCVW[ZHZX`]M^]`agSlcnpX&BD
#NLPT.A@1CF4EFGK9GNUQLR@QPTYYF`a^^deaN_^aiSdcjloYksjvv_&4B
#NLPT.AB1CF4IFGK9GOJM>ONQRVD\W\HZX``M^]`edSfcikX&AF
#NLPT.AA1D3&05
#NLPT.BA1CF4MFGK9MIL=NMPRSCU\Z^HZX]`M^]aekSkcgiX&C0
#NLPT.A@B2E4&35
#NLPT.A@I2D4&3B
#NLPT.A@E2D4&37
#NLPT.AAD2D4&37
#NLPT.A@B2F4&36
#NLPT.A@G2E4&3A
#NLPT.AAE2E4&39

#NMMN.@0>DCJN6JQOS;QOQV@RUSU]XGY[J[LfN`ifdjhcfgiYj[&69
#KL_c.C0JFEDFF7IJQQ<OU?TASCWE^WX\J&4A
#KL_c.@@1KHFHOH8FKOS=PV@UBTDXF_XY[K&7C
#KL_c.@B1KHDJOH8FKTOM>QWAVCUEYG`YZ\L&AF
#KL_c.@D1KGJFII8FPRN=PV@UBTDXF_XY[K&7F
#KL_c.@E1KGFMJL8FMSUT>QWAVCUEYG`YZ^L&C5
#KL_c.@H1KHIGHM8FKTST>QWAVCUEYG`YZ\L&C0
#KL_c.A@1KGGEJN8FOOMS>QWAVCUEYG`YZ^L&B1
#KL_c.AA1KGILKM8FNONO>QWAVCUEYG`YZ^L&B7
#KL_c.AB1KGFEGG8JKRR=PV@UBTDXF_XY]K&7A
#KL_c.AD1KGKJLM8FNSRV>QWAVCUEYG`YZ\L&C8
#KL_c.AE1KHDHMJ8LPR<OU?TASCWE^WXZJ&57
#KL_c.BA1KGGGGL8PNS<OU?TWBUDUF_XY]K&8A
#KL_c.@ID2KMNOPI9GLQVP?RXBWDVFZHaZ[]M&FD
#KL_c.A@E2GKGLNL9GOTOU?RXBWDWFZHaZ[_M&EE
#KL_c.AAD2GKLLLL9GMMOU?RXBWDWFZHaZ[]M&E6
#KL_c.AAE2GKJKPQ9RNT=PV@UBUDXF_XY[K&97
#KL_c.A@G2GKJKGI9GPQMN?RXBWDWFZHaZ[]M&DB
#KL_c.A@B2GKMMON9GLSQQ?RXBWDWFZHaZ[]M&ED
#KL_c.A@I2GKJFJI9KMOO>QWAVCVEYG`YZ\L&AC
#KLbg.?0BK3EM6IHJ:MMP>PYTBTTEX\HZ\K^^bObahSfiVhlYlkt]pp`rwcvufyzi~k~}or&37
#KLbg.@0C2EDG6IHL:&5E

#\Qpou/B1CGIEH7H9J;L=N?QV[XWEY`H]_[L`dePecjgUjhjoZkn_sydxz|iz}}nsx&85
#NLXZ.BA1BC4FNOI9OaPQTT@WUTWh_Gnm__\]NpaavdhUm}|r}k\tvc|xxyj}}~q&E0
#NLXZ.BB1BC4FNOI9PKQaNP@UgSVg_Gnm^n\]NpaaulmUhznrkp\urvbx{xi{|o&5D
#NLXZ.BC1BC4FNOI9]LSTdV@UcfihgGno]c\^NrqvtghUg}lo|l\npvtc{|yi|~p&02
$[AGT],GSET=4
$[AGT],rm,1,rt,7
$[AGT],fgFirstReq:0
$[AGT],bitmap,old: 108,new: 108
$[AGT],skip re_agps_req
$[AGT],GSET=5
$[AGT],rm,6,rt,3
$[AGT],receive pmtk
$PMTK015,85404816,4,5937,PMTK290,1,1,0*2D
$PMTK730,0,0,0,1,0,0,0,0,1*2A
$PMTK015,85404816,4,5937,PMTK730,0,0,0,1,0,0,0,0,1*22
$PMTK001,290,3*3B
$[AGT],GSET=5
$[AGT],rm,6,rt,3
$[AGT],receive pmtk
$PMTK015,85404967,4,6087,PMTK712,1881,195274.720000,3000.000,0,0,0,0.000*30
$AGPS,6087,TimeCompensate,0.900,WN,1881,TOW,195275.620000*79
Use_New_Time,0,count,1,769,12013,Local,1881,195274.001000 &3E
TimeSetOK,0,WeekNO,1881,TOW,195275.620000,RMS,3.000000,TTick,6087 &8C
SetNATime,1137824075 &49
$PMTK001,712,3*34
$[AGT],GSET=5
$[AGT],rm,6,rt,3
$[AGT],receive pmtk
$PMTK015,85404968,4,6087,PMTK710,04,000100,000000,000000,000000,0000DA,6A2F76,00FFD2,354778,6A04FD,38CC8D,969B75,03FA03,E01676,144BA1,18CDF9,2F767C,FFFB28,1ACE33,FFFA25,986F26,1567AD,7603FF,FFA704,6A16B4*6B
#DEPH 4 1137823574 100 0 0 0 DA 6A2F76 FFD2 354778 6A04FD 38CC8D 969B75 3FA03 E01676 144BA1 18CDF9 2F767C FFFB28 1ACE33 FFFA25 986F26 1567AD 7603FF FFA704 6A16B4 &CA
$PMTK001,710,3*36
$[AGT],GSET=5
$[AGT],rm,6,rt,3
$[AGT],receive pmtk
$PMTK015,85404969,4,6087,PMTK710,05,000000,000000,000000,000000,0000E9,2C2F76,00001F,EC15F8,2C0365,345097,07EC67,02F202,599885,1467A1,0DC294,2F767C,000B28,D3159D,FFE226,8DA8B5,173E13,CF6D97,FFA804,2C1678*62
#DEPH 5 1137823574 0 0 0 0 E9 2C2F76 1F EC15F8 2C0365 345097 7EC67 2F202 599885 1467A1 DC294 2F767C B28 D3159D FFE226 8DA8B5 173E13 CF6D97 FFA804 2C1678 &4E
$PMTK001,710,3*36
$[AGT],GSET=5
$[AGT],rm,6,rt,3
$[AGT],receive pmtk
$PMTK015,85404970,4,6097,PMTK710,0A,000000,000000,000000,000000,000005,222F76,00FFF1,065F20,22049B,3057CA,3CFD47,03D500,8A68F7,146BA1,0D79D8,2F767C,FFE329,1368CD,FFBE27,16BE23,182E88,2A284D,FFA9FA,221284*1D
#DEPH 10 1137823574 0 0 0 0 5 222F76 FFF1 65F20 22049B 3057CA 3CFD47 3D500 8A68F7 146BA1 D79D8 2F767C FFE329 1368CD FFBE27 16BE23 182E88 2A284D FFA9FA 221284 &8A
$PMTK001,710,3*36
$[AGT],GSET=5
$[AGT],rm,6,rt,3
$[AGT],receive pmtk
$PMTK015,85404971,4,6097,PMTK710,0C,000000,000000,000000,000000,0000E6,592F76,000017,2FA8E8,590C22,2BB5F3,E0AD57,0AD302,F1EC22,102FA1,0C5393,2F767C,0012AB,4859F1,001C28,58619E,1F411A,39765E,FFA9A5,590F68*16
#DEPH 12 1137823574 0 0 0 0 E6 592F76 17 2FA8E8 590C22 2BB5F3 E0AD57 AD302 F1EC22 102FA1 C5393 2F767C 12AB 4859F1 1C28 58619E 1F411A 39765E FFA9A5 590F68 &74
$PMTK001,710,3*36
$[AGT],GSET=5
$[AGT],rm,6,rt,3
$[AGT],receive pmtk
$PMTK015,85404972,4,6097,PMTK710,0D,000000,000000,000000,000000,0000E8,192F76,00FFE9,E84694,19FEAD,32E329,6CA745,FED202,6340CC,0A30A1,0D672D,2F767C,000A58,811908,FFD427,999A86,246F51,042EB3,FFA622,19F9E8*14
#DEPH 13 1137823574 0 0 0 0 E8 192F76 FFE9 E84694 19FEAD 32E329 6CA745 FED202 6340CC A30A1 D672D 2F767C A58 811908 FFD427 999A86 246F51 42EB3 FFA622 19F9E8 &2B
$PMTK001,710,3*36
$[AGT],GSET=5
$[AGT],rm,6,rt,3
$[AGT],receive pmtk
$PMTK015,85404974,4,6097,PMTK710,0E,000000,000000,000000,000000,0000EC,0D2F76,00FFEC,00E854,0DFE45,330F74,34C950,FE8904,408650,099FA1,0DAA64,2F767C,001C57,06F929,FFCD27,4B029E,2467B0,8FC28E,FFA81D,0DF9A0*67
