$[AGT],ipath,/data/misc/
$[AGT],GSET=0
$[AGT],rm,6,rt,4
$[AGT],SAP,Eidle
$[AGT],e=1,b=1,s=1,aosp=1
$PMTK013,AgpsMachine,set,0,result,0*17
067898.516,HBD,IF1,BOT,UInitCf,1,0,0,16,100,0,255,2000,26000000,115200,1000,0,-2147483456,ffff6753,2

067898.516,HBD,IF1,BOT,MNLVer,_u1MTKChipID=1
067898.516,HBD,IF1,GPS,NVFile,Opened
067898.516,HBD,IF1,GPS,NVFile,g_BMAP_NVfile_Operation_load,0
067898.516,HBD,IF1,ALO,AlcInit,
067898.516,HBD,IF1,ALO,AlSCIni,
067898.516,HBD,IF1,ALO,PMCmod4,0
067898.516,HBD,IF1,ALO,EdInitD,
067898.516,HBD,IF1,ALO,PmcInit,
067898.516,HBD,IF1,ALO,VtCfgDb,20,20,4294967295
067898.516,HBD,IF1,BOT,InitCfg,1,115200,115200,26000000,255,0,0,0.000000,0.000000
067898.516,HBD,IF1,BOT,BotUrV2,BINFO(): x,-2147483456,y,ffff6753,
067898.523,HBD,IF1,BOT,BotUrV2,BINFO(): MT6753_ DSP
067898.523,HBD,IF1,BOT,BotUrV2,_BINFO(): B,-149904296,L,61448
067898.523,HBD,IF1,BOT,BotUrV2,RFG,3,0,3
067899.000,HBD,IF1,BOT,ClkType,255
$PMTK015,67898999,1,GPS_INIT_DONE*74
$[AGT],GSET=0
$[AGT],rm,1,rt,11
$[AGT],inco
$[AGT],rm,0
$[AGT],remd == 0
067899.000,HBD,IF1,MSG,MNLInit,OK
067899.000,HBD,IF1,COM,WaitDtt,RECEIVE 1st DTT

#MZYQ.D@1C3&19

$PMTK010,001*2E

$PMTK010,002*2D
$PMTK013,INF,0,128,4,128*59
$PMTK015,67899000,4,67899000,PMTK764,0,0,0,2,0,128,4,128*33
$$PMTK764,0,0,0,2,0,128,4,128*15
067899.000,HBD,IF1,GPS,FrstDtt,00,00
$PMTK015,67899000,2,FIRST_DBTT*22
067899.000,HBD,IF1,GPS,TkDltIn,0,0,0

#MZYQ.@@1B3D5&64
$SELF_ATOW,0,1*4F
067899.141,HBD,IF1,TIM,HALTIME,0,
067899.141,HBD,IF1,TIM,HALTSTA,0,
067899.141,HBD,IF1,TIM,IdbtsDa,RTCstatusA,0,fgSysTimeOK,1,UseSystime,0,LoadRTCUpdateOK,RTC_age,10
067899.141,HBD,IF1,TIM,IdbtsDa,RTCstatusB,0,fgSysTimeOK,1,UseSystime,0
067899.141,HBD,IF1,TIM,DtsAcRT,PRTC,Load,Wn,1881,Tow,177763.994501355,RtcD,-12.026,
$IRTC,i2RtcTimeLastWn,1881,dfRtcTimeLastTow,177746.950256,*2B
$IRTC,i2RtcTimeLastWn,1881,dfRtcTimeLastTow,177763.951090,*25
$IRTC,dfDltTow1,4.890320,*19
$IRTC,dfDltTow2,4.890379,*16
$IRTC,i2GpsWn2,1881,dfGpsTow2,177768.884880,*2E
067899.141,HBD,IF1,TIM,DtsAcRT,PRTC,Load,GWn,1881,GTow,177768.884879988,RWn,1881,RTow,177763.951089817,RtcD,-12.026,
$IRTC,dfDltTow,4.890379,HTTFF_163,0,_fgEnableAccIGPST,1*4D

#MZYQ.D@1B3&18
067899.141,HBD,IF1,TIM,IdtsAcT,1,1881,177768.884000000,9,4.9,

#MZYQ.DD1B3&1C

#MZYQ.CB1D3&1B
$QEPO_Request*05
$[AGT],GSET=0
$[AGT],rm,1,rt,10
$[AGT],inco
$[AGT],rm,0
$[AGT],remd == 0

#MZYQ.DB1C3&1B
067899.141,HBD,IF1,TIM,NWloc,fgfirstUseNW,0,case,0,NWAID,0,NWUSE,0
$Boost, hotstart*5A
067899.141,HBD,IF1,AGP,BOOST,Posdiff:157625199099904.000000,0.000000,num:0,PosConverge,0,BoostRemT,20.000
$LOC_Cache_BIT,00000000*7F
$DBnm_NLP,[24.975739,121.327994,0,20.000000][2016/1/26,1:2:33][0][1]*3A
$cache_pos,-3007998.261785,4941839.564807,2676711.064507,[1137806564]*64
$Cache_age,4,NLP_age,-99,NV_age,4*3B
067903.211,HBD,IF1,AGP,AGPSMGN,Posdiff:157625199099904.000000,0.000000,num:0,PosConverge,0,AGPSRemT,16.000

#MZYQ.AA1D3&18
067903.219,HBD,IF1,GPS,EpoLoad,HOST_EPO,BAD_Load,ffffffff,316056,45
067903.219,HBD,IF1,TIM,RstFSAg,0.0

#MZYQ.AE1I3&21

#XPda.D@BC3&46
067903.219,HBD,IF1,GPS,FTModeC,FT_Mode,1,Send_Comd
067903.219,HBD,IF1,AGP,AGPSMGN,AGPSMode:-1,AGPSTimer:0.000
$PMTK015,67903213,10,4221,AMode,-1,ATimer,0.000,Remain,16.000*66
$PMTK015,67903213,6,4221,NACQ,0,NBS,0,NSFS,0,NEXS,0*68
$HBD,INF,RTC,F,0,Y,16,M,1,D,26,H,1,M,22,Sec,31,Sub,27544,T,1,SM,7492*3A
$DBts1,TSOK,0,WNSet,1,TOWS,9,WN,1881,BAcc,1183216.000,TAcc,1220038.000,*68
$DBts2,TTK,11,TOW,177768.894000000,B,-0.000422253,D,0.000001212,*20
067903.219,HBD,IF1,ALO,CdmPvtU,
$HBD,INF,RTC,F,0,Y,16,M,1,D,26,H,1,M,22,Sec,31,Sub,27544,T,1,SM,7492*3A
$PMTK013,4221,set epo bitmap,R:0,F:1 *1B
$GNGGA,012231.894,2458.5428,N,12119.6820,E,0,0,,162.8,M,15.0,M,,*54
$GPGSA,A,1,,,,,,,,,,,,,99.99,99.99,1.00*01
$GLGSA,A,1,,,,,,,,,,,,,99.99,99.99,1.00*1D
$GPGSV,3,1,11,13,88,009,,193,66,050,,02,55,118,,05,48,026,*49
$GPGSV,3,2,11,15,48,235,,20,39,310,,29,38,288,,30,20,065,*7E
$GPGSV,3,3,11,06,13,129,,24,05,190,,07,03,041,*4D
$GLGSV,1,1,0*55
$GNRMC,012231.894,V,2458.5428,N,12119.6820,E,0.000,0.00,260116,,,N*5A
$GNVTG,0.00,T,,M,0.000,N,0.000,K,N*2C
$GNACCURACY,38.1*2C
$PMTKDGP,0*4D
$PMTKDBG,11,0,1,0,0,0,0,0,0,0,1,0,0,0,0,0,0,0,0,1,1,1,1,1,0,0,0,0,1,0,0,0,0,0001,0014,0002,0000,0000,0022,0001,0000,0.0000,1.2118,0.0000,0.0000,0.0000,0.0000,*4F
$PMTKDB2,0000,0000,0000,0000,0000,0000,0000,0100,1456.92,0000.00,12118.87,1220038.00,0000.00,-422.25,00-0.04,0000.00,*1F
$PMTKEPH,19,2,3,4,5,6,7,9,12,13,15,17,19,20,23,25,28,29,30,193*59
$PMTKALM,32,1,2,3,5,6,7,8,9,10,11,12,13,14,15,16,17,18,19,20,21,22,23,24,25,26,27,28,29,30,31,32,193*51

#WXM[.?0A2C4E6G8I:K<M>O@QBSDUFWHYJ[L]N_PaRcTeVgXiZk\m^o`qbsdufwhyj{l}npy&39

#NM^Z.BB1CD4F6G8I:K<M>&DD
#\XOU.AF1B3D5F7H9JKLM>O@QBSDUFWHYJ[L]^_`QbSdUfWhijk\m^o`qbstuvgxizk|m~oq&32
#\XOU.BG1B3D5F7H9JKLM>O@QBSDUFWHYJ[L]^_`QbSdUfWhijk\m^o`qbstuvgxizk|m~oq&34
#\XOU.CH1B3D5F7H9JKLM>O@QBSDUFWHYJ[L]^_`QbSdUfWhijk\m^o`qbstuvgxizk|m~oq&36

#NM`a.@A1C3D5F7H9J;L=NOPQRSTUFWHYJ&F1

#NMMN.@0>CLDN6KHRL;MN>PQYWTVEWWHYJdL^efggjalnjWhY&0D
#KL_c.A0IFGEJO7ELLKP=OTPAWTVEWGXIb[\^N&0A
#KL_c.D0IFDJKO7EKQNT=OTPAWTVEWGXIb[\^N&1B
#KL_c.E0IEDMMG7EMRTL=OTPAWTVEWGXIb[\`N&1B
#KL_c.F0IDKEIF7ELQPU=OTPAWTVEWGXIb[\`N&18
#KL_c.@C1JGINNH8FKTRQ>PUQBXUWFXHYJc\]_O&4B
#KL_c.@E1JGFFOL8JPT<NSO@VSUDVFWHaZ[]M&E6
#KL_c.A@1JGDJGJ8FPKL=OTPAWTVEWGXIb[\^N&FD
#KL_c.AD1JEMEHH8JMRL=OTPAWTVEVGXIb[\^N&09
#KL_c.AI1JFMNJP8FKMSO>PUQBXUWFXHYJc\]_O&51
#KL_c.B@1JFHEKJ8FLPPR>PUQBXUWFXHYJc\]aO&3C
#KL_c.@ID2JLFJOM9GLONS?QVRCYVXGYIZKd]^`P&78
#KLbg.?0BC3EH6HQL:M<R>PUATSDW_G[YJaLdNadQ&55
#KLbg.@0BF3FEG7JIL;NMQ?RQVCVU[GZY`K^]eObajSfeoWjjj[nno_rrtcvvygzz~k&20

#NMO_.UVWXYZ[\7^_`abcde@ghijklmnIpqrstuvwRyz{|W~`e&3B

#NM`].@A1C3M5HKQPORM=OQQTT[TXFX_`J\de_OahijjmnplYklotvovvxwdrzx|izk&D6
#NP\U.A0BCFKMFLOQL;`SSOPQBX[XllnIc`nq_cPrdefvmWqkkq^sxsvexg|{nu|ƳǤ̩ʵݼ&01
#NP\U.B0BCFKLOHIQL;`SSPPQBSDUFWHYJ^n_feuQxyxiV}|}}t]qpudxwkrx˹Ьɳѹ&11
#NP\U.C0BCFKMFLMRM;`SSOPQBSDUFWHYJ]c_fetQdkTwwiymZmsmoqauuw|{hou|Þɻӱʸ&16
#NP\U.D0BCFKMFLONR;`SSOPQBX[XllnIc`nq_cPrdefvmWqkkv^psvewh|ov}Ǵʥ˼ìӳ̷о&41
#NLXZ.@0AB3EMNH8MKMUMR?VTRhUUFml]c[\Mo``tviT{{zmqk[mprxsbx}zhzz{|n&12
#NLXZ.A0AB3EMNH8MLR`_R?VTRSVkFml\b[\Mo``ufdT{zgnil[}trqbtv~{i~|}p&7C
#NLXZ.B0AB3EMNH8MMKNTP?VTRdiXFml^k[\Mo``uvtTgoi{|r[suqxbzyzip&0B
#NLXZ.D0AB3EMNH8MOMQVQ?VTRU[jFml]n[\Mo``ugyTgnzimq[mpswbz~|i|}p&AD
#NLXZ.E0AB3EMNH8MPKNOT?VTRgj[Fml]c[\Mo``tkwT{{m|or[}qxswbvxz~{i{||}p&9D
$[AGT],GSET=4
$[AGT],rm,1,rt,7
$[AGT],fgFirstReq:1
$[AGT],bitmap,old:   0,new: 308
$[AGT],set epo req
$[AGT],inco
$[AGT],srm,1,dsm,4,tp,7,length,12
$[AGT],tp,776,wn,1881,tw,177768,si,12
$[AGT],rm,2
$[AGT],state:7
$[AGT],wn:1881, tw:177768
$[AGT],ergt
$[AGT],
$[AGT],Esgt 1137715200
$[AGT],epegt
$[AGT],gfisiz()
$[AGT],egtEf,1140307200
$Rdon
$[AGT],res,1137806568,sst,1137715200,egsn,1140307200
$[AGT],wk,epo
$[AGT],s,1,m,1
$[AGT],idle
$@#$^ [AGNT] pEd
$[AGT],opmode GLO(1),GEL(0),DB(0)
$[AGT],tw,177768,gs,1137806568
$[AGT],eextd
$[AGT]start verify
$[AGT],gfisiz()
$[AGT]FileType:GPS+GLO
$[AGT],
$[AGT],epegt
$[AGT],gfisiz()
$[AGT],Extract epo done
$[AGT],GSET=4
$[AGT],rm,4,rt,8
$[AGT],inco
$[AGT],srm,4,dsm,4,tp,8,length,12
$[AGT],tp,776,wn,1881,tw,177768,si,12
$[AGT],rm,3
$[AGT],state:6
$[AGT],wn:1881,tw:177768
$[AGT],BGAI
$[AGT],0,av:67,b_sky:0
$[AGT],1,av:73,b_sky:0
$[AGT],2,av:119,b_sky:0
$[AGT],3,av:0,b_sky:0
$[AGT],4,av:73,b_sky:0
$[AGT],5,av:73,b_sky:0
$[AGT],6,av:73,b_sky:0
$[AGT],7,av:65,b_sky:0
$[AGT],8,av:73,b_sky:0
$[AGT],9,av:59,b_sky:0
$[AGT],10,av:67,b_sky:0
$[AGT],11,av:123,b_sky:0
$[AGT],12,av:73,b_sky:0
$[AGT],13,av:59,b_sky:0
$[AGT],14,av:123,b_sky:0
$[AGT],15,av:63,b_sky:0
$[AGT],16,av:71,b_sky:0
$[AGT],17,av:57,b_sky:0
$[AGT],18,av:69,b_sky:0
$[AGT],19,av:89,b_sky:0
$[AGT],20,av:61,b_sky:0
$[AGT],21,av:65,b_sky:0
$[AGT],22,av:69,b_sky:0
$[AGT],23,av:55,b_sky:1
$[AGT],24,av:123,b_sky:0
$[AGT],25,av:63,b_sky:0
$[AGT],26,av:63,b_sky:0
$[AGT],27,av:69,b_sky:0
$[AGT],28,av:121,b_sky:0
$[AGT],29,av:73,b_sky:0
$[AGT],30,av:61,b_sky:0
$[AGT],31,av:109,b_sky:1
$[AGT],Eend:1, Send:1, ct:2
$[AGT],wkbee
$[AGT],s,1,m,2
$[AGT],idle
$@#$^ [AGNT] sBi
067903.273,HBD,IF1,TIM,DSP,u1ChnNum,37,u2DataSize,57
067903.273,HBD,IF1,COM,BinDecX,65065
067903.273,HBD,WRN,COM,DtNxtMM,5011,1011
067903.273,HBD,IF1,GPS,TkDltNo,11,0
067903.281,HBD,IF1,TIM,NWloc,fgfirstUseNW,0,case,0,NWAID,0,NWUSE,0
067903.281,HBD,IF1,AGP,BOOST,Posdiff:0.000000,0.000000,num:0,PosConverge,0,BoostRemT,19.000
$LOC_Cache_BIT,00000000*7F
$DBnm_NLP,[24.975739,121.327994,0,20.000000][2016/1/26,1:2:33][0][1]*3A
$cache_pos,-3007998.261785,4941839.564807,2676711.064507,[1137806564]*64
$Cache_age,5,NLP_age,-99,NV_age,5*3B
067903.281,HBD,IF1,AGP,AGPSMGN,Posdiff:0.000000,0.000000,num:0,PosConverge,0,AGPSRemT,16.000
067903.281,HBD,IF1,TIM,RstFSAg,1.0

#XPda.A@BC3&43
067903.281,HBD,IF1,AGP,AGPSMGN,AGPSMode:-1,AGPSTimer:0.000
$PMTK015,67903277,10,1011,AMode,-1,ATimer,0.000,Remain,16.000*60
$PMTK015,67903277,6,1011,NACQ,0,NBS,0,NSFS,0,NEXS,0*6E
$HBD,INF,RTC,F,0,Y,16,M,1,D,26,H,1,M,22,Sec,32,Sub,27557,T,1001,SM,14210*34
$DBts1,TSOK,0,WNSet,1,TOWS,9,WN,1881,BAcc,1183216.000,TAcc,1201910.750,*6A
$DBts2,TTK,1011,TOW,177769.894000000,B,-0.000421041,D,0.000001212,*22
067903.281,HBD,IF1,ALO,CdmPvtU,
$HBD,INF,RTC,F,0,Y,16,M,1,D,26,H,1,M,22,Sec,32,Sub,27557,T,1001,SM,14210*34
$PMTK013,1011,set epo bitmap,R:0,F:1 *1F
$GNGGA,012232.894,2458.5428,N,12119.6820,E,0,0,,162.8,M,15.0,M,,*57
$GPGSA,A,1,,,,,,,,,,,,,99.99,99.99,1.00*01
$GLGSA,A,1,,,,,,,,,,,,,99.99,99.99,1.00*1D
$GPGSV,3,1,11,13,88,009,,193,66,050,,02,55,118,,05,48,026,*49
$GPGSV,3,2,11,15,48,235,,20,39,310,,29,38,288,,30,20,065,*7E
$GPGSV,3,3,11,06,13,129,,24,05,190,,07,03,041,*4D
$GLGSV,1,1,0*55
$GNRMC,012232.894,V,2458.5428,N,12119.6820,E,0.000,0.00,260116,,,N*59
$GNVTG,0.00,T,,M,0.000,N,0.000,K,N*2C
$GNACCURACY,34.0*21
$PMTKDGP,0*4D
$PMTKDBG,1011,0,1,0,0,0,0,0,0,0,1,0,0,0,0,0,0,0,0,1,1,1,1,1,0,0,0,0,1,0,0,0,0,0001,0014,0002,0000,0000,0000,0001,0000,0.0000,1.2118,0.0000,0.0000,0.0000,0.0000,*4E
$PMTKDB2,0C05,0000,0000,0000,0000,0000,0000,0000,1156.87,0000.00,12118.87,1201910.72,0000.00,-421.04,00-0.04,0000.00,*6C
$PMTKEPH,19,2,3,4,5,6,7,9,12,13,15,17,19,20,23,25,28,29,30,193*59
$PMTKALM,32,1,2,3,5,6,7,8,9,10,11,12,13,14,15,16,17,18,19,20,21,22,23,24,25,26,27,28,29,30,31,32,193*51

#WXM[.?0A2C4E6G8I:K<M>O@QBSDUFWHYJ[L]N_PaRcTeVgXiZk\m^o`qbsdufwhyj{l}npy&39

#NM^Z.BB1CCEF6H8JJR<NNT@QBSD&0C
#\XOU.AF1B3D5F7H9JKLM>O@QBSDUFWHYJ[L]^_`QbSdUfWhijk\m^o`qbstuvgxizk|m~oq&32
#\XOU.BG1B3D5F7H9JKLM>O@QBSDUFWHYJ[L]^_`QbSdUfWhijk\m^o`qbstuvgxizk|m~oq&34
#\XOU.CH1B3D5F7H9JKLM>O@QBSDUFWHYJ[L]^_`QbSdUfWhijk\m^o`qbstuvgxizk|m~oq&36

#NM`a.@@BC3E5F7H9J;L=N?PQRSTUVWHYJ[L&52

#NMMN.@0>CLDN6KHRL;MMOP@RS[YVYGYYJ[LfN`ghiimcnplYj[&70
#KL_c.A0DEEJJM7ELLKQ=OTPAWTVEWGXIb[\^N&06
#KL_c.D0DECEKN7EKQNU=OTPAWTVEWGXIb[\^N&0F
#KL_c.E0DDCHLM7EMRTL=OTPAWTVEWGXIb[\`N&14
#KL_c.F0DCIJHN7ELQPU=OTPAWTVEWGXIb[\`N&1C
#KL_c.@C1EFHIMP8FKTRR>PUQBXUWFXHYJc\]_O&47
#KL_c.@E1EFDKOL8JPS<NSO@VSUDVFWHaZ[]M&E2
#KL_c.A@1EEMEGJ8FPKM=OTPAWTVEWGXIb[\^N&FB
#KL_c.AD1EDKJHI8JMRL=OTPAWTVEVGXIb[\^N&07
#KL_c.AI1EELIJO8FKMSO>PUQBXUWFXHYJc\]_O&44
#KL_c.B@1EEFJKH8FLPPS>PUQBXUWFXHYJc\]aO&38
#KL_c.@ID2EJNOOL9GLONS?QVRCYVXGYIZKd]^`P&7D
#KLbg.?0BC3EH6HQL:M<R>PUATSDW_G[YJaLdNadQ&55
#KLbg.@0BF3FEG7JIL;NMQ?RQVCVU[GZY`K^]eObajSfeoWjjj[nno_rrtcvvygzz~k&20

#\Qpou/FD2DHKJK8JS;M=OS@UTYDX^YHbJ^`ddOcgheTiookYntrn^oqwcz~h|~mrw|&5E

#NM`].@@BC3E5O7JMSRQTO?QSSVV]VZHZabL^fgaQcjkllpprn[mnqvxqxxzyft|z~k|m&38
#NP\U.E0BCFKMFLQOL;`SSOPQBX[XllnIc`nq_cPrdefvmWqkklv^psuey}hz{ov}ȴϫĽʲ̶ӽ&9F
#NP\U.F0BCFKMFLQQP;`SSPPQBXjXllnIc`nq_cPrdefvmWqkku^rysve|j~qxơʷ˨ҭǿɴѻ &8D
#NP\U.H0BCFKMFIHPO;`SRPPQBSDUFWHYJca_ob`QfgTlnooiZsqxau{u}|h|ov}ŵѮĵ޼&7E
#NP\U.@B1CDGLNGLQOT<aTSPQRCTEVGXIZKab`qvcRdkUh}yp{k\rsozcvv}jqw~ķ̫Ҳѹ&86
#NLXZ.F0AB3EMNH8MQO]NN?VTSSeUFml]o[\Mo``ubgTl|n|}p[uoxb}w{i}|}p&B5
#NLXZ.G0AB3EMNH8MRKaUb?VTRf]\Fml\a[\Mo``tswTyipzrm[rvrvb{yi|}~p&E2
#NLXZ.H0AB3EMNH8MSKQM_?VTR[Z[Fml\c[\Mo``ttiTjipn{p[ptqbx~i{|o&66
#NLXZ.@@1BC4FNOI9N\LU`e@WUSfUlGnm_l\]NpaavdxUhphjk\uvvxzcu}jp&DE
#NLXZ.@A1BC4FNOI9N]TQc`@WUhU]ZGnmZ_\]NpaautfU{}{ls~\porwwcvwxjq&35
#NLXZ.@B1BC4FNOI9N^NcRV@WUTjW]Gnm`m\]NpaauceUwykpo\nsyc}{x|j}}~q&E8
$[AGT],GSET=4
$[AGT],rm,1,rt,7
$[AGT],fgFirstReq:0
$[AGT],bitmap,old: 308,new: 308
$[AGT],skip re_agps_req
067903.312,HBD,IF1,TIM,DSP,u1ChnNum,37,u2DataSize,57
067903.312,HBD,IF1,COM,BinDecX,65065
067903.312,HBD,IF1,TIM,DSP,u1ChnNum,37,u2DataSize,57
067903.312,HBD,IF1,COM,BinDecX,65065
067903.312,HBD,IF1,TIM,DSP,u1ChnNum,37,u2DataSize,57
067903.312,HBD,IF1,COM,BinDecX,65065
067903.312,HBD,IF1,BOT,MNLVer,AXN_3.70,1312,MNL_VER_15091601ALPS05_3.70_03,39,76
067903.312,HBD,IF1,COM,WtDtCnt,0
067903.312,HBD,IF1,MSG,AidEPO,SV,1,ret,1
067903.312,HBD,IF1,MSG,AidEPO,SV,2,ret,1
067903.312,HBD,IF1,MSG,AidEPO,SV,3,ret,1
067903.312,HBD,IF1,MSG,AidEPO,SV,4,path_2NG,ValidEPO,1,u4CurrGpsSecs,1137806569,u4GpsSecs,1137801600,seq,45,NAseq,0,Age_Epo,16,Naage,0,NaValidGEPO,0
067903.312,HBD,IF1,MSG,AidEPO,SV,5,ret,1
067903.312,HBD,IF1,MSG,AidEPO,SV,6,ret,1
067903.312,HBD,IF1,MSG,AidEPO,SV,7,ret,1
067903.312,HBD,IF1,MSG,AidEPO,SV,8,ret,1
067903.312,HBD,IF1,MSG,AidEPO,SV,9,ret,1
067903.312,HBD,IF1,MSG,AidEPO,SV,10,ret,1
067903.312,HBD,IF1,MSG,AidEPO,SV,11,ret,1
067903.312,HBD,IF1,MSG,AidEPO,SV,12,ret,1
067903.312,HBD,IF1,MSG,AidEPO,SV,13,ret,1
067903.312,HBD,IF1,MSG,AidEPO,SV,14,ret,1
067903.312,HBD,IF1,MSG,AidEPO,SV,15,ret,1
067903.312,HBD,IF1,MSG,AidEPO,SV,16,ret,1
067903.312,HBD,IF1,MSG,AidEPO,SV,17,ret,1
067903.312,HBD,IF1,MSG,AidEPO,SV,18,ret,1
067903.312,HBD,IF1,MSG,AidEPO,SV,19,ret,1
067903.312,HBD,IF1,MSG,AidEPO,SV,20,ret,1
067903.312,HBD,IF1,MSG,AidEPO,SV,21,ret,1
067903.312,HBD,IF1,MSG,AidEPO,SV,22,ret,1
067903.312,HBD,IF1,MSG,AidEPO,SV,23,ret,1
067903.312,HBD,IF1,MSG,AidEPO,SV,24,ret,1
067903.312,HBD,IF1,MSG,AidEPO,SV,25,ret,1
067903.312,HBD,IF1,MSG,AidEPO,SV,26,ret,1
067903.312,HBD,IF1,MSG,AidEPO,SV,27,ret,1
067903.312,HBD,IF1,MSG,AidEPO,SV,28,ret,1
067903.312,HBD,IF1,MSG,AidEPO,SV,29,ret,1
067903.312,HBD,IF1,MSG,AidEPO,SV,30,ret,1
067903.312,HBD,IF1,MSG,AidEPO,SV,31,ret,1
067903.312,HBD,IF1,MSG,AidEPO,SV,32,path_2NG,ValidEPO,2,u4CurrGpsSecs,1137806569,u4GpsSecs,1137801600,seq,45,NAseq,0,Age_Epo,16,Naage,0,NaValidGEPO,0
067903.320,HBD,IF1,MSG,AidGLEP,SV,1,ret,1
067903.320,HBD,IF1,MSG,AidGLEP,SV,2,ret,1
067903.320,HBD,IF1,MSG,AidGLEP,SV,3,ret,1
067903.320,HBD,IF1,MSG,AidGLEP,SV,4,ret,1
067903.320,HBD,IF1,MSG,AidGLEP,SV,5,ret,1
067903.320,HBD,IF1,MSG,AidGLEP,SV,6,ret,1
067903.320,HBD,IF1,MSG,AidGLEP,SV,7,ret,1
067903.320,HBD,IF1,MSG,AidGLEP,SV,8,ret,1
067903.320,HBD,IF1,MSG,AidGLEP,SV,9,ret,1
067903.320,HBD,IF1,MSG,AidGLEP,SV,10,ret,1
067903.320,HBD,IF1,MSG,AidGLEP,SV,11,ret,1
067903.344,HBD,IF1,MSG,AidGLEP,SV,12,ret,1
067903.344,HBD,IF1,MSG,AidGLEP,SV,13,ret,1
067903.344,HBD,IF1,MSG,AidGLEP,SV,14,ret,1
067903.344,HBD,IF1,MSG,AidGLEP,SV,15,ret,1
067903.344,HBD,IF1,MSG,AidGLEP,SV,16,ret,1
067903.344,HBD,IF1,MSG,AidGLEP,SV,18,ret,1
067903.344,HBD,IF1,MSG,AidGLEP,SV,19,ret,1
067903.344,HBD,IF1,MSG,AidGLEP,SV,20,ret,1
067903.344,HBD,IF1,MSG,AidGLEP,SV,21,ret,1
067903.344,HBD,IF1,MSG,AidGLEP,SV,22,ret,1
067903.344,HBD,IF1,MSG,AidGLEP,SV,23,ret,1
067903.344,HBD,IF1,MSG,AidGLEP,SV,24,ret,1
067904.000,HBD,IF1,TIM,DSP,u1ChnNum,37,u2DataSize,57
067904.000,HBD,IF1,COM,BinDecX,65065
067904.000,HBD,WRN,COM,DtNxtMM,2011,5011
067908.000,HBD,ERR,COM,GpsDIFu,
067908.852,HBD,ERR,COM,FuFlush,
067908.852,HBD,IF1,COM,MsgGbg1,CA
067908.852,HBD,IF1,COM,MsgGbg1,CA
067908.852,HBD,IF1,GPS,TkDltIn,1011,4283,3272
067908.852,HBD,IF1,COM,MsgGbg1,CA
067908.852,HBD,IF1,COM,MsgGbg1,CA
067908.852,HBD,IF1,COM,MsgGbg1,7A
067908.852,HBD,IF1,COM,MsgGbg1,7A
067908.852,HBD,IF1,COM,MsgGbg1,CA
067908.852,HBD,IF1,COM,MsgGbg1,2A
067908.852,HBD,IF1,COM,MsgGbg1,5B
067908.852,HBD,IF1,COM,MsgGbg1,CA
067908.852,HBD,IF1,COM,MsgGbg1,93
067908.852,HBD,IF1,COM,MsgGbg1,7B
067908.852,HBD,IF1,COM,MsgGbg1,CA
067908.852,HBD,IF1,COM,MsgGbg1,CA
067908.852,HBD,IF1,COM,MsgGbg1,CA
067908.852,HBD,IF1,COM,MsgGbg1,CA
067908.852,HBD,IF1,COM,MsgGbg1,F2
067908.852,HBD,IF1,COM,MsgGbg1,CA
067908.852,HBD,IF1,COM,MsgGbg1,C2
067908.852,HBD,IF1,COM,MsgGbg1,CA
067908.852,HBD,IF1,COM,MsgGbg1,CA
067908.852,HBD,IF1,COM,MsgGbg1,CA
067908.852,HBD,IF1,COM,MsgGbg1,CA
067908.852,HBD,IF1,COM,MsgGbg1,CA
067908.852,HBD,IF1,TIM,NWloc,fgfirstUseNW,0,case,0,NWAID,0,NWUSE,0
067908.852,HBD,IF1,AGP,BOOST,Posdiff:43.216976,0.983465,num:8,PosConverge,1,BoostRemT,15.000
$Boost, flag on*64
$MTK_GPS_BEST,5,5011,PR,8,TT4SV,5011*28
$LOC_Cache_BIT,00000000*7F
$DBnm_NLP,[24.975739,121.327994,0,20.000000][2016/1/26,1:2:33][0][1]*3A
067908.852,HBD,IF1,COM,MsgGbg1,1A
067908.859,HBD,IF1,COM,MsgGbg1,B2
067908.859,HBD,IF1,COM,MsgGbg1,32
067908.859,HBD,IF1,COM,MsgGbg1,B2
067908.859,HBD,IF1,COM,MsgGbg1,C7
067908.859,HBD,IF1,COM,MsgGbg1,0A
067908.859,HBD,IF1,COM,MsgGbg1,F4
067908.859,HBD,IF1,COM,MsgGbg1,0A
067908.859,HBD,IF1,COM,MsgGbg1,75
067908.859,HBD,IF1,COM,MsgGbg1,65
067908.859,HBD,IF1,COM,MsgGbg1,6C
067908.859,HBD,IF1,COM,MsgGbg1,6B
067908.859,HBD,IF1,COM,MsgGbg1,CA
067908.859,HBD,IF1,COM,MsgGbg1,CA
067908.859,HBD,IF1,COM,MsgGbg1,D4
067908.859,HBD,IF1,COM,MsgGbg1,DA
067908.859,HBD,IF1,COM,MsgGbg1,C2
067908.859,HBD,IF1,COM,MsgGbg1,DA
067908.859,HBD,IF1,COM,MsgGbg1,CA
067908.859,HBD,IF1,COM,MsgGbg1,CA
067908.859,HBD,IF1,COM,MsgGbg1,4A
067908.859,HBD,IF1,COM,MsgGbg1,4A
067908.859,HBD,IF1,COM,MsgGbg1,79
067908.859,HBD,IF1,COM,MsgGbg1,03
067908.859,HBD,IF1,COM,MsgGbg1,CA
067908.859,HBD,IF1,COM,MsgGbg1,CA
067908.859,HBD,IF1,COM,MsgGbg1,EA
067908.859,HBD,IF1,COM,MsgGbg1,25
067908.859,HBD,IF1,COM,MsgGbg1,0F
$[AGT],BauGStr!!
$[AGT],auGFin,NNTG:0,BTE:1
$cache_pos,-3007998.261785,4941839.564807,2676711.064507,[1137806564]*64
$cache,0,13,-2.504730*46
$cache,1,5,-2.693787*71
$cache,2,2,-3.529846*74
$cache,4,15,-2.444004*41
$cache,5,20,-2.343208*48
$cache,6,29,-2.386551*40
$cache,7,30,-3.060577*47
$DO_Err,mean,-2.708958,std,0.404855*59
$Cache_age,9,NLP_age,-99,NV_age,9*3B
067909.375,HBD,IF1,AGP,AGPSMGN,Posdiff:43.216976,0.983465,num:0,PosConverge,0,AGPSRemT,16.000
067909.375,HBD,IF1,TIM,RstFSAg,5.0

#XPda.@AACD4&73

#MZYQ.@B1CJYI6I8NNL]=&14

#MZYQ.AH1HG4&57
067909.375,HBD,IF1,AGP,AGPSMGN,AGPSMode:-1,AGPSTimer:0.000
$PMTK015,67909378,10,10381,AMode,-1,ATimer,0.000,Remain,16.000*5E
067909.375,HBD,IF1,AGP,AGPSMGN,DOP.H :1.272881,PosCon:0,[74.332314,36.668934,4.074548]
$PMTK015,67909378,6,10381,NACQ,7,NBS,7,NSFS,0,NEXS,0*50
$HBD,INF,RTC,F,0,Y,16,M,1,D,26,H,1,M,22,Sec,36,Sub,27588,T,5002,SM,14288*34
$DBts1,TSOK,0,WNSet,1,TOWS,10,WN,1881,BAcc,27.171,TAcc,211160.359,*5C
$DBts2,TTK,5011,TOW,177773.894000000,B,-0.000419450,D,0.000001264,*23
067909.375,HBD,IF1,ALO,CdmPvtU,
$HBD,INF,RTC,F,0,Y,16,M,1,D,26,H,1,M,22,Sec,36,Sub,27588,T,5002,SM,14288*34
$GNGGA,012236.894,2458.5403,N,12119.6848,E,1,8,1.27,152.7,M,15.0,M,,*4B
$GPGSA,A,3,13,05,02,15,20,29,30,193,,,,,1.56,1.27,0.90*3D
$GLGSA,A,3,,,,,,,,,,,,,1.56,1.27,0.90*11
$GPGSV,3,1,11,13,88,009,37.5,193,66,050,38.0,02,55,118,31.6,05,48,026,35.4*45
$GPGSV,3,2,11,15,48,235,37.2,20,39,310,35.3,29,38,288,36.6,30,20,065,32.3*7C
$GPGSV,3,3,11,06,13,129,,24,05,190,,07,03,041,*4D
$GLGSV,3,1,9,88,71,247,,65,40,008,,66,37,293,,87,33,174,*57
$GLGSV,3,2,9,75,18,098,,74,08,048,,76,07,148,,72,06,048,*54
$GLGSV,3,3,9,67,01,254,*6F
$GNRMC,012236.894,A,2458.5403,N,12119.6848,E,1.911,68.44,260116,,,A*74
$GNVTG,68.44,T,,M,1.911,N,3.540,K,A*17
$GNACCURACY,9.1*1E
$PMTKDGP,0*4D
$PMTKDBG,5011,0,1,0,0,0,0,0,1,0,0,0,0,0,0,0,0,0,0,1,1,1,1,1,0,0,0,0,0,0,0,0,1,0001,0035,0002,0008,0008,0000,0001,0000,0.0000,1.2643,0.0000,0.0000,0.0000,0.0000,*40
$PMTKDB2,0C1A,0000,0000,0000,0000,0000,0000,0000,0082.88,1258.05,12643.88,211160.36,00-4.04,-419.45,00-0.04,0000.00,*3E
$PMTKEPH,43,2,3,4,5,6,7,9,12,13,15,17,19,20,23,-24.2.5,25,28,29,30,193,-65.2.5,-66.2.5,-67.2.5,-68.2.5,-69.2.5,-70.2.5,-71.2.5,-72.2.5,-73.2.5,-74.2.5,-75.2.5,-76.2.5,-77.2.5,-78.2.5,-79.2.5,-80.2.5,-82.2.5,-83.2.5,-84.2.5,-85.2.5,-86.2.5,-87.2.5,-88.2.5*5B
$PMTKALM,32,1,2,3,5,6,7,8,9,10,11,12,13,14,15,16,17,18,19,20,21,22,23,24,25,26,27,28,29,30,31,32,193*51

#WXM[.?0A2C4E6G8I:K<M>O@QBSDUFWHYJ[L]N_PaRcTeVgXiZk\m^o`qbsdufwhyj{l}npy&39

#NMMW.@0C2E4G6H8K:L<O>Q@QBSDUFWH`ZK]]NabjRjTffmXqZltv^ppayud|fyzyj||mprvx{³ĵƷȹʻ&6D
#NMQR.A0AC3D5FHMI^QOMP`QQR[TUVWiY_\\^d_vcccmz{}j}mp^qtuy|z´öǸϽҿ³ŶɹӼο&BE
#NMQR.A0AD3D5FHMI^QOMP`QQRUTUVWaac[`rffveccvhg{knnrrt^svqyuy|{zĳȽǺϼ¿³Ŷʹμο&F8
#NMQR.A0AE3D5FHMI^QOMP`QQfWjkVWj]nmrq`d`ecceewpkikrrm^puqrzuyxz}öϻſ³Ŷ̹μο&FB
#NMQR.A0AG3D5FHMI^QOMP`QQSiTUVW^l[^qpaf`eccekmmkmsntn^qtvuy|ɷǾϺνÿ³Ŷȹ̼ο&07
#NMQR.A0AH3D5FHMI^QOMP`QQUYTUVW[al`]^edvdccw{hxj~qmn^oqrt{}}·ȵ̿ÿ³Ŷȹ˼ο&53
#NMQR.A0AI3D5FHMI^QOMP`QQhVjkVW_Yoc_qefvwcclgzpj}|v^syqvvux|ŶҾ³Ŷȹ˼ο&68
#NMQR.A0AJ3D5FHMI^QOMP`QQhVjkVW_]]\rqecvtccflglkokrt^xqqrw}zƳǹ˻ſ³Ŷɹмο&E7
#NMQR.A0AK3D5FHMI^QOMP`QQVWTUVW_Ybc\ddpvwcczji|kp~mp^rqr{y|{ǻҿ³Ŷʹμο&CA
#NMQR.A0BB3D5FHMI^QOMP`QQhUjkVW^a`[\cru`ecchnx|ki~|mv^xqrzuzw~ƹýп³Ŷ˹ϼο&E9
#NMQR.A0BC3D5FHMI^QOMP`QQgijkVW\]bmmqcgvbccllnzlkj}ps^pyqzy{~|ĳĳȸϿ³Ŷ͹˼ο&CE
#NMQR.A0BD3D5FHMI^QOMP`QQSZTUVWXYkb^sdr`ucckhjij{plrn^wpqtuuzy}~ȾϺ³Ŷ̹мο&B7
#NMQR.A0BE3D5FHMI^QOMP`QQg\jkVW_a^cqetdvuccunl|kloq}v^oqt~~ĶǻǼſ³Ŷȹϼο&9D
#NMQR.A0BF3D5FHMI^QOMP`QQgfjkVWYaol\]rdvucczhwoknkn^xqvs||Ǻȼǻƿ³Ŷȹ˼ο&C1
#NMQR.A0BG3D5FHMI^QOMP`QQhSjkVW_]a`pfp`vwccxhzjk}|rm^sqv}|ŵǷǷп³Ŷɹмο&80
#NMQR.A0BH3D5FHMI^QOMP`QQSfTUVW^a[]rn^c`wccezizj{ov^qyqvs{u~Żϼ³Ŷȹμο&F1
#NMQR.A0BI3D5FHMI^QOMP`QQh\jkVW\Yndqbsqvscczkixkkp~}^uyqwwz{ļǺĿ³Ŷȹͼο&D4
#NMQR.A0BJ3D5FHMI^QOMP`QQTUTUVW_]ap_r_s`fccgjimkpqpqt^yqzv{uz}~Ǽʹǿ˻ο³ŶɹҼο&B7
#NMQR.A0BK3D5FHMI^QOMP`QQhhjkVW`Y]onoeqvrcclj{jkjp~n^vpqwx{{~³¹ƹǼƿ³Ŷɹ̼ο&B9
#NMQR.A0CB3D5FHMI^QOMP`QQSZTUVWZao`____`eccxmxmkqqqp^pqt}uyy|ŷƳǼϼ³Ŷɹ̼ο&A6
#NMQR.A0CC3D5FHMI^QOMP`QQgijkVWXYbbnq__vbccinozkkkr^xyq}xʺ¿ƿ³Ŷ͹˼ο&AE
#NMQR.A0CD3D5FHMI^QOMP`QQfUjkVW[a^m_bra`eccdykkkzo|~u^ttqutuyyz}|ùžǻϺνϿ³Ŷɹ̼ο&73
#NMQR.A0CE3D5FHMI^QOMP`QQgijkVWa]a]qobgvwccwgmgkzrk}^uqwöǸϽѿ³Ŷɹμο&A4
#NMQR.A0CF3I5FHMI^QOMP`QQhejkVW]ab_rrfevvccunfykl{q^xqtwwz}~ǿѿ³Ŷɹϼο&71
#NMQR.A0CG3D5FHMI^QOMP`QQeZjkVW]]\^r_fg`uccivkhj}lks^stqt|u}²ʽлӿ³Ŷʹμο&36
#NMQR.A0CH3D5FHMI^QOMP`QQYSjkVWmY]pq_cg`wcchl{|kj}km^ovqr{vuz³ɶǾüӿ³Ŷɹ̼ο&CA
#NMQR.A0CI3D5FHMI^QOMP`QQSiTUVWlYa[\ddbvtcczllykm~^uqsxy|ĵǹſ³Ŷȹ̼ο&1D
#NMQR.A0CJ3D5FHMI^QOMP`QQSZTUVWna^]`^oa`tcceil|jz~m^qqvuxy|~ò·ĵϼҿ³Ŷɹͼο&59
#NMQR.A0CK3D5FHMI^QOMP`QQR\TUVWYaboabscvrcci{kikjk~po^uwqrww{ĸĵƴǼÿÿ³Ŷ˹ͼο&87
#NMQR.A0DB3D5FHMI^QOMP`QQT[TUVWkYk^\ocg`acclinlkj~nv^tsqr}{úķϺҾ³Ŷȹ˼ο&7D
#NMQR.A0DC3D5FHMI^QOMP`QQhUjkVWnY`l^b`g`acclflxj}|m}m^oqvxzôǵҽ³Ŷȹ˼ο&8F
#NMQR.A0GG3D5FHMI^QOMP`QQRWTUVWiampqprp`cccdlixiimk}s^pxqrtux~{~ŷȺ¿¿óŶȹмӿ&6F
#NMQR.A0GH3D5FHMI^QOMP`QQSSTUVW[ala]cp_`cccij{oh}mqr~^qryuxw|µȼ̿ÿƳŶȹмӿ&08

#NM^Z.BB1GCEF6H8JKP<NNT@QBSD&0F
#\XOU.?0BE3HF6G8ON;QNP`@QBW\UF[`YJ`L_gOabjhejVhknqost^qtcqvyz|znqv{~&4D
#\XOU.@0F2FM5F7NM:PMO_?PATWTEX[XI_K^_N`aigdiUgjmlkqp]rrrxbpu}y}mpuz}&4F
#\XOU.A0C2FI5F7NM:PMO_?PAVWTEZ[XI_K^]N`aigdiUgjmnppn]oxxbpvvzzz}mpuz}&0F
#\XOU.C0BG3HE6G8ON;QNP`@QBXTUF\XYJ`L_gOabjhejVhknmquu^vwczxw}yk~n|rwz~&70
#\XOU.D0CB3GM6G8ON;QNP`@QBXTUF\XYJ`L_gOabjhejVhknlkmq^xcqyy}|mpty|&44
#\XOU.E0CK3HE6G8ON;QNP`@QBWVUF[ZYJ`L_fOabjhejVhknkopu^tywcq}~x}}}mpty|&D1
#\XOU.F0DB3GJ6G8ON;QNP`@QBXVUF\ZYJ`L_cOabjhejVhkmoppu^xcqv}x{~|~|~nqv{~&ED
#\XOU.G0G2C4E6G8[KKL=N?PARCWEVGYZb`]bN`ceegilVmmz{[ippotxssxufx{i{nsuwy~&90
#\XOU.H0H2C4E6G8[KKL=N?PARCWEVGYZb`]bN`cdkiffVk~}o[iorusu{{vyfxxi{}}nsuwy~&99
#\XOU.@@1CLG5JH8I:QP=SPRbBSDZ^WH^b[LbNbcQcdljglXjltnvvs`suwesxyz}orv{~&08
#\XOU.AF1DCG5F7H9J;QMNO@QBSDUFZHYJ[L_gbhcRyly|Wejjmmtnurubtyevgxyz{l}nprwy|~&24
#\XOU.BG1H3D5F7H9\LLM>O@QBSDXFWHZ[ca^cOadfemjjWkksl\jqqxuxyxxxgy|j{l}~qsuw|~&DC
#\XOU.CH1B3D5F7H9JKLM>O@QBSDUFWHYJ[L]^_`QbSdUfWhijk\m^o`qbstuvgxizk|m~oq&36

#NM`a.D@BC3E5F7H9J;L=N?PQRSTUVWHYJ[L&56
#NLPT.@C1CF4EFGK9KLJR>ONRRYDX_^[IW[ZebO`_igeUoelkZ&29
#NLPT.D0BE3DEFJ8PHL<MLOPQB\W]][HVZYb`N_^cfgTflelqZ&2C
#NLPT.A0BE3DEFJ8IHN<MLOTZBWUU\GXWZaL]\_`dRddckjX&AC
#NLPT.@E1CF4EFGK9PIP=NMPSUCW^][HYX[]M^]`abSmcjhX&B8
#NLPT.A@1CF4EFGK9PIN=NMPQSCXUZ^HVZY\`N_^abdTndooY&E0
#NLPT.AI1CF4EFGK9LIL=NMPRZCW^][HYX]]M^]`eiSmcjkX&C9
#NLPT.B@1CF4EFGK9SIU=NMPUYCVVWXHVZY]aN_^aclTffellZ&16
#NLPT.E0B2&D7
#NLPT.F0B2&D8
#NLPT.@ID2DG5FGHL:LJP>ONRRWDV_^[I[Y\eN`^cekTndjpY&02

#NMMN.@0>CLMF6JQRJ;QMOP@RS[YV[GYYJ[L^^OahijkhdoqmZk\&A0
#KL_c.A0BEHIKKI8FMMSM>SXAVCUEVG`YZ\L&AB
#KL_c.D0BEHGFLK8FLSLP>SXAVCUEVG`YZ\L&AB
#KL_c.E0BEGGILO8FNTRS>SXAVCUEVG`YZ^L&C0
#KL_c.F0BEFMKIH8FMSOU>SXAVCUEVG`YZ^L&BB
#KL_c.@C1CFILJNO9GMLOV?TYBWDVFWHaZ[]M&E4
#KL_c.@E1CFIHLPP9SQ<QV?TASCTE^WXZJ&5D
#KL_c.A@1CFIGFHL9GQSO>SXAVCUEVG`YZ\L&A3
#KL_c.AD1CFHEKIO9KMTT>SXAWTVEXGXIb[\`N&1A
#KL_c.AI1CFIFJKP9GLOQV?TYBWDVFWHaZ[]M&E7
#KL_c.B@1CFHJKKP9GMRNW?TYBWDVFWHaZ[_M&E7
#KL_c.@ID2DFNHPPM:HMPUU@UZCXEWGXIb[\^N&23
#KL_c.A@J2GFFHIH9GNRUR?TYBWDWFWHaZ[]M&DE
#KL_c.A@E2GFEOLM9GLPQQ?TYBWDWFWHaZ[]M&DE
#KL_c.AAD2GEJHKK9OL<QV?TATCTE^WX\J&47
#KL_c.AAE2GEKFKO9GOQOT?TYBWDWFWHaZ[_M&E3
#KL_c.A@B2GEKIPK9GMORT?TYBWDWFWHaZ[_M&E2
#KL_c.A@I2GEMIHL9KMT=RW@UBUDUF_XY]K&82
#KL_c.A@H2GEKGPP9KMOQ>SXAVCVEVG`YZ^L&B8
#KL_c.AAB2GFEJPP9GPUPW?TYBWDWFWHaZ[]M&EC
#KL_c.AAA2GFHOIO9GMSQV?TYBWDWFWHaZ[]M&E6
#KLbg.?0CB3EH6III:LUP>Q@VBTYEXWaI\[L_gObafSffgWkiZmlu^u`srtdwv~h{{loqu&C0
#KLbg.@0C2EDG6IHL:&5E

#\Qpou/CG2DHIJG8I:K<M>SPXBVTXFWH[c`cMa`fcRjgimWolkt\mpax|fz|~k}}puz&DF
#NP\U.@C1CDGLNGMPRM<aTTPQRCY\YmmoJdaor`dQsefgwnXrllv_qxtvfkryʶƯضӽ&98
#NP\U.@E1CDGLNGMPOM<aTTPQRCY\YmmoJdaor`dQsefgwnXrllw_uutwfzkryġʷ̨״͹&06
#NP\U.@G1CDGLNGIPMR<aTTPQRCTEVGXIZK^_`pcaRyz{oW}n~tpm^qrv{eyy{lszűĽĵ&5F
#NP\U.@I1CDGLNGJIQP<aTTPQRCTEVGXIZK]p`pcaRyz{{Wz{mtm^pz|eyxlszƣ˿Ʊٸ&46
#NLXZ.@C1BC4FNOI9N_NSQT@WUTWXXGnm^b\]NpaavciUkonk\rnycuuwzjq&D8
#NLXZ.@D1BC4FNOI9N`PPdd@WUSiYgGnm^\\]NpaavgjUkm~m}\nxwwycyzjo&CB
#NLXZ.@E1BC4FNOI9NaPNcU@WUi\^gGnm\a\]NpaavvvUkhqi\nqtuzcww~~jq&2E
#NLXZ.@F1BC4FNOI9OKPRSU@WUTj\iGnm`m\]NpaavgkUwy~{jl\b{x}i|}p&F7
#NLXZ.@G1BC4FNOI9OLQVbU@WUTYWjGnm^]\]NpaauteUzlynk\nruycy{y|j}~q&C1
#NLXZ.@H1BC4FNOI9OMTTWd@WUiX^YGnm]q\]NpaauwhUhohins\ouyc}y}j~}~q&E2
$[AGT],GSET=10
$[AGT],rm,1,rt,1
$[AGT],fsm,wm,2
$[AGT],rv PMTKRQTEPH,1881,177773,2,24,32
067909.383,HBD,ERR,COM,PktTokX,
067909.383,HBD,IF1,TIM,DSP,u1ChnNum,37,u2DataSize,57
067909.383,HBD,IF1,COM,BinDecX,65065
067909.383,HBD,WRN,COM,DtNxtMM,11011,6011
067909.383,HBD,IF1,GPS,TkDltNo,5011,4283
067909.383,HBD,IF1,TIM,NWloc,fgfirstUseNW,0,case,0,NWAID,0,NWUSE,0
067909.383,HBD,IF1,AGP,BOOST,Posdiff:2.617457,1.003300,num:0,PosConverge,0,BoostRemT,14.000
$LOC_Cache_BIT,00000000*7F
$DBnm_NLP,[24.975739,121.327994,0,20.000000][2016/1/26,1:2:33][0][1]*3A
$cache_pos,-3007998.261785,4941839.564807,2676711.064507,[1137806564]*64
$Cache_age,10,NLP_age,-99,NV_age,10*3B
067909.391,HBD,IF1,AGP,AGPSMGN,Posdiff:2.617457,1.003300,num:0,PosConverge,0,AGPSRemT,16.000
067909.391,HBD,IF1,TIM,RstFSAg,6.0

#XPda.@BACD4&74
067909.391,HBD,IF1,AGP,AGPSMGN,AGPSMode:-1,AGPSTimer:0.000
$PMTK015,67909389,10,11391,AMode,-1,ATimer,0.000,Remain,16.000*50
$PMTK015,67909389,6,11391,NACQ,0,NBS,0,NSFS,0,NEXS,0*5E
$HBD,INF,RTC,F,0,Y,16,M,1,D,26,H,1,M,22,Sec,37,Sub,27579,T,6002,SM,10038*35
$DBts1,TSOK,0,WNSet,1,TOWS,10,WN,1881,BAcc,27.147,TAcc,211160.359,*59
$DBts2,TTK,6011,TOW,177774.894000000,B,-0.000418178,D,0.000001266,*2B
067909.391,HBD,IF1,ALO,CdmPvtU,
$HBD,INF,RTC,F,0,Y,16,M,1,D,26,H,1,M,22,Sec,37,Sub,27579,T,6002,SM,10038*35
$GNGGA,012237.894,2458.5410,N,12119.6854,E,6,0,,159.6,M,15.0,M,,*5A
$GPGSA,A,1,,,,,,,,,,,,,99.99,99.99,1.00*01
$GLGSA,A,1,,,,,,,,,,,,,99.99,99.99,1.00*1D
$GPGSV,3,1,11,13,88,009,,193,66,050,,02,55,118,,05,48,026,*49
$GPGSV,3,2,11,15,48,235,,20,39,310,,29,38,288,,30,20,065,*7E
$GPGSV,3,3,11,06,13,129,,24,05,190,,07,03,041,*4D
$GLGSV,3,1,9,88,71,247,,65,40,008,,66,37,293,,87,33,174,*57
$GLGSV,3,2,9,75,18,098,,74,08,048,,76,07,148,,72,06,048,*54
$GLGSV,3,3,9,67,01,254,*6F
$GNRMC,012237.894,V,2458.5410,N,12119.6854,E,0.000,68.44,260116,,,E*61
$GNVTG,68.44,T,,M,0.000,N,0.000,K,E*19
$GNACCURACY,9.1*1E
$PMTKDGP,0*4D
$PMTKDBG,6011,0,1,0,0,0,0,0,1,0,0,0,0,0,0,0,0,0,0,1,1,1,1,1,0,0,0,0,0,0,0,0,0,0001,0035,0002,0000,0000,0000,0001,0000,0.0000,1.2655,0.0000,0.0000,0.0000,0.0000,*45
$PMTKDB2,0C11,0000,0000,0000,0000,0000,0000,0000,0082.92,0000.00,12655.05,211160.36,00-4.49,-418.18,00-0.04,0000.00,*4C
$PMTKEPH,43,2,3,4,5,6,7,9,12,13,15,17,19,20,23,-24.2.5,25,28,29,30,193,-65.2.5,-66.2.5,-67.2.5,-68.2.5,-69.2.5,-70.2.5,-71.2.5,-72.2.5,-73.2.5,-74.2.5,-75.2.5,-76.2.5,-77.2.5,-78.2.5,-79.2.5,-80.2.5,-82.2.5,-83.2.5,-84.2.5,-85.2.5,-86.2.5,-87.2.5,-88.2.5*5B
$PMTKALM,32,1,2,3,5,6,7,8,9,10,11,12,13,14,15,16,17,18,19,20,21,22,23,24,25,26,27,28,29,30,31,32,193*51

#WXM[.?0A2C4E6G8I:K<M>O@QBSDUFWHYJ[L]N_PaRcTeVgXiZk\m^o`qbsdufwhyj{l}npy&39
$[AGT],GSET=10
$[AGT],rm,1,rt,7
$[AGT],fgFirstReq:0
$[AGT],bitmap,old: 308,new: 108
$[AGT],skip re_agps_req
$[AGT],GSET=10
$[AGT],rm,4,rt,9
#NMQR.A0GI3D5FHMI^QOMP`QQR\TUVWnlpd\ds``cccgemnh~{|m^uqruux|~{{¸ºȼνƿǳŶɹмӿ&94
#NMQR.A0GJ3D5FHMI^QOMP`QQRhTUVWl]^b]a^f`dccekjghrlo^qwqruuyy}}ƱɷȻϿνοȳŶȹмӿ&45
#NMQR.A0GK3D5FHMI^QOMP`QQhYjkVWXl[m\]gu`cccjkzhiismn^yqrzyuxyŴȺýĿóŶɹмӿ&62
#NMQR.A0HB3D5FHMI^QOMP`QQRXTUVW^Yn\\ndd`cccewikiikl~~^qryux{~ƴȺν¿ƳŶɹмӿ&AC
#NMQR.A0HC3D5FHMI^QOMP`QQhhjkVWnl^\rscf`cccu{okh~p~q^tqrxux{ĹȻνÿǳŶɹмӿ&A1
#NMQR.A0HD3D5FHMI^QOMP`QQRSTUVWiYa_rprt`ccckiw}h~npur^pvqrtwuyz{ǵȻοÿȳŶɹмӿ&98
#NMQR.A0HE3D5FHMI^QOMP`QQR\TUVWka^m\`er`fccenolhrko^qqssu{{z~ŸȾлƿĳŶȹмӿ&97
#NMQR.A0HF3D5FHMI^QOMP`QQRZTUVW]lmb\]_r`gccmjjohooolu^svqrzu{yy~|´²ĺϿɳŶȹмӿ&F0
#NMQR.A0HG3D5FHMI^QOMP`QQRYTUVW_lpa\_eg`fccyknihq}or^wwqrwuz}zðöƹȿϾϿ³Ŷȹмӿ&E3
#NMQR.A0HH3D5FHMI^QOMP`QQReTUVWna`d\adp`fcch{iyhzpps^sqsuz}|ŷȾϼпóŶȹмӿ&C7
#NMQR.A0HI3D5FHMI^QOMP`QQhgjkVWmaa`\^as`fccjlx}hqs~t^pqrvuz{úĵȿϿϿĳŶȹмӿ&ED
#NMQR.A0HJ3D5FHMI^QOMP`QQTeTUVWjln_^`op`fccehgohp~mr^qruz}zîǻοɳŶȹмӿ&22
#NMQR.A0HK3D5FHMI^QOMP`QQRYTUVW_Y\d\e_c`gccjzyihopou^xqsswu{||z}ƵͿϿ³Ŷȹмӿ&E8
#NMQR.A0IB3D5FHMI^QOMP`QQRdTUVWjlno\`ph`fccxvjhhz|n~^xuqsvu{{|{ƺȽϽοóŶȹмӿ&03
#NMQR.A0ID3D5FHMI^QOMP`QQRiTUVWZY_[\oguvhccfhkyh}plv^upqrw~w|}~´ȴȹϿѿųŶʹмӿ&ED
#NMQR.A0IE3D5FHMI^QOMP`QQh[jkVW_lmcqpbuvhccgnzmh|~o~m^wqrw~{{z|ŸȹϿųŶ˹мӿ&31
#NMQR.A0IF3D5FHMI^QOMP`QQhSjkVW\akcq`cevhccxynzh|}tlv^qyqrw}|}źƼȹϺϿĳŶ˹мӿ&1C
#NMQR.A0IG3D5FHMI^QOMP`QQRhTUVW_a_`\cppvhccfiiph}~trt^vqrt~xzöǴȹϽпƳŶȹмӿ&99
#NMQR.A0IH3D5FHMI^QOMP`QQReTUVWXlna]e`eviccmjooh|lsp^pqsy~||·ȹÿҿųŶʹмӿ&C4
#NMQR.A0II3D5FHMI^QOMP`QQffjkVWYY^drc_rviccfm{}h|jsp^tqrtz{ĴñƹȹпųŶʹмӿ&46
#NMQR.A0IJ3D5FHMI^QOMP`QQhgjkVW\lbnqrofvhccexokh|spmo^sqruw~úȹϿϿĳŶ̹мӿ&B3

#NM^Z.BB1HCEF6H8JKP<NNT@QBSD&10
#\XOU.AF1B3D5F7H9JKLM>O@QBSDUFWHYJ]e`faPwjwzUchhkkrlsps`rwctevwxyj{l}npuwy{}&4C
#\XOU.BG1B3D5F7H9JKLM>O@QBSDUFWHZ[ca^cOadfemjjWkksl\jqqxuxyxxxgy|j{l}~qsuw|~&8B
#\XOU.CH1B3D5F7H9JKLM>O@QBSDUFWHYJ[L]^_`QbSdUfWhijk\m^o`qbstuvgxizk|m~oq&36

#NM`a.E@BC3E5F7H9J;L=N?PQRSTUVWHYJ[L&57
$[AGT],inco
$[AGT],sel SI
$[AGT],rm,4
$[AGT],state:4
$[AGT],state:4
$[AGT],wkssi
$[AGT],s,1,m,3
$[AGT],idle
$[AGT],send aosp AGPS req

#NMMN.@0>CLMH6JQRJ;RMOP@RS[YV\GYYJ[L^^OahijkidoqmZk\&A5
#KL_c.A0IFGEJF7ELLRM=RW@UBTDUF_XY[K&77
#KL_c.D0IFDJKH7EKRKO=RW@UBTDUF_XY[K&7F
#KL_c.E0IEDMKK7EMSQT=RW@UBTDUF_XY]K&95
#KL_c.F0IDKEGO7ELROL=RW@UBTDUF_XY]K&88
#KL_c.@C1JGINMM8FLKNU>SXAVCUEVG`YZ\L&B9
#KL_c.@E1JGFFOO8RP;PU>S@RBSD]VWYI&2A
#KL_c.A@1JGDJGK8FPRN=RW@UBTDUF_XY[K&79
#KL_c.AD1JEMEHN8JLSR=RW@UBUDUF_XY]K&8B
#KL_c.AI1JFMNJN8FKNPV>SXAVCUEVG`YZ\L&C6
#KL_c.B@1JFHEJM8FLQNM>SXAVCUEVG`YZ^L&AA
#KL_c.@ID2JLFJOK9GLOTT?TYBWDVFWHaZ[]M&EF
#KL_c.A@J2GFFHHQ9GNRUR?TYBWDWFWHaZ[]M&E6
#KL_c.A@E2GFEOLM9GLPQR?TYBWDWFWHaZ[]M&DF
#KL_c.AAD2GEJHKK9NT<QV?TATCTE^WX\J&4E
#KL_c.AAE2GEKFKN9GOQOV?TYBWDWFWHaZ[_M&E4
#KL_c.A@B2GEKIPJ9GMORV?TYBWDWFWHaZ[_M&E3
#KL_c.A@I2GEMIHL9KMS=RW@UBUDUF_XY]K&81
#KL_c.A@H2GEKGPP9KMOP>SXAVCVEVG`YZ^L&B7
#KL_c.AAB2GFEJPN9GPUQN?TYBWDWFWHaZ[]M&E2
#KL_c.AAA2GFHOIN9GMSQV?TYBWDWFWHaZ[]M&E5
#KLbg.?0CB3EH6III:LUP>Q@VBTYEXWaI\[L_gObafSffgWkiZmlu^u`srtdwv~h{{loqu&C0
#KLbg.@0C2EDG6IHL:&5E

#\Qpou/E1CHFGL7H9J;L=OPYAYWDUFZ\ZZK_bc`PfjleUkpkjZkno_vzdxz|i{{}}nsx&66
#NP\U.A@1CDGLNGMPOM<aTTPQRCY\YmmoJdaor`dQsefgwnXrll_tvtwfxi}}pw~ȵʦͽô͹&5B
#NP\U.AC1CDGLMPNMNR<aTSPQRCTEVGXIZK_r`gfvRyzz|W}{qnl^rueylszȺɷѮɵͼ&4F
#NP\U.AE1CDGLNGKPNR<aTSPQRCTEVGXIZKab`qvcRyzxmW~kllq^tuqwvex}lrxšȸѾضϽ&F8
#NP\U.AH1CDGLMPKNSS<aTTPQRCTEVGXIZK]n`gfvRdkUjhlkos\noqcvxyjqw~ɽղɹ&D6
#NLXZ.@I1BC4FNOI9ONQ`Qc@WUTWY_Gnm^[\]NpabkdzUznylk\nwsqwcwzj}~q&CE
#NLXZ.A@1BC4FNOI9OONUVO@WUiY[^Gnm]p\]NpaavdgUhl}kjt\pspqcw~~|j~}~q&8A
#NLXZ.AA1BC4FNOI9OP^``P@WUifggGnm]^\]NpaauywU|{p{~\sqxvcu}~jq&95
#NLXZ.AB1BC4FNOI9OQObOd@WUiWWiGnm]m\]NpabjhkUhohqqo\~v{c{xwz|j~q&EB
#NLXZ.AC1BC4FNOI9ORQRVT@WUSV]ZGnm]\\]NpaavihUkj|qm\vsvwvcv~y|jq&E9
#NLXZ.AD1BC4FNOI9OSNORU@WUSY^hGnm]q\]NpaautlUm{yp|\qvvsbtt}xwzi|}p&88
067909.398,HBD,IF1,TIM,DSP,u1ChnNum,37,u2DataSize,57
067909.398,HBD,IF1,COM,BinDecX,65065
067909.398,HBD,WRN,COM,DtNxtMM,12011,7011
067909.398,HBD,IF1,GPS,TkDltNo,6011,4283
$[AGT],GSET=10
$[AGT],rm,1,rt,7
$[AGT],fgFirstReq:0
$[AGT],bitmap,old: 108,new: 108
$[AGT],TSETe=10
$[AGT],inco
$[AGT],srm,1,dsm,4,tp,7,length,12
$[AGT],tp,264,wn,1881,tw,177774,si,12
$[AGT],rm,2
$[AGT],state:7
$[AGT],wn:1881, tw:177774
$[AGT],ergt
$[AGT],
$[AGT],Esgt 1137715200
$[AGT],epegt
$[AGT],gfisiz()
$[AGT],egtEf,1140307200
$Rdon
067909.406,HBD,IF1,TIM,NWloc,$[AGT],res,1137806574,sst,1137715200,egsn,1140307200
$[AGT],wk,epo
$[AGT],s,1,m,1
$[AGT],idle
$@#$^ [AGNT] pEd
$[AGT],opmode GLO(1),GEL(0),DB(0)
$[AGT],tw,177774,gs,1137806574
$[AGT],eextd
fgfirstUseNW,0,case,0,NWAID,0,NWUSE,0
$[AGT]start verify
$[AGT],gfisiz()
$[AGT]FileType:GPS+GLO
$[AGT],
$[AGT],epegt
$[AGT],gfisiz()
$[AGT],Extract epo done
067909.406,HBD,IF1,AGP,BOOST,Posdiff:9.793498,0.627416,num:8,PosConverge,1,BoostRemT,13.000
$Boost, flag on*64
$[AGT],GSET=10
$[AGT],rm,4,rt,8
$[AGT],inco
$[AGT],srm,4,dsm,4,tp,8,length,12
$LOC_Cache_BIT,00000000*7F
$[AGT],tp,264,wn,1881,tw,177774,si,12
$[AGT],rm,3
$[AGT],state:6
$DBnm_NLP,[24.975739,121.327994,0,20.000000][2016/1/26,1:2:33][0][1]*3A
$[AGT],wn:1881,tw:177774
$cache_pos,-3007998.261785,4941839.564807,2676711.064507,[1137806564]*64
$cache,0,13,-2.913635*48
$cache,1,5,-3.068115*7F
$cache,2,2,-3.600891*76
$cache,4,15,-2.786802*42
$[AGT],BGAI
$cache,5,20,-2.889023*4E
$cache,6,29,-3.208725*47
$[AGT],0,av:67,b_sky:0
$[AGT],1,av:73,b_sky:0
$[AGT],2,av:119,b_sky:0
$[AGT],3,av:0,b_sky:0
$[AGT],4,av:73,b_sky:0
$[AGT],5,av:73,b_sky:0
$[AGT],6,av:73,b_sky:0
$[AGT],7,av:65,b_sky:0
$[AGT],8,av:73,b_sky:0
$[AGT],9,av:59,b_sky:0
$[AGT],10,av:67,b_sky:0
$[AGT],11,av:123,b_sky:0
$[AGT],12,av:73,b_sky:0
$[AGT],13,av:59,b_sky:0
$[AGT],14,av:123,b_sky:0
$[AGT],15,av:63,b_sky:0
$[AGT],16,av:71,b_sky:0
$[AGT],17,av:57,b_sky:0
$[AGT],18,av:69,b_sky:0
$[AGT],19,av:89,b_sky:0
$[AGT],20,av:61,b_sky:0
$[AGT],21,av:65,b_sky:0
$[AGT],22,av:69,b_sky:0
$[AGT],23,av:55,b_sky:1
$[AGT],24,av:123,b_sky:0
$[AGT],25,av:63,b_sky:0
$[AGT],26,av:63,b_sky:0
$[AGT],27,av:69,b_sky:0
$[AGT],28,av:121,b_sky:0
$[AGT],29,av:73,b_sky:0
$[AGT],30,av:61,b_sky:0
$[AGT],31,av:109,b_sky:1
$[AGT],Eend:1, Send:1, ct:2
$[AGT],wkbee
$[AGT],s,1,m,2
$[AGT],idle
$@#$^ [AGNT] sBi
$cache,7,30,-3.122559*4C
$DO_Err,mean,-3.084250,std,0.250667*50
$Cache_age,11,NLP_age,-99,NV_age,11*3B
067909.406,HBD,IF1,AGP,AGPSMGN,Posdiff:9.793498,0.627416,num:0,PosConverge,0,AGPSRemT,16.000

#MZYQ.AA1D3&18
067909.406,HBD,IF1,TIM,RstFSAg,7.0

#XPda.G@BC3&49

#MZYQ.@B1CYVI6I8NP\]=&32

#MZYQ.AH1HG4&57
067909.406,HBD,IF1,AGP,AGPSMGN,AGPSMode:-1,AGPSTimer:0.000
$PMTK015,67909406,10,7011,AMode,-1,ATimer,0.000,Remain,16.000*6C
067909.406,HBD,IF1,AGP,AGPSMGN,DOP.H :1.273231,PosCon:0,[25.528885,14.859669,3.018239]
$PMTK015,67909407,6,7011,NACQ,7,NBS,7,NSFS,0,NEXS,0*63
$HBD,INF,RTC,F,0,Y,16,M,1,D,26,H,1,M,22,Sec,38,Sub,27591,T,7002,SM,16275*30
$DBts1,TSOK,0,WNSet,1,TOWS,10,WN,1881,BAcc,15.200,TAcc,211149.266,*5E
$DBts2,TTK,7011,TOW,177775.894000000,B,-0.000416935,D,0.000001255,*24
067909.406,HBD,IF1,ALO,CdmPvtU,
$HBD,INF,RTC,F,0,Y,16,M,1,D,26,H,1,M,22,Sec,38,Sub,27591,T,7002,SM,16275*30
$GNGGA,012238.894,2458.5407,N,12119.6836,E,1,8,1.27,161.3,M,15.0,M,,*4C
$GPGSA,A,3,13,05,02,15,20,29,30,193,,,,,1.56,1.27,0.90*3D
$GLGSA,A,3,,,,,,,,,,,,,1.56,1.27,0.90*11
$GPGSV,3,1,11,13,88,009,36.6,193,66,050,37.0,02,55,118,31.9,05,48,026,35.3*40
$GPGSV,3,2,11,15,48,235,35.5,20,39,310,34.5,29,38,288,35.5,30,20,065,30.5*7A
$GPGSV,3,3,11,06,13,129,,24,05,190,,07,03,041,*4D
$GLGSV,3,1,9,88,71,247,,65,40,008,,66,37,293,,87,33,174,*57
$GLGSV,3,2,9,75,18,098,,74,08,048,,76,07,148,,72,06,048,*54
$GLGSV,3,3,9,67,01,254,*6F
$GNRMC,012238.894,A,2458.5407,N,12119.6836,E,1.219,19.47,260116,,,A*71
$GNVTG,19.47,T,,M,1.219,N,2.259,K,A*1F
$GNACCURACY,5.4*17
$PMTKDGP,0*4D
$PMTKDBG,7011,0,1,0,0,0,0,0,1,0,0,0,0,0,0,0,0,0,0,1,1,1,1,1,0,0,0,0,0,0,0,0,1,0001,0035,0003,0008,0008,0000,0001,0000,0.0000,1.2549,0.0000,0.0000,0.0000,0.0000,*4A
$PMTKDB2,0C15,0000,0000,0000,0000,0000,0000,0000,0029.54,0000.00,12549.14,211149.26,00-3.68,-416.93,00-0.04,0000.00,*4E
$PMTKEPH,43,2,3,4,5,6,7,9,12,13,15,17,19,20,23,-24.2.5,25,28,29,30,193,-65.2.5,-66.2.5,-67.2.5,-68.2.5,-69.2.5,-70.2.5,-71.2.5,-72.2.5,-73.2.5,-74.2.5,-75.2.5,-76.2.5,-77.2.5,-78.2.5,-79.2.5,-80.2.5,-82.2.5,-83.2.5,-84.2.5,-85.2.5,-86.2.5,-87.2.5,-88.2.5*5B
$PMTKALM,32,1,2,3,5,6,7,8,9,10,11,12,13,14,15,16,17,18,19,20,21,22,23,24,25,26,27,28,29,30,31,32,193*51

#WXM[.?0A2C4E6G8I:K<M>O@QBSDUFWHYJ[L]N_PaRcTeVgXiZk\m^o`qbsdufwhyj{l}npy&39

#NM^Z.BB1ICEF6H8JKO<NNT@QBSD&10
#\XOU.?0BE3HE6G8ON;QNPb@QBUX]VGZ]b[LbNd`QcdljgnXlmopts_uzssdrwzz}{orw|&A9
#\XOU.@0F2FL5F7NM:PMOa?PATUXUFYZ]ZKaMc_PbckifmWkljlrm^rcqv~ynqv{~&9A
#\XOU.A0C2FI5F7NM:PMOa?PATWXUFY\]ZKaMc_PbckifmWkllqpu^wtzxcqwwz|}|~nqv{~&5F
#\XOU.B0G2C4E6G8[KKL=N?PARCWEVGYZb`]dNbbafheUfy}pZhoonswrrwtewzh}}~m~rtvx}&48
#\XOU.C0BG3GN6G8ON;QNPb@QBUYUVGZ^Z[LbNd`QcdljgnXlmkrvw_qzwd|y|x}{lo}ty|&33
#\XOU.D0CB3GM6G8ON;QNPb@QBUYUVGZ^Z[LbNd`QcdljgnXlltlnr_pusdrzy|nqv{~&95
#\XOU.E0CK3GN6G8ON;QNPb@QBUXWVGZ]\[LbNd`QcdljgnXllspqt_vxdr~}~nqv{~&FA
#\XOU.F0DB3GI6G8ON;QNPb@QBUYWVGZ^\[LbNd`QcdljgnXllmqqs_twwdrw~x}|~orw|&85
#\XOU.G0H2C4E6G8[KKL=N?PARCWEVGYZb`]dNbaghdjUl|ipZhnqtrtzzuxexhzm~rtvx}&62
#\XOU.H0G2C4E6G8OKKL=N?PARCWEVGYZb`]cNgcbkhhUio{zZhoonswrrwtewzhz||m~rtvx}&4C
#\XOU.@@1CLG5JG8I:QP=SPRdBSDW[_XI\`d]NdPfbSefnlipZmrvwwrawyft~psx}&6D
#\XOU.@E1DCK5GH8I:S<TNQRARCTEVG]I\K\Ma`fjedTlhghYgnssvppttwdvzgy~l}~qsvx}&74
#\XOU.AF1DCL5F7H9J;QMNO@QBSDUFZHYJ[L^aafafSxfyzXfmnmrruvsvcuyfwhyz{|m~oqsxz}&4E
#\XOU.BG1DG4E6G8I:]LMN?PARCTEYGXI[\db_fPdcjdflWjz{t\twuyryzzex{hyj{|}~oqsuz|&A4
#\XOU.CH1B3D5F7H9JKLM>O@QBSDUFWHYJ[L]^_`QbSdUfWhijk\m^o`qbstuvgxizk|m~oq&36

#NM`a.F@BC3E5F7H9J;L=N?PQRSTUVWHYJ[L&58
#NLPT.@C1CF4EFGK9MIO=NMPQUCYZZGYW_cLb\faiRdbhkW&94
#NLPT.D0BE3DEFJ8IHT<MLORWBYV]FYV\cK\[^caQcalfV&60
#NLPT.A0BE3DEFJ8FJIR=NMPWZCZ]]GZWa`L]\eiaRebhjW&9B
#NLPT.E0B2&D7
#NLPT.@E1CF4EFGK9KKJP>ONSRZDZ[\H\X]aM_]baeSecilX&B8
#NLPT.A@1CF4EFGK9QIQ=NMPQXCZW^G[W_bL]\fdfRdbmgW&9A
#NLPT.AI1CF4EFGK9RIQ=NMPRTCYZ[G\W\\Ld\bgfRdbhkW&9D
#NLPT.B@1CF4EFGK9SIU=NMTRYCZ^XG[Wb^Lb\_abRebhjW&9D
#NLPT.F0B2&D8
#NLPT.@ID2DG5FGHL:HOKV?POTVZE[\\I[YcbNa^eijTfdjmY&05
#NLPT.A@H2E4&3B
#NLPT.A@I2D4&3B

#NMMN.@0>CLKL6JQOP;SMOP@RS[YV]GYYJ[L^^OahijkjdoqmZk\&AD
#KL_c.A0DEEJIN7ELLQL=PV@UBTDUF_XY[K&76
#KL_c.D0DECEKF7EKQTL=PV@UBTDUF_XY[K&73
#KL_c.E0DDCHKH7EMSPR=PV@UBTDUF_XY]K&80
#KL_c.F0DCIJGL7ELRMR=PV@UBTDUF_XY]K&83
#KL_c.@C1EFHIML8FLKMS>QWAVCUEVG`YZ\L&A6
#KL_c.@E1EFDKOP8JKK<OU?TASCTE^WXZJ&48
#KL_c.A@1EEMEGJ8FPPR=PV@UBTDUF_XY[K&74
#KL_c.AD1EDKJHO8JMKN=PV@VSUDWFWHaZ[_M&DF
#KL_c.AI1EELIJM8FKNOO>QWAVCUEVG`YZ\L&AE
#KL_c.B@1EEFJJL8FLQLU>QWAVCUEVG`YZ^L&A9
#KL_c.@ID2EJNOOJ9GLOSR?RXBWDVFWHaZ[]M&EE
#KL_c.A@J2GFFHHP9GNRTN?RXBWDWFWHaZ[]M&DD
#KL_c.A@E2GFEOLL9GLPOU?RXBWDWFWHaZ[]M&DC
#KL_c.AAD2GEJHKK9PT<OU?TATCTE^WX\J&4D
#KL_c.AAE2GEKFKL9GOQNQ?RXBWDWFWHaZ[_M&D9
#KL_c.A@B2GEKIPJ9GMOQR?RXBWDWFWHaZ[_M&DB
#KL_c.A@I2GEMIHL9KNT=PV@UBUDUF_XY]K&80
#KL_c.A@H2GEKGPP9KMPS>QWAVCVEVG`YZ^L&B8
#KL_c.AAB2GFEJPL9GPUOU?RXBWDWFWHaZ[]M&E2
#KL_c.AAA2GFHOIM9GMSPS?RXBWDWFWHaZ[]M&DD
#KLbg.?0CB3EH6III:LUP>Q@VBTYEXWaI\[L_gObafSffgWkiZmlu^u`srtdwv~h{{loqu&C0
#KLbg.@0C2EDG6IHL:&5E

#\Qpou/AIG3EILMK9OQ<Q>SPAWS\EZZ_I]\L`af`QedmeVllrj[qqqq`qtye|j~oty~&AE
#NP\U.AI1CDGLNGMPOM<aTTPQRCY\YmmoJdaor`dQsefgwnXrll_wsueg}~nt{ű˺̿ſǱθԿ&84
#NP\U.B@1CDGLNGMPOM<aTTPQRCY\YmmoJdaor`dQsefgwnXrllmu_rztwfyiov}µȵƦϼýǴл &68
#NP\U.BC1CDGLNGNNMS<aTUPQVC\UVWXYJ[L]NueQvufxhyXjjlpq^tye|l~szƲȣɻ;ѯض̽&51
#NLXZ.AE1BC4FNOI9OTNVRS@WUT[]kGnm`]\]NpaaufeUwpklk\nstrvcvyyj}q&D4
#NLXZ.AF1BC4FNOI9O\LSRa@WUSfi]Gnm_\\]NpaavfzUwo}{qm\vxwzcxyzj}q&35
#NLXZ.AG1BC4FNOI9O]MVTO@WUTUihGnm]p\]NpaauteUzjy}}o\uupsbx||i{|~o&71
#NLXZ.AH1BC4FNOI9O^]Pae@WUTi^lGnm`m\]NpaauudUwzkikl\xqzc{{|j}}~q&19
#NLXZ.AI1BC4FNOI9O_LURc@WUTYh]Gnm^]\]NpaaulfUzmilqm\voc{~zj}~q&D5
#NLXZ.B@1BC4FNOI9O`La_U@WUS[ZjGnm^]\]NpaauuwUnhm{l\truzc|j|}p&DB
$[AGT],GSET=11
$[AGT],rm,1,rt,7
$[AGT],fgFirstReq:0
067909.406,HBD,IF1,TIM,DSP,u1ChnNum,37,u2DataSize,57
067909.406,HBD,IF1,COM,BinDecX,65065
067909.406,HBD,IF1,GPS,TkDltNo,7011,4283
$[AGT],bitmap,old: 108,new: 108
067909.414,HBD,IF1,TIM,NWloc,fgfirstUseNW,0,case,0,NWAID,0,NWUSE,0
$[AGT],skip re_agps_req
067909.414,HBD,IF1,AGP,BOOST,Posdiff:1.014031,0.706194,num:8,PosConverge,1,BoostRemT,12.000
$Boost, flag on*64
$LOC_Cache_BIT,00000000*7F
067909.414,HBD,IF1,AGP,AGPSMGN,Posdiff:1.014031,0.706194,num:0,PosConverge,0,AGPSRemT,16.000
067909.414,HBD,IF1,TIM,RstFSAg,8.0

#MZYQ.AE1B3&1A

#XPda.HABI3&51

#MZYQ.@B1DFMX6I8NQaM=&1C

#MZYQ.AH1HG4&57
067909.414,HBD,IF1,AGP,AGPSMGN,AGPSMode:-1,AGPSTimer:0.000
$PMTK015,67909414,10,8011,AMode,-1,ATimer,0.000,Remain,16.000*60
067909.414,HBD,IF1,AGP,AGPSMGN,DOP.H :1.272856,PosCon:0,[18.578581,11.056945,2.821825]
$PMTK015,67909414,6,8011,NACQ,7,NBS,7,NSFS,0,NEXS,0*6E
$HBD,INF,RTC,F,0,Y,16,M,1,D,26,H,1,M,22,Sec,39,Sub,27581,T,8002,SM,11520*3F
$DBts1,TSOK,0,WNSet,1,TOWS,10,WN,1881,BAcc,14.590,TAcc,211138.047,*56
$DBts2,TTK,8011,TOW,177776.894000000,B,-0.000415686,D,0.000001252,*2B
067909.414,HBD,IF1,ALO,CdmPvtU,
$HBD,INF,RTC,F,0,Y,16,M,1,D,26,H,1,M,22,Sec,39,Sub,27581,T,8002,SM,11520*3F
$GNGGA,012239.894,2458.5411,N,12119.6832,E,1,8,1.27,163.6,M,15.0,M,,*49
$GPGSA,A,3,13,05,02,15,20,29,30,193,,,,,1.56,1.27,0.90*3D
$GLGSA,A,3,,,,,,,,,,,,,1.56,1.27,0.90*11
$GPGSV,3,1,11,13,88,009,36.8,193,66,050,38.0,02,55,118,33.2,05,48,026,36.1*49
$GPGSV,3,2,11,15,48,235,37.0,20,39,310,35.7,29,38,288,36.7,30,20,065,32.2*7A
$GPGSV,3,3,11,06,13,129,,24,05,190,,07,03,041,*4D
$GLGSV,3,1,9,88,71,247,,65,40,008,,66,37,293,,87,33,174,*57
$GLGSV,3,2,9,75,18,098,,74,08,048,,76,07,148,,72,06,048,*54
$GLGSV,3,3,9,67,01,254,*6F
$GNRMC,012239.894,A,2458.5411,N,12119.6832,E,1.372,356.39,260116,,,A*4E
$GNVTG,356.39,T,,M,1.372,N,2.542,K,A*2F
$GNACCURACY,4.6*14
$PMTKDGP,0*4D
$PMTKDBG,8011,0,1,0,1,0,0,0,1,0,0,0,0,0,0,0,0,0,0,1,1,1,1,1,0,0,0,0,0,0,0,0,1,0001,0035,0003,0008,0008,0000,0001,0000,0.0000,1.2521,0.0000,0.0000,0.0000,0.0000,*4A
$PMTKDB2,0C1A,0000,0000,0000,0000,0000,0000,0700,0021.62,0000.00,12521.95,211138.04,00-3.38,-415.69,00-0.04,0000.00,*32
$PMTKEPH,43,2,3,4,5,6,7,9,12,13,15,17,19,20,23,-24.2.5,25,28,29,30,193,-65.2.5,-66.2.5,-67.2.5,-68.2.5,-69.2.5,-70.2.5,-71.2.5,-72.2.5,-73.2.5,-74.2.5,-75.2.5,-76.2.5,-77.2.5,-78.2.5,-79.2.5,-80.2.5,-82.2.5,-83.2.5,-84.2.5,-85.2.5,-86.2.5,-87.2.5,-88.2.5*5B
$PMTKALM,32,1,2,3,5,6,7,8,9,10,11,12,13,14,15,16,17,18,19,20,21,22,23,24,25,26,27,28,29,30,31,32,193*51

#WXM[.?0A2C4E6G8I:K<M>O@QBSDUFWHYJ[L]N_PaRcTeVgXiZk\m^o`qbsdufwhyj{l}npy&39

#NM^Z.BB1JCEF6H8JKO<NNT@QBSD&11
#\XOU.?0BE3HE6G8ON;QNPb@QBVX]VG[]b[LbNd`QcdljgnXjmpsqus`q{zesx{{||psx}&ED
#\XOU.@0F2FM5F7NM:PMOa?PAUUXUFZZ]ZKaMc_PbckifmWilonmrv_vsydrwzz~orw|&DA
#\XOU.A0C2FJ5F7NM:PMOa?PAUWXUFZ\]ZKaMc_PbckifmWiloprqt_vystdrxx{}|orx}&B5
#\XOU.B0G2C4E6G8[KKL=N?PARCWEVGYZb`]dN`ceeghlV{~io[ippotxssxufx{i{nsuwy~&89
#\XOU.C0BG3HE6G8ON;QNPb@QBVYUVG[^Z[LbNd`QcdljgnXjmposwx`se}|~mp~uz}&BF
#\XOU.D0CB3GN6G8ON;QNPb@QBVYUVG[^Z[LbNd`QcdljgnXjmpnmor`zsues{z|~orw|&00
#\XOU.E0CK3HE6G8ON;QNPb@QBVXWVG[]\[LbNd`QcdljgnXjmpmqrt`xes~||orw|&B9
#\XOU.F0DB3GJ6G8ON;QNPb@QBVYWVG[^\[LbNd`QcdljgnXjmoqrrr`zwtesxy|psx}&7D
#\XOU.G0H2C4E6G8[KKL=N?PARCWEVGYZb`]dN`cdkiehV}|ml[iorusu{{vyfyi{nsuwy~&A2
#\XOU.H0G2EG5F7IQ:RMOP?PARCTE[G\I[\db_fPbeggijlX}rpl]krrqwsvx{}hz}k}puw{}&36
#\XOU.@@1CLG5JH8I:QP=SPRdBSDX[_XI]`d]NdPfbSefnlipZlnvpxxrbz}}gu~qty~&AB
#\XOU.@E1DDD5GK8I:LT=UORSBSDUFWH^J\L]NagfjllUzy|}Zhrvovwrs{dvzgzy~k|}~pruw|~&83
#\XOU.AF1DDE5F7H9J;QMNO@QBSDUFZHYJ[Lf_fbeRxhxzWekrprtosrubtuevgxyz{l}nprwy|~&26
#\XOU.BG1DG4E6G8I:]LMN?PARCTEYGXI[\db_fPbegdegnXiqns]wxxxx{zyfx~izk|}~prtv{}&BC
#\XOU.CH1B3D5F7H9JKLM>O@QBSDUFWHYJ[L]^_`QbSdUfWhijk\m^o`qbstuvgxizk|m~oq&36

#NM`a.G@BC3E5F7H9J;L=N?PQRSTUVWHYJ[L&59
#NLPT.@C1CF4EFGK9GKJR>ONQRYDZ[[HVZY\eNa^ikdTfdjmY&E9
#NLPT.D0BE3DEFJ8IHO<MLOPRBXYZFWV]`K\[_cfQcagjV&54
#NLPT.A0BE3DEFJ8FKIP=NMPRVCZW]GXWb[L]\fefRdbmgW&88
#NLPT.E0D2&D9
#NLPT.@E1CF4EFGK9OIL=NMQRWCYZ[GYW[^L^\cbeRdbhkW&87
#NLPT.A@1CF4EFGK9MIN=NMPRXCYZ[GYWZ^L]\aicRdbhkW&84
#NLPT.AI1CF4EFGK9MIT=NMPSXCYZ[GYW]bL_\_cgRdbhkW&99
#NLPT.B@1CF4EFGK9SIL=NMRUVCZ^XGZWZ]L`\ghcRebhjW&96
#NLPT.F0B2&D8
#NLPT.E0C2&D8
#NLPT.@ID2DG5FGHL:HQKR?POSX]E[\\IW[Z]cOb_ehgUgeknZ&25
#NLPT.AAA2E4&35
#NLPT.AAB2D4&35

#NMMN.@0>CLKG6JQOP;TMOP@RS[YV]GYYJ[L^^OahijkkdoqmZk\&AA
#KL_c.A0BEHIKJM8FMMQV>QTAVCUEVG`YZ\L&AF
#KL_c.D0BEHGFKO8FLRTT>QTAVCUEVG`YZ\L&B3
#KL_c.E0BEGGIKO8FNTQQ>QTAVCUEVG`YZ^L&B6
#KL_c.F0BEFMKHK8FMSNO>QTAVCUEVG`YZ^L&B0
#KL_c.@C1CFILJNL9GMLNR?RUBWDVFWHaZ[]M&D6
#KL_c.@E1CFIHLPQ9KLO=PS@UBTDUF_XY[K&7E
#KL_c.A@1CFIGFHK9GQQN>QTAVCUEVG`YZ\L&99
#KL_c.AD1CFHEKIQ9KNLS>QTAWTVEXGXIb[\`N&0E
#KL_c.AI1CFIFJKM9GLOOV?RUBWDVFWHaZ[]M&DC
#KL_c.B@1CFHJKKK9GMRMT?RUBWDVFWHaZ[_M&D8
#KL_c.@ID2DFNHPPJ:HMPTP@SVCXEWGXIb[\^N&14
#KL_c.A@J2GFFHHO9GNRST?RUBWDWFWHaZ[]M&DE
#KL_c.A@E2GFEOLL9GLPOP?RUBWDWFWHaZ[]M&D4
#KL_c.AAD2GEJHKK9QO<OR?TATCTE^WX\J&46
#KL_c.AAE2GEKFKK9GOQMW?RUBWDWFWHaZ[_M&DA
#KL_c.A@B2GEKIPI9GMOQO?RUBWDWFWHaZ[_M&D4
#KL_c.A@I2GEMIHL9KOM=PS@UBUDUF_XY]K&77
#KL_c.A@H2GEKGPQ9KMQM>QTAVCVEVG`YZ^L&B1
#KL_c.AAB2GFEJPJ9GPUOR?RUBWDWFWHaZ[]M&DA
#KL_c.AAA2GFHOIM9GMSPQ?RUBWDWFWHaZ[]M&D8
#KLbg.?0CB3EH6III:LUP>Q@VBTYEXWaI\[L_gObafSffgWkiZmlu^u`srtdwv~h{{loqu&C0
#KLbg.@0C2EDG6IHL:&5E

#\Qpou/AA2DIENN8K:K<M>PWYBTU[FWH[`\`M`bhjRifnkWnlrr\mpax|fz|~k}}puz&ED
#NLXZ.BA1BC4FNOI9OaPQTT@WUTWh_Gnm__\]NpaavdhUm}|r}k\tvc|xxyj}}~q&E0
#NLXZ.BB1BC4FNOI9PKQaNP@UgSVg_Gnm^n\]NpaaulmUhznrkp\urvbx{xi{|o&5D
#NLXZ.BC1BC4FNOI9]LSTdV@UcfihgGno]c\^NrqvtghUg}lo|l\npvtc{|yi|~p&02
067909.414,HBD,ERR,COM,PktTokX,
067909.414,HBD,WRN,COM,DtNxtMM,9117,9011
067909.414,HBD,IF1,GPS,TkDltNo,8011,4283
$QEPO_Request*05
067909.414,HBD,IF1,TIM,NWloc,fgfirstUseNW,0,case,0,NWAID,0,NWUSE,0
067909.414,HBD,IF1,AGP,BOOST,Posdiff:1.201990,0.386972,num:8,PosConverge,1,BoostRemT,11.000
$Boost, flag on*64
$LOC_Cache_BIT,00000000*7F
067909.414,HBD,IF1,AGP,AGPSMGN,Posdiff:1.201990,0.386972,num:0,PosConverge,0,AGPSRemT,16.000

#XPda.@@BCJ4&79

#MZYQ.@B1DJLI6I8NSNO=&01

#MZYQ.AH1HG4&57
067909.414,HBD,IF1,AGP,AGPSMGN,AGPSMode:-1,AGPSTimer:0.000
$PMTK015,67909419,10,9011,AMode,-1,ATimer,0.000,Remain,16.000*6C
067909.414,HBD,IF1,AGP,AGPSMGN,DOP.H :1.272709,PosCon:0,[15.127069,8.898227,2.480936]
$PMTK015,67909419,6,9011,NACQ,7,NBS,7,NSFS,0,NEXS,0*62
$HBD,INF,RTC,F,0,Y,16,M,1,D,26,H,1,M,22,Sec,40,Sub,27584,T,9002,SM,13257*30
$DBts1,TSOK,0,WNSet,1,TOWS,10,WN,1881,BAcc,15.352,TAcc,211122.719,*58
$DBts2,TTK,9011,TOW,177777.894000000,B,-0.000414451,D,0.000001247,*26
067909.414,HBD,IF1,ALO,CdmPvtU,
$HBD,INF,RTC,F,0,Y,16,M,1,D,26,H,1,M,22,Sec,40,Sub,27584,T,9002,SM,13257*30
$[AGT],GSET=11
$[AGT],rm,1,rt,7
$[AGT],fgFirstReq:0
$[AGT],bitmap,old: 108,new: 108
$[AGT],skip re_agps_req
$GNGGA,012240.894,2458.5411,N,12119.6826,E,1,8,1.27,161.7,M,15.0,M,,*41
$GPGSA,A,3,13,05,02,15,20,29,30,193,,,,,1.56,1.27,0.90*3D
$GLGSA,A,3,,,,,,,,,,,,,1.56,1.27,0.90*11
$GPGSV,3,1,11,13,88,009,37.1,193,66,050,37.0,02,55,118,33.7,05,48,026,35.4*4D
$GPGSV,3,2,11,15,48,235,37.5,20,39,310,36.0,29,38,288,36.1,30,20,065,32.1*7E
$GPGSV,3,3,11,06,13,129,,24,05,190,,07,03,041,*4D
$GLGSV,3,1,9,88,71,247,,65,40,008,,66,37,293,,87,33,174,*57
$GLGSV,3,2,9,75,18,098,,74,08,048,,76,07,148,,72,06,048,*54
$GLGSV,3,3,9,67,01,254,*6F
$GNRMC,012240.894,A,2458.5411,N,12119.6826,E,0.752,332.42,260116,,,A*4C
$GNVTG,332.42,T,,M,0.752,N,1.393,K,A*2F
$GNACCURACY,4.1*13
$PMTKDGP,0*4D
$PMTKDBG,9011,0,1,0,1,0,0,0,1,0,0,0,0,0,0,0,0,0,0,1,1,1,1,1,0,0,0,0,0,0,0,0,1,0001,0035,0003,0008,0008,0000,0001,0000,0.0000,1.2470,0.0000,0.0000,0.0000,0.0000,*4E
$PMTKDB2,0000,0000,0000,0000,0000,0000,0000,0700,0017.55,0000.00,12470.15,211122.72,00-1.93,-414.45,00-0.04,0000.00,*3B
$PMTKEPH,43,2,3,4,5,6,7,9,12,13,15,17,19,20,23,-24.2.5,25,28,29,30,193,-65.2.5,-66.2.5,-67.2.5,-68.2.5,-69.2.5,-70.2.5,-71.2.5,-72.2.5,-73.2.5,-74.2.5,-75.2.5,-76.2.5,-77.2.5,-78.2.5,-79.2.5,-80.2.5,-82.2.5,-83.2.5,-84.2.5,-85.2.5,-86.2.5,-87.2.5,-88.2.5*5B
$PMTKALM,32,1,2,3,5,6,7,8,9,10,11,12,13,14,15,16,17,18,19,20,21,22,23,24,25,26,27,28,29,30,31,32,193*51

#WXM[.?0A2C4E6G8I:K<M>O@QBSDUFWHYJ[L]N_PaRcTeVgXiZk\m^o`qbsdufwhyj{l}npy&39

#NM^Z.BB1KCEF6H8JKN<NNT@QBSD&11
#\XOU.?0BE3HE6G8ON;QNPb@QBWX]VG\]b[LbNd`QcdljgoXqnputp_tvdrwzzz~~orw|&45
#\XOU.@0F2FM5F7NM:PMOa?PAYWTE][XI_Ka]N`aigdlUnkioor\mtvraot|w{~}~louz}&3D
#\XOU.A0C2FK5F7NM:PMOa?PAVWXUF[\]ZKaMc_PbckifnWpmnlpq^sy{cqwwz{|}nqw|&AA
#\XOU.B0G2C4E6G8[KKL=N?PARCWEVGYZb`]eNgcbkghUxijjZhoonswrrwtewzhzm~rtvx}&45
#\XOU.C0BG3HF6G8ON;QNPb@QBWYUVG\^Z[LbNd`QcdljgoXqnmmvw_tsd|}y{{z|lo}ty|&E8
#\XOU.D0CB3GN6G8ON;QNPb@QBWYUVG\^Z[LbNd`QcdljgoXqnkqnq_rtdrzy||nqv{~&97
#\XOU.E0CK3GN6G8ON;QNPb@QBWXWVG\]\[LbNd`QcdljgoXqmtuqr_dr~}~nqv{~&33
#\XOU.F0DB3GJ6G8ON;QNPb@QBWYWVG\^\[LbNd`QcdljgoXqmolqo_vtzdrw~xz}}orx}&CA
#\XOU.G0H2C4E6G8[KKL=N?PARCWEVGYZb`]eNgbicdeUnzlkZhnqtrtzzuxexhzm~rtvx}&5F
#\XOU.H0CF3EL6G8LL;^MPQ@QBSDUF\HYJ\]ec`hQjemflnX}klt]oopqs{zxxgy{jxotvxz&B0
#\XOU.@@1CLG5JG8I:QP=SPRdBSDY[_XI^`d]NdPfbSefnliqZrtnrwpa{ft|}|psx}&F9
#\XOU.@E1DDF5HL8I:S<TNQRARCTEVG]I^K\Mb`hhkiTvjhqYgrqmpxswtcuuf||j{|}oqtv{}&27
#\XOU.@F1DDG5GN8I:NN=UOPQBSDUFWH^J[L]NacfdeeUxjqpZhonoxqwtyvew{h~l}~qsuw|~&3F
#\XOU.AF1B3D5F7H9JKLM>O@QBSDUFWHYJ[L]^_`QbSdUfWhijk\m^o`qbstuvgxizk|m~oq&32
#\XOU.BG1B3D5F7H9JKLM>O@QBSDUFWHYJ[L]^_`QbSdUfWhijk\m^o`qbstuvgxizk|m~oq&34
#\XOU.CH1B3D5F7H9JKLM>O@QBSDUFWHYJ[L]^_`QbSdUfWhijk\m^o`qbstuvgxizk|m~oq&36

#NM`a.H@BC3E5F7H9J;L=N?PQRSTUVWHYJ[L&5A
#NLPT.@C1CF4EFGK9GKJU>ONQRZDX]ZHVZY`]Na^dffTedliY&DD
#NLPT.D0BE3DEFJ8IHO<MLOPQBT]\ZGXW[dL]\_`gRlbhkW&8C
#NLPT.A0BE3DEFJ8FLIQ=NMPSZCXY\GXWa_L]\bchRcbnmW&93
#NLPT.E0B2&D7
#NLPT.@E1CF4EFGK9PIP=NMQTTCW\ZGXWc_L_\`geRcbjgW&92
#NLPT.A@1CF4EFGK9NIM=NMPSXCW\ZGXW_dL]\_fjRcbjgW&8D
#NLPT.AI1CF4EFGK9NIN=NMPSVCW\ZGXWbdL]\edbRcbjgW&94
#NLPT.B@1CF4EFGK9SIL=NMRRVCYVWGYWb^L_\fidRdbjfW&8E
#NLPT.F0B2&D8
#NLPT.AD1D3&08
#NLPT.@ID2DG5FGHL:HPKQ?POR\TEY^[IW[Z^`O`_jlhUfemjZ&1F
#NLPT.AAD2E4&38

#NMMN.@0>CLJI6JQOJ;UMOP@RS[YV^GYYJ[L^^OahijkldoqmZk\&A8
#KL_c.A0IFGEIJ7ELLPS=OW@UBTDUF_XY[K&7B
#KL_c.D0IFDJJM7EKQSR=OW@UBTDUF_XY[K&8A
#KL_c.E0IEDMJK7EMSOS=OW@UBTDUF_XY]K&8E
#KL_c.F0IDKEGG7ELRLS=OW@UBTDUF_XY]K&81
#KL_c.@C1JGINMI8FLKMQ>PXAVCUEVG`YZ\L&AD
#KL_c.@E1JGFFOP8JKQ<NV?TASCTE^WXZJ&51
#KL_c.A@1JGDJGJ8FPOU=OW@UBTDUF_XY[K&79
#KL_c.AD1JEMEIG8JMLR=OW@VSUDWFWHaZ[_M&E0
#KL_c.AI1JFMNJK8FKNNR>PXAVCUEVG`YZ\L&BA
#KL_c.B@1JFHEJH8FLQLO>PXAVCUEVG`YZ^L&A2
#KL_c.@ID2JLFJOH9GLOSN?QYBWDVFWHaZ[]M&E2
#KL_c.A@J2GFFHHN9GNRSR?QYBWDWFWHaZ[]M&DE
#KL_c.A@E2GFEOLK9GLPNW?QYBWDWFWHaZ[]M&DC
#KL_c.AAD2GEJHKK9RN<NV?TATCTE^WX\J&49
#KL_c.AAE2GEKFKI9GOQMQ?QYBWDWFWHaZ[_M&D5
#KL_c.A@B2GEKIPH9GMOPU?QYBWDWFWHaZ[_M&DB
#KL_c.A@I2GEMIHL9KOR=OW@UBUDUF_XY]K&7F
#KL_c.A@H2GEKGPQ9KMQU>PXAVCVEVG`YZ^L&BC
#KL_c.AAB2GFEJPH9GPUNW?QYBWDWFWHaZ[]M&DF
#KL_c.AAA2GFHOIL9GMSPQ?QYBWDWFWHaZ[]M&DA
#KLbg.?0CB3EH6III:LUP>Q@VBTYEXWaI\[L_gObafSffgWkiZmlu^u`srtdwv~h{{loqu&C0
#KLbg.@0C2EDG6IHL:&5E
067909.422,HBD,IF1,GPS,UpdtNVS,
067909.422,HBD,IF1,GPS,NVFile,Opened
067909.422,HBD,IF1,GPS,UpdtNVC,
067909.422,HBD,IF1,GPS,UpdtNVE,
$[AGT],GSET=11
$[AGT],rm,1,rt,10
$[AGT],set Qepo req
$[AGT],fsm,wm,2
