$PMTK013,AgpsMachine,set,0,result,0*17
090093.766,HBD,IF1,BOT,UInitCf,1,0,0,16,100,0,255,2000,26000000,115200,1000,0,-2147483456,ffff6753,2

090093.766,HBD,IF1,BOT,MNLVer,_u1MTKChipID=1
090093.766,HBD,IF1,GPS,NVFile,Opened
090093.766,HBD,IF1,GPS,NVFile,g_BMAP_NVfile_Operation_load,0
090093.766,HBD,IF1,ALO,AlcInit,
090093.766,HBD,IF1,ALO,AlSCIni,
090093.766,HBD,IF1,ALO,PMCmod4,0
090093.766,HBD,IF1,ALO,EdInitD,
090093.773,HBD,IF1,ALO,PmcInit,
090093.773,HBD,IF1,ALO,VtCfgDb,20,20,4294967295
090093.773,HBD,IF1,BOT,InitCfg,1,115200,115200,26000000,255,0,0,0.000000,0.000000
090093.773,HBD,IF1,BOT,BotUrV2,BINFO(): x,-2147483456,y,ffff6753,
090093.773,HBD,IF1,BOT,BotUrV2,BINFO(): MT6753_ DSP
090093.773,HBD,IF1,BOT,BotUrV2,_BINFO(): B,-149904296,L,61448
090093.773,HBD,IF1,BOT,BotUrV2,RFG,3,0,3
$[AGT],ipath,/data/misc/
$[AGT],GSET=0
$[AGT],rm,6,rt,4
$[AGT],SAP,Eidle
$[AGT],e=1,b=1,s=1,aosp=1
090094.273,HBD,IF1,BOT,ClkType,255
$PMTK015,90094270,1,GPS_INIT_DONE*74
$[AGT],GSET=1
$[AGT],rm,1,rt,11
$[AGT],inco
$[AGT],rm,0
$[AGT],remd == 0
090094.273,HBD,IF1,MSG,MNLInit,OK

#MZYQ.D@1C3&19

$PMTK010,001*2E

$PMTK010,002*2D
$PMTK013,INF,0,128,4,128*59
$PMTK015,90094273,4,90094270,PMTK764,0,0,0,2,0,128,4,128*30
$$PMTK764,0,0,0,2,0,128,4,128*15
090094.273,HBD,IF1,GPS,FrstDtt,00,00
$PMTK015,90094273,2,FIRST_DBTT*29
090094.273,HBD,IF1,GPS,TkDltIn,0,0,0

#MZYQ.@@1B3D5&64
$SELF_ATOW,0,1*4F
090094.273,HBD,IF1,TIM,HALTIME,0,
090094.273,HBD,IF1,TIM,HALTSTA,0,
090094.273,HBD,IF1,TIM,IdbtsDa,RTCstatusA,0,fgSysTimeOK,1,UseSystime,0,LoadRTCUpdateOK,RTC_age,869
090094.273,HBD,IF1,TIM,IdbtsDa,RTCstatusB,0,fgSysTimeOK,1,UseSystime,0
090094.273,HBD,IF1,TIM,DtsAcRT,PRTC,Load,Wn,1881,Tow,199085.994115684,RtcD,-14.327,
$IRTC,i2RtcTimeLastWn,1881,dfRtcTimeLastTow,199068.949738,*25
$IRTC,i2RtcTimeLastWn,1881,dfRtcTimeLastTow,199085.949853,*24
$IRTC,dfDltTow1,878.154968,*1D
$IRTC,dfDltTow2,878.167549,*11
$IRTC,i2GpsWn2,1881,dfGpsTow2,199964.161665,*2B
090094.273,HBD,IF1,TIM,DtsAcRT,PRTC,Load,GWn,1881,GTow,199964.161665115,RWn,1881,RTow,199085.949852664,RtcD,-14.327,
$IRTC,dfDltTow,878.167549,HTTFF_163,0,_fgEnableAccIGPST,1*4A

#MZYQ.D@1B3&18
090094.273,HBD,IF1,TIM,IdtsAcT,1,1881,199964.161000000,9,878.2,

#MZYQ.DD1B3&1C

#MZYQ.CB1D3&1B
$QEPO_Request*05
$[AGT],GSET=1

#MZYQ.DB1C3&1B
$[AGT],rm,1,rt,10
$[AGT],inco
$[AGT],rm,0
$[AGT],remd == 0
090094.273,HBD,IF1,TIM,NWloc,fgfirstUseNW,0,case,0,NWAID,0,NWUSE,0
$Boost, hotstart*5A
090094.273,HBD,IF1,AGP,BOOST,Posdiff:157624947441664.000000,0.000000,num:0,PosConverge,0,BoostRemT,20.000
$LOC_Cache_BIT,00000000*7F
$DBnm_NLP,[24.975729,121.327997,0,20.000000][2016/1/26,7:32:25][0][0]*0B
$NLP_from_file,[24.975729,121.327997,0,20.000000][2016/1/26,7:32:25][1881,199962.000000]*49
$cache_pos,-3007978.763243,4941816.085872,2676703.031956,[1137828617]*67
$Cache_age,147,NLP_age,2,NV_age,147*24
$NLP_Aid*41
#DBTP 11 1 9 2497572 12132799 147 1881 199964171 1137828760 &A4

#MZYQ.C@1C3&18
090094.273,HBD,IF1,AGP,AGPSMGN,Posdiff:157624947441664.000000,0.000000,num:0,PosConverge,0,AGPSRemT,16.000

#MZYQ.AA1D3&18
090094.273,HBD,IF1,GPS,EpoLoad,HOST_EPO,BAD_Load,ffdfffff,316062,45

#MZYQ.AE1I3&21

#XPda.@@BC3&42
090094.273,HBD,IF1,GPS,FTModeC,FT_Mode,1,Send_Comd
090094.281,HBD,IF1,AGP,AGPSMGN,AGPSMode:-1,AGPSTimer:0.000
$PMTK015,90094277,10,11,AMode,-1,ATimer,0.000,Remain,16.000*6E
$PMTK015,90094277,6,11,NACQ,0,NBS,0,NSFS,0,NEXS,0*60
$HBD,INF,RTC,F,0,Y,16,M,1,D,26,H,7,M,32,Sec,27,Sub,3431,T,1,SM,7639*0C
$DBts1,TSOK,0,WNSet,1,TOWS,9,WN,1881,BAcc,1183216.000,TAcc,1220038.000,*68
$DBts2,TTK,11,TOW,199964.171000000,B,-0.000198400,D,0.000001216,*20
090094.281,HBD,IF1,ALO,CdmPvtU,
$HBD,INF,RTC,F,0,Y,16,M,1,D,26,H,7,M,32,Sec,27,Sub,3431,T,1,SM,7639*0C
$PMTK013,11,set epo bitmap,R:0,F:1 *1E
$GNGGA,073227.171,2458.5437,N,12119.6798,E,0,0,,132.0,M,15.0,M,,*59
$GPGSA,A,1,,,,,,,,,,,,,99.99,99.99,1.00*01
$GLGSA,A,1,,,,,,,,,,,,,99.99,99.99,1.00*1D
$GPGSV,4,1,15,10,72,222,,25,65,078,,14,51,347,,22,46,302,*77
$GPGSV,4,2,15,18,46,169,,04,46,302,,193,44,174,,31,39,271,*4C
$GPGSV,4,3,15,12,28,044,,26,10,205,,29,09,137,,24,09,053,*7F
$GPGSV,4,4,15,32,07,321,,15,04,110,,21,03,184,*46
$GLGSV,1,1,0*55
$GNRMC,073227.171,V,2458.5437,N,12119.6798,E,0.000,0.00,260116,,,N*5A
$GNVTG,0.00,T,,M,0.000,N,0.000,K,N*2C
$GNACCURACY,55.3*25
$PMTKDGP,0*4D
$PMTKDBG,11,0,1,0,0,0,1,0,0,0,1,0,0,0,0,0,0,0,0,1,1,1,1,1,0,0,0,0,1,0,0,0,0,0026,0014,0002,0000,0000,0022,0001,0000,0.0000,1.2156,0.0000,0.0000,0.0000,0.0000,*41
$PMTKDB2,0000,0000,0000,0000,0000,0000,0000,0100,3055.34,0000.00,12156.09,1220038.00,0000.00,-198.40,00-0.21,0000.00,*1A
$PMTKEPH,18,2,4,5,10,12,13,14,15,18,20,21,22,24,25,29,30,31,193*70
$PMTKALM,32,1,2,3,5,6,7,8,9,10,11,12,13,14,15,16,17,18,19,20,21,22,23,24,25,26,27,28,29,30,31,32,193*51

#WXM[.?0A2C4E6G8I:K<M>O@QBSDUFWHYJ[L]N_PaRcTeVgXiZk\m^o`qbsdufwhyj{l}npy&37

#NM^Z.BB1CD4F6G8I:K<M>&DD
#\XOU.AF1B3D5F7H9JKLM>O@QBSDUFWHYJ[L]^_`QbSdUfWhijk\m^o`qbstuvgxizk|m~oq&32
#\XOU.BG1B3D5F7H9JKLM>O@QBSDUFWHYJ[L]^_`QbSdUfWhijk\m^o`qbstuvgxizk|m~oq&34
#\XOU.CH1B3D5F7H9JKLM>O@QBSDUFWHYJ[L]^_`QbSdUfWhijk\m^o`qbstuvgxizk|m~oq&36

#NM`a.@A1C3D5F7H9J;L=NOPQRSTUFWHYJ&F1

#NMMN.@0>CLEJ6KJKK;MN>PSTUS]EW[HYJdL^ghigfaelgWhY&FF
#KL_c.C0GCFDGF7EQP;NTW?URTCUEVG`YZ\L&AA
#KL_c.@@1HDKENG8FLRPS>QWZBXUWFXHYJc\]_O&46
#KL_c.@B1HCMFKP8FNQPS>QWZBXUWFXHYJc\]aO&53
#KL_c.@D1HDGFOJ8FORM=PVYAWTVEWGXIb[\^N&15
#KL_c.@E1GLMGNJ8FNNLO>QWZBXUWFXHYJc\]aO&51
#KL_c.@H1HDHGHG8FNNUU>QWZBXUWFXHYJc\]_O&4C
#KL_c.AA1HCEHHN8FMTRP>QWZBXUWFXHYJc\]aO&49
#KL_c.AB1HDGEHG8FRQ<OUX@VSUDVFWHaZ[]M&DA
#KL_c.AD1HCELJJ8FNPTV>QWZBXUWFXHYJc\]aO&53
#KL_c.AE1HDJIMI8FLNSS>QWZBXUWFXHYJc\]_O&4F
#KL_c.AF1HCFHJG8JQSM=PVYAWTVEVGXIb[\^N&16
#KL_c.AI1HCFMLP8JSS<OUX@VSUDVFWHaZ[_M&FD
#KL_c.BA1HDFFHH8FQMO=PVYAWTVEWGXIb[\^N&09
#KL_c.BB1HCEJFN8JLTN=PVYAWTVEVGXIb[\^N&14
#KL_c.@ID2HJHJOH9GLUOT?RX[CYVXGYIZKd]^`P&85
#KLbg.?0BG3EE6IM9KO<OP?QYBWDV_ZH\[K]_NaiQdgTfkWjjZmr]qq`&01
#KLbg.@0BF3FEG7JIL;NMQ?RQVCVU[GZY`K^]eObajSfeoWjjj[nno_rrtcvvygzz~k&20

#NMO_.UVWXYZ[\7^_`abcde@ghijklmnIpqrstuvwRyz{|W~`e&3B

#NM`].@A1C3M5HKQPORN=OQQTTZ]^FX\`J\de_OajkljigniYklotvqxxxsdrxwyj{l&0B
#NP\U.A0BCFKMGJOOJ;`SROPQBSDUFWHYJ_e_rqdQdShzogziZourpauxvwvhov}̹˫Ȳ޹&EE
#NP\U.C0BCFKMHNOQK;`SRPPQBSDUFWHYJam_tffQxyxgVjmmqrt]tpudx~krxĳǹŰڷ&27
#NP\U.D0BCFKMGOQQR;`SSOPQBYVU[klIc`nq_cPrdefvmWqkkv^qszzewh|ov}ŷɤǸͽү˶ѽ&C5
#NP\U.@@1CDGLNIOQJS<aTTPQRCZWV\lmJdaor`dQsefgwnXrllms_rtutw}f{kqx̧̻ëֲϹ&09
#NLXZ.@0AB3EMNH8MKMUMR?VTRhUUFml]c[\Mo``tviT{{zmqk[mprxsbx}zhzz{|n&12
#NLXZ.A0AB3EMNH8MLR`_R?VTRSVkFml\b[\Mo``ufdT{zgnil[}trqbtv~{i~|}p&7C
#NLXZ.B0AB3EMNH8MMKNTP?VTRdiXFml^k[\Mo``uvtTgoi{|r[suqxbzyzip&0B
#NLXZ.D0AB3EMNH8MOMQVQ?VTRU[jFml]n[\Mo``ugyTgnzimq[mpswbz~|i|}p&AD
#NLXZ.E0AB3EMNH8MPKNOT?VTRgj[Fml]c[\Mo``tkwT{{m|or[}qxswbvxz~{i{||}p&9D
$[AGT],GSET=1
$[AGT],rm,1,rt,1
$[AGT],inco
$[AGT],rm,0
$[AGT],remd == 0
$[AGT],GSET=1
$[AGT],rm,1,rt,7
$[AGT],fgFirstReq:1
$[AGT],bitmap,old:   0,new: 308
$[AGT],inco
$[AGT],srm,1,dsm,4,tp,7,length,12
$[AGT],tp,776,wn,1881,tw,199964,si,12
$[AGT],rm,2
$[AGT],state:7
$[AGT],wn:1881, tw:199964
$[AGT],ergt
$[AGT],
$[AGT],Esgt 1137715200
$[AGT],epegt
$[AGT],gfisiz()
$[AGT],egtEf,1140307200
$Rdon
$[AGT],res,1137828764,sst,1137715200,egsn,1140307200
$[AGT],wk,epo
$[AGT],s,1,m,1
$[AGT],idle
$@#$^ [AGNT] pEd
$[AGT],opmode GLO(1),GEL(0),DB(0)
$[AGT],tw,199964,gs,1137828764
$[AGT],eextd
090094.281,HBD,IF1,COM,WtDtCnt,2
$[AGT]start verify
$[AGT],gfisiz()
$[AGT]FileType:GPS+GLO
$[AGT],
$[AGT],epegt
$[AGT],gfisiz()
$[AGT],Extract epo done
090094.281,HBD,IF1,MSG,AidEPO,SV,1,ret,1
$[AGT],GSET=0
090094.281,HBD,IF1,MSG,AidEPO,SV,2,ret,1
$[AGT],rm,4,rt,8
090094.281,HBD,IF1,MSG,AidEPO,SV,3,ret,1
$[AGT],inco
$[AGT],srm,4,dsm,4,tp,8,length,12
$[AGT],tp,776,wn,1881,tw,199964,si,12
$[AGT],rm,3
090094.281,HBD,IF1,MSG,AidEPO,$[AGT],state:6
$[AGT],wn:1881,tw:199964
SV,4,path_2NG,ValidEPO,1,u4CurrGpsSecs,1137828764,u4GpsSecs,1137823200,seq,45,NAseq,0,Age_Epo,17,Naage,0,NaValidGEPO,0
090094.281,HBD,IF1,MSG,AidEPO,SV,5,ret,1
$[AGT],BGAI
$[AGT],0,av:61,b_sky:0
$[AGT],1,av:69,b_sky:0
$[AGT],2,av:113,b_sky:0
$[AGT],3,av:0,b_sky:0
$[AGT],4,av:71,b_sky:0
$[AGT],5,av:67,b_sky:0
090094.281,HBD,IF1,MSG,AidEPO,SV,6,ret,1
$[AGT],6,av:67,b_sky:0
$[AGT],7,av:59,b_sky:0
$[AGT],8,av:67,b_sky:0
$[AGT],9,av:123,b_sky:0
$[AGT],10,av:61,b_sky:0
$[AGT],11,av:123,b_sky:0
$[AGT],12,av:71,b_sky:0
$[AGT],13,av:123,b_sky:0
090094.281,HBD,IF1,MSG,AidEPO,SV,7,ret,1
$[AGT],14,av:121,b_sky:0
$[AGT],15,av:57,b_sky:0
$[AGT],16,av:65,b_sky:0
090094.281,HBD,IF1,MSG,AidEPO,SV,8,ret,1
$[AGT],17,av:121,b_sky:0
090094.281,HBD,IF1,MSG,AidEPO,SV,9,ret,1
$[AGT],18,av:63,b_sky:0
$[AGT],19,av:71,b_sky:0
$[AGT],20,av:121,b_sky:0
$[AGT],21,av:123,b_sky:0
$[AGT],22,av:63,b_sky:0
$[AGT],23,av:121,b_sky:0
$[AGT],24,av:121,b_sky:0
$[AGT],25,av:57,b_sky:1
$[AGT],26,av:57,b_sky:0
$[AGT],27,av:63,b_sky:0
$[AGT],28,av:121,b_sky:0
$[AGT],29,av:69,b_sky:0
$[AGT],30,av:123,b_sky:0
$[AGT],31,av:103,b_sky:1
$[AGT],Eend:1, Send:1, ct:2
$[AGT],wkbee
$[AGT],s,1,m,2
$[AGT],idle
$@#$^ [AGNT] sBi
090094.281,HBD,IF1,MSG,AidEPO,SV,10,ret,1
090094.289,HBD,IF1,MSG,AidEPO,SV,11,ret,1
090094.289,HBD,IF1,MSG,AidEPO,SV,12,ret,1
090094.289,HBD,IF1,MSG,AidEPO,SV,13,ret,1
090094.289,HBD,IF1,MSG,AidEPO,SV,14,ret,1
090094.289,HBD,IF1,MSG,AidEPO,SV,15,ret,1
090094.289,HBD,IF1,MSG,AidEPO,SV,16,ret,1
090094.289,HBD,IF1,MSG,AidEPO,SV,17,ret,1
090094.289,HBD,IF1,MSG,AidEPO,SV,18,ret,1
090094.289,HBD,IF1,MSG,AidEPO,SV,19,ret,1
090094.289,HBD,IF1,MSG,AidEPO,SV,20,ret,1
090094.289,HBD,IF1,MSG,AidEPO,SV,21,ret,1
090094.289,HBD,IF1,MSG,AidEPO,SV,22,ret,1
090094.289,HBD,IF1,MSG,AidEPO,SV,23,ret,1
090094.289,HBD,IF1,MSG,AidEPO,SV,24,ret,1
090094.289,HBD,IF1,MSG,AidEPO,SV,25,ret,1
090094.289,HBD,IF1,MSG,AidEPO,SV,26,ret,1
090094.289,HBD,IF1,MSG,AidEPO,SV,27,ret,1
090094.289,HBD,IF1,MSG,AidEPO,SV,28,ret,1
090094.289,HBD,IF1,MSG,AidEPO,SV,29,ret,1
090094.289,HBD,IF1,MSG,AidEPO,SV,30,ret,1
090094.289,HBD,IF1,MSG,AidEPO,SV,31,ret,1
090094.289,HBD,IF1,MSG,AidEPO,SV,32,path_2NG,ValidEPO,2,u4CurrGpsSecs,1137828764,u4GpsSecs,1137823200,seq,45,NAseq,0,Age_Epo,17,Naage,0,NaValidGEPO,0
090094.289,HBD,IF1,MSG,AidGLEP,SV,1,ret,1
090094.289,HBD,IF1,MSG,AidGLEP,SV,2,ret,1
090094.289,HBD,IF1,MSG,AidGLEP,SV,3,ret,1
090094.289,HBD,IF1,MSG,AidGLEP,SV,4,ret,1
090094.289,HBD,IF1,MSG,AidGLEP,SV,5,ret,1
090094.289,HBD,IF1,MSG,AidGLEP,SV,6,ret,1
090094.289,HBD,IF1,MSG,AidGLEP,SV,7,ret,1
090094.289,HBD,IF1,MSG,AidGLEP,SV,8,ret,1
090094.289,HBD,IF1,MSG,AidGLEP,SV,9,ret,1
090094.289,HBD,IF1,MSG,AidGLEP,SV,10,ret,1
090094.289,HBD,IF1,MSG,AidGLEP,SV,11,ret,1
090094.289,HBD,IF1,MSG,AidGLEP,SV,12,ret,1
090094.289,HBD,IF1,MSG,AidGLEP,SV,13,ret,1
090094.289,HBD,IF1,MSG,AidGLEP,SV,14,ret,1
090094.289,HBD,IF1,MSG,AidGLEP,SV,15,ret,1
090094.289,HBD,IF1,MSG,AidGLEP,SV,16,ret,1
090094.289,HBD,IF1,MSG,AidGLEP,SV,18,ret,1
090094.289,HBD,IF1,MSG,AidGLEP,SV,19,ret,1
090094.289,HBD,IF1,MSG,AidGLEP,SV,20,ret,1
090094.289,HBD,IF1,MSG,AidGLEP,SV,21,ret,1
090094.289,HBD,IF1,MSG,AidGLEP,SV,22,ret,1
090094.289,HBD,IF1,MSG,AidGLEP,SV,23,ret,1
090094.289,HBD,IF1,MSG,AidGLEP,SV,24,ret,1
090095.281,HBD,IF1,TIM,DSP,u1ChnNum,37,u2DataSize,57
090095.281,HBD,IF1,COM,BinDecX,65065
090095.281,HBD,IF1,TIM,DSP,u1ChnNum,48,u2DataSize,57
090095.281,HBD,IF1,COM,BinDecX,65065
090095.281,HBD,IF1,GPS,TkDltIn,11,12,1
090095.297,HBD,IF1,TIM,NWloc,fgfirstUseNW,0,case,0,NWAID,0,NWUSE,0
090095.297,HBD,IF1,AGP,BOOST,Posdiff:15.074191,0.024989,num:0,PosConverge,0,BoostRemT,19.000
$LOC_Cache_BIT,00000002*7D
$DBnm_NLP,[24.975729,121.327997,0,20.000000][2016/1/26,7:32:25][0][1]*0A
$NLP_from_file,[24.975754,121.327991,0,20.000000][2016/1/26,7:32:27][1881,199964.000000]*41
$cache_pos,-3007978.763243,4941816.085872,2676703.031956,[1137828617]*67
$cache,0,10,-0.256104*46
$Cache_age,148,NLP_age,1,NV_age,5*2F
090095.297,HBD,IF1,AGP,AGPSMGN,Posdiff:15.074191,0.024989,num:0,PosConverge,0,AGPSRemT,16.000

#XPda.A@BC3&43
090095.297,HBD,IF1,AGP,AGPSMGN,AGPSMode:-1,AGPSTimer:0.000
$PMTK015,90095298,10,1031,AMode,-1,ATimer,0.000,Remain,16.000*6D
$PMTK015,90095298,6,1031,NACQ,1,NBS,1,NSFS,0,NEXS,0*63
$HBD,INF,RTC,F,0,Y,16,M,1,D,26,H,7,M,32,Sec,28,Sub,3478,T,1002,SM,14979*05
$DBts1,TSOK,0,WNSet,1,TOWS,10,WN,1881,BAcc,336.758,TAcc,297477.625,*61
$DBts2,TTK,1011,TOW,199965.171000000,B,-0.000718903,D,0.000001195,*28
090095.297,HBD,IF1,ALO,CdmPvtU,
$HBD,INF,RTC,F,0,Y,16,M,1,D,26,H,7,M,32,Sec,28,Sub,3478,T,1002,SM,14979*05
$GNGGA,073228.171,2458.5437,N,12119.6798,E,0,0,,132.0,M,15.0,M,,*56
$GPGSA,A,1,,,,,,,,,,,,,99.99,99.99,1.00*01
$GLGSA,A,1,,,,,,,,,,,,,99.99,99.99,1.00*1D
$GPGSV,4,1,15,10,72,222,34.4,25,65,078,,14,51,347,,22,46,302,*6A
$GPGSV,4,2,15,18,46,169,,04,46,302,,193,44,174,,31,39,271,*4C
$GPGSV,4,3,15,12,28,044,,26,10,205,,29,09,137,,24,09,053,*7F
$GPGSV,4,4,15,32,07,321,,15,04,110,,21,03,184,*46
$GLGSV,2,1,7,68,79,024,,79,60,275,,78,49,005,,67,37,139,*56
$GLGSV,2,2,7,69,28,333,,80,09,230,,77,03,034,*60
$GNRMC,073228.171,V,2458.5437,N,12119.6798,E,0.000,0.00,260116,,,N*55
$GNVTG,0.00,T,,M,0.000,N,0.000,K,N*2C
$GNACCURACY,38.1*2C
$PMTKDGP,0*4D
$PMTKDBG,1011,0,1,0,0,0,0,0,0,0,1,0,0,0,0,0,0,0,0,1,1,1,1,1,0,0,0,0,1,0,0,0,0,0026,0014,0002,0001,0001,0000,0001,0000,0.0000,1.1950,0.0000,0.0000,0.0000,0.0000,*4C
$PMTKDB2,0D1F,0000,0000,0000,0000,0000,0000,0000,1456.92,0000.00,11950.09,297477.62,00-0.04,-718.90,00-0.21,0000.00,*30
$PMTKEPH,42,2,4,5,10,12,13,14,15,18,20,21,22,24,25,-26.2.5,29,30,31,193,-65.2.5,-66.2.5,-67.2.5,-68.2.5,-69.2.5,-70.2.5,-71.2.5,-72.2.5,-73.2.5,-74.2.5,-75.2.5,-76.2.5,-77.2.5,-78.2.5,-79.2.5,-80.2.5,-82.2.5,-83.2.5,-84.2.5,-85.2.5,-86.2.5,-87.2.5,-88.2.5*70
$PMTKALM,32,1,2,3,5,6,7,8,9,10,11,12,13,14,15,16,17,18,19,20,21,22,23,24,25,26,27,28,29,30,31,32,193*51

#WXM[.?0A2C4E6G8I:K<M>O@QBSDUFWHYJ[L]N_PaRcTeVgXiZk\m^o`qbsdufwhyj{l}npy&37
#NMQR.A0AC3D5FHMI^QSSPeQRR[TUVW\a_]\^_gvecde{mxjrrop^oqt|v{Ŀ³ŶɹӼο&35
#NMQR.A0AD3D5FHMI^QSSPeQRRUTUVWkYc[`rehvacdghnnklk|lt^qqyx|xy{}öǿÿҿ³Ŷʹμο&CE
#NMQR.A0AE3D5FHMI^QSSPeQRfWjkVWY]ncrqdt`ecdmenxkjk|m^usqruy}}ųɵϻν³Ŷ̹μο&79
#NMQR.A0AG3D5FHMI^QSSPeQRSiTUVWna[`qp_t`ecdmlj|kmmro^oyqt{uuyz|ƷǷǾͻ³Ŷȹ̼ο&DE
#NMQR.A0AH3D5FHMI^QSSPeQRUYTUVWilld]^ddvccdh{lxjmkv^rqr|zy|}}Ƽƾǿ³Ŷȹ˼ο&4D
#NMQR.A0AI3D5FHMI^QSSPeQRhVjkVW]lob_qgavwcddgzgj}rlq^wqvy|}z|ŵϿ³Ŷȹ˼ο&BA
#NMQR.A0AJ3D5FHMI^QSSPeQRhVjkVW^]][rqphvucdulg{kossmv^qrvxĶǽǹҿ³Ŷɹмο&E3
#NMQR.A0AK3D5FHMI^QSSPeQRVWTUVWYYbp\d_evwcdkjxokp~~t^qqrttzĵǺǻƿ³Ŷʹμο&43
#NMQR.A0BB3D5FHMI^QSSPeQRhTjkVWYl_q\caq`dcdwvwxkj~nnt^swqrz{ux}xz°ǿϿӿ³Ŷ˹ϼο&2D
#NMQR.A0BC3D5FHMI^QSSPeQRgijkVWmYbdmq_uvbcddlnllkp~m^vvqztyx{}Ĺȹǿ³Ŷ͹˼ο&C3
#NMQR.A0BD3D5FHMI^QSSPeQRSZTUVWmlkc^sop`ucdzhxpjrr|s~^qt{vuy}{~¶ν³Ŷ̹мο&28
#NMQR.A0BE3D5FHMI^QSSPeQRg\jkVWa]^aqe_rvvcdfnigkknqlt^uqtzzx}}òǿ¿³Ŷȹϼο&11
#NMQR.A0BF3D5FHMI^QSSPeQRgfjkVW]Yoc\]ruvvcdkiimkmnmr^rtqvu{~|ĲǾĿ³Ŷȹ˼ο&41
#NMQR.A0BG3D5FHMI^QSSPeQRhSjkVWYaa_pf_``acdihi{k}rqq^xqv|³ǹпӿ³Ŷɹмο&AF
#NMQR.A0BH3D5FHMI^QSSPeQRSfTUVWja[_rno_`scdmzwgjrs|~u^wvqvyzu|Źͻ³Ŷȹμο&9D
#NMQR.A0BI3D5FHMI^QSSPeQRh\jkVWilncqbqevscdkko}kkpo^vqwyy~||÷ôźǼҿ³Ŷȹͼο&DA
#NMQR.A0BJ3D5FHMI^QSSPeQRTUTUVW]]b\_rq_`dcdvkgkk|pq^pvqzzuywǼǷϼý³ŶɹҼο&BA
#NMQR.A0BK3D5FHMI^QSSPeQRhhjkVW]]]onopqvrcddj{pklrl^qwzt{}~ùǹǺƿ³Ŷɹ̼ο&E6
#NMQR.A0CB3D5FHMI^QSSPeQRSZTUVWXaob__dr`dcdimy|kqmv^vqtsyuyzƴǼϾý³Ŷɹ̼ο&B8
#NMQR.A0CC3D5FHMI^QSSPeQRgijkVW`]b`nqtsvdcdxnzykqjo^uqs}|yúǼǷ̻ҽ³Ŷ͹˼ο&13
#NMQR.A0CD3D5FHMI^QSSPeQRfUjkVW_a^b_b^s`ecdly{|krlp^xwquzwuyz{}|¶ǻϿüҿ³Ŷɹ̼ο&F1
#NMQR.A0CE3D5FHMI^QSSPeQRgijkVWZla\qo_`vwcdhh{xkq{|s~^pqqwz´ǹǼϾϿ³Ŷɹμο&F7
#NMQR.A0CF3D5FHMI^QSSPeQRhejkVWj]b^rratvvcdfnn{kj|ou~^qtz|~}~Ľǿϼѿ³Ŷɹϼο&0A
#NMQR.A0CG3D5FHMI^QSSPeQReZjkVWal[pr_qc`ucdxvx|j|qm^tqt|{u|x}Ŷǿüҿ³Ŷʹμο&81
#NMQR.A0CH3I5FHMI^QSSPeQRYSjkVWX]]^q_^``tcdwlklkis~on^tqr||u}~÷ƻǾμҿ³Ŷɹ̼ο&9C
#NMQR.A0CI3D5FHMI^QSSPeQRSiTUVW]la^\dgdvucdklyiklq}r^pqsvyöʼǺϿü³Ŷȹ̼ο&12
#NMQR.A0CJ3D5FHMI^QSSPeQRSZTUVWmY^_`^ed`vcdmj{{jzm~ns^pq{xu}y~ĶǾν³Ŷɹͼο&3B
#NMQR.A0CK3D5FHMI^QSSPeQRR\TUVWlYboabfbvtcdx{fzkloo^yqrstŲǻѿ³Ŷ˹ͼο&C8
#NMQR.A0DB3D5FHMI^QSSPeQRT[TUVWXlkb\of`vwcddio}kiqrv^xqr|w|}ϼҿ³Ŷȹ˼ο&08
#NMQR.A0DC3D5FHMI^QSSPeQRhUjkVWjl`d^btdvvcddfmpj{}uu^uvqv|{~ĵǷϺѿ³Ŷȹ˼ο&89
#NMQR.A0GG3D5FHMI^QSSPeQRRWTUVWnampqpgp`ccdl{fxiikt}m^wqruuxy~ĺȺνóŶȹмӿ&63
#NMQR.A0GH3D5FHMI^QSSPeQRSSTUVW`alb]cgd`ccdxzh|h~~pmn^pqryzuxy|·ĽȻýƳŶȹмӿ&D0

#NM^Z.BB1CCEF6H8JKO<NNT@QBSD&0A
#\XOU.?0BB3GM6G8ON;QNP`@QBYXUF]\YJ`L_^OadefeeVhhkjml]sybpu|}~ympuz}&33
#\XOU.@0CG3FJ6G8MQ;SRPQ@QBSDUF\HZJ\_`a``QcchinhXzk~s]kpuuvv{wx{h{|kotw{}&4C
#\XOU.@E1DCE5HI8I:O<TNQRARCTEVG]I^K\Mc_edkiTvjxoYgmomqpuvswdvwgy{|l}~qsvx}&81
#\XOU.AF1CG4E6G8I:]MMN?PARCTEYGXI[^_`__PbbdemgWymjp\jqvtsssy{fxizk|}~prtv{}&96
#\XOU.BG1DCF5F7H9J;QMNO@QBSDUFZHYJ[L_ahdaeSvxoyXfmsssrtturcuxfwhyz{|m~oqsxz}&5A
#\XOU.CH1DE4E6G8I:]MMN?PARCTEYGXI[^_`__PbbddenW~i|\jopstyzv}fxizk|}~prtv{}&BD

#NM`a.@@BC3E5F7H9J;L=N?PQRSTUVWHYJ[L&52
#NLPT.@@1CF4EFGK9KPRQNWNRBSRUVWH[Z_cMd]ddRcbejiXjjipv^&E5
#NLPT.AE1D3&09
#NLPT.@D1C3&06

#NMMN.@0>CKLF6KHJN;MMOP@RUVWVVGY]J[L^^OajkljjdhojZk\&83
#KL_c.C0BBEDJJ7ENM;SO>PPASCTE^WXZJ&34
#KL_c.@@1CCJFGI8FLRMQ>VRAXCUEVG`YZ\L&9B
#KL_c.@B1KKENF7EMPLP=UQ@RSCUEVG`YZ^L&AC
#KL_c.@D1CCFGHM8FONU=UQ@ZBTDUF_XY[K&77
#KL_c.@E1JKGFJ7EMLRL=UQ@RUCUEVG`YZ^L&AC
#KL_c.@H1CCGGKH8FNNRS>VRASSDVFWHaZ[]M&D4
#KL_c.AA1KCGJO7ELSNL=UQ@RUCUEVG`YZ^L&AD
#KL_c.AB1CCFEKK8FON<TP?QQBTDUF_XY[K&64
#KL_c.AD1KCKLI7EMOPR=UQ@RTCUEVG`YZ^L&B4
#KL_c.AE1CCIJFK8FLNPQ>VRAYCUEVG`YZ\L&A5
#KL_c.AF1KDGLJ7IQKM<TP?QSBUDUF_XY]K&80
#KL_c.AI1KDMEI7JLJ;SO>PRASCTE^WX\J&49
#KL_c.BA1CCEFKK8FPTM=UQ@RRCUEVG`YZ\L&9C
#KL_c.BB1KCIIG7ILLP<TP?QVXCTEVG`YZ\L&AC
#KL_c.@ID2HFJGI8FKSUP>VRA[CUEVG`YZ\L&B5
#KL_c.AAD2HELKI8FNSSS>VRAXCVEVG`YZ\L&B5
#KL_c.AAE2HIEKJ8FKLQN>VRAVCVEVG`YZ\L&A1
#KL_c.A@J2HDIOJ8JQTL=UQ@WBUDUF_XY]K&88
#KL_c.A@G2GJGFH8FOPTU>VRAYCVEVG`YZ^L&B4
#KL_c.A@B2HGFNI8FNONU>VRAXCVEVG`YZ\L&AA
#KL_c.A@I2HHFFP8FKQQP>VRAWCVEVG`YZ\L&AD
#KL_c.A@H2GKHHN8JLNT=UQ@XBUDUF_XY]K&86
#KLbg.?0CD3FFJ7II:MQ=POXASWDWVXH[\K]eNcPbkfThgWjjm[mo^qpzbuzexh{~k~}oruy|&05
#KLbg.@0C2EDG6IHL:&5E

#\Qpou/AF2DHGHG8J:K<M>RVTB\XEVGZ[_aL_`bhQgkggVlpll[lo`tzey{}j||~~oty&A9

#NM`].@@BC3E5GG8KNTSRUQ@RTTWW]`aI[_cM_ghbRdmnommjql\norwyt{{{vgu{z|m~o&95
#NP\U.@B1CDGLNIOQMS<aTTPQRCZWV\lmJdaor`dQsefgwnXrllt_uutw}fxi|pw~ʦ˪ұͶ&AE
#NP\U.@C1CDGLNIHOQO<aTSPQRCTEVGXIZK]f`uggRyzzoW}qnquq^pyeyy||lszƷ­Ĵ̺&EA
#NP\U.@D1CDGLNIOQLQ<aTTPQRCZWV\lmJdaor`dQsefgwnXrll_tsv|ejou|Ƥѽï̶&46
#NP\U.@E1CDGLNIOPRL<aTSPQRCTEVGXIZKaqa`ciRyz{fW|rqn}u^tqrztey|lsxȴ½ǵ߼&56
#NLXZ.F0AB3EMNH8MQO]NN?VTSSeUFml]o[\Mo``ubgTl|n|}p[uoxb}w{i}|}p&B5
#NLXZ.G0AB3EMNH8MRKaUb?VTRf]\Fml\a[\Mo``tswTyipzrm[rvrvb{yi|}~p&E2
#NLXZ.H0AB3EMNH8MSKQM_?VTR[Z[Fml\c[\Mo``ttiTjipn{p[ptqbx~i{|o&66
#NLXZ.@@1BC4FNOI9N\LU`e@WUSfUlGnm_l\]NpaavdxUhphjk\uvvxzcu}jp&DE
#NLXZ.@A1BC4FNOI9N]TQc`@WUhU]ZGnmZ_\]NpaautfU{}{ls~\porwwcvwxjq&35
#NLXZ.@B1BC4FNOI9N^NcRV@WUTjW]Gnm`m\]NpaauceUwykpo\nsyc}{x|j}}~q&E8
$[AGT],GSET=1
$[AGT],rm,1,rt,1
$[AGT],fsm,wm,2
$[AGT],rv PMTKRQTEPH,1881,199965,2,26,32
090095.305,HBD,IF1,BOT,MNLVer,AXN_3.70,1312,MNL_VER_15091601ALPS05_3.70_03,39,76
$[AGT],GSET=1
$[AGT],rm,1,rt,7
$[AGT],fgFirstReq:0
$[AGT],bitmap,old: 308,new: 108
$[AGT],skip re_agps_req
$[AGT],GSET=1
$[AGT],rm,4,rt,9
$[AGT],inco
$[AGT],sel SI
$[AGT],rm,4
$[AGT],state:4
$[AGT],state:4
$[AGT],wkssi
$[AGT],s,1,m,3
$[AGT],idle
$[AGT],send aosp AGPS req
$[AGT],GSET=1
$[AGT],rm,6,rt,3
$[AGT],receive pmtk
$PMTK015,90096195,4,1931,PMTK290,1,1,0*26
$PMTK730,0,0,0,1,0,0,0,0,1*2A
$PMTK015,90096195,4,1931,PMTK730,0,0,0,1,0,0,0,0,1*29
$PMTK001,290,3*3B
090096.281,HBD,IF1,TIM,DSP,u1ChnNum,37,u2DataSize,57
090096.281,HBD,IF1,COM,BinDecX,65065
090096.281,HBD,IF1,TIM,DSP,u1ChnNum,48,u2DataSize,57
090096.281,HBD,IF1,COM,BinDecX,65065
090096.281,HBD,IF1,GPS,TkDltIn,1011,1033,22
090096.281,HBD,IF1,TIM,NWloc,fgfirstUseNW,0,case,0,NWAID,0,NWUSE,0
090096.281,HBD,IF1,AGP,BOOST,Posdiff:98.854416,0.151324,num:3,PosConverge,0,BoostRemT,18.000
$MTK_GPS_BEST,4,2011,PR,3,TT4SV,0*10
$LOC_Cache_BIT,00000002*7D
$DBnm_NLP,[24.975729,121.327997,0,20.000000][2016/1/26,7:32:25][0][1]*0A
$[AGT],GSET=1
$[AGT],rm,6,rt,3
$[AGT],receive pmtk
$cache_pos,-3007978.763243,4941816.085872,2676703.031956,[1137828617]*67
$cache,0,10,0.247620*6A
$cache,1,25,-0.094421*4F
$cache,2,18,0.926270*6D
$DO_Err,mean,0.359823,std,0.424181*79
$Cache_age,149,NLP_age,-99,NV_age,6*31
090097.531,HBD,IF1,AGP,AGPSMGN,Posdiff:98.854416,0.151324,num:0,PosConverge,0,AGPSRemT,14.669

#XPda.C@BC3&45

#MZYQ.C@1C3&18

#MZYQ.@B1TDK5G7JKNQ<&CF

#MZYQ.AH1HG4&57
090097.531,HBD,IF1,AGP,AGPSMGN,AGPSMode:3,AGPSTimer:1.332
$PMTK015,90097527,10,3261,AMode,3,ATimer,1.332,Remain,14.668*4F
090097.531,HBD,IF1,AGP,AGPSMGN,DOP.H :3.144403,PosCon:0,[136.663254,88.071892,3.581250]
$PMTK013,3261,INF,TA,ENTRY,TS,10,TOW,199966.172000000,CB,0.000282295,AGPSM,1*3E
$PMTK013,4331,INF,TA,CTk,4331,CPage,16,CSF,4,CSFT,0.492,SFNumSent,0*5D
$PMTK013,4331,INF,TA,NPage,16,NSF,5,NSFTow,199974.000000000,NZCNT,33330,NSFTk,9839*49
$PMTK013,4331,INF,TA,TAEnableList*77
$PMTK015,90098593,5,4331,TA_Aiding*67
$PMTK015,90098593,6,4331,NACQ,3,NBS,3,NSFS,0,NEXS,0*64
$HBD,INF,RTC,F,0,Y,16,M,1,D,26,H,7,M,32,Sec,29,Sub,3504,T,2003,SM,11838*0D
$DBts1,TSOK,0,WNSet,1,TOWS,10,WN,1881,BAcc,104.688,TAcc,211162.047,*63
$DBts2,TTK,2011,TOW,199966.172000000,B,0.000282295,D,0.000001199,*08
090098.594,HBD,IF1,ALO,CdmPvtU,
$HBD,INF,RTC,F,0,Y,16,M,1,D,26,H,7,M,32,Sec,29,Sub,3504,T,2003,SM,11838*0D
$GNGGA,073229.171,2458.5448,N,12119.6740,E,1,3,3.14,132.0,M,15.0,M,,*40
$GPGSA,A,2,10,25,18,,,,,,,,,,3.30,3.14,1.00*0B
$GLGSA,A,2,,,,,,,,,,,,,3.30,3.14,1.00*18
$GPGSV,4,1,15,10,72,222,38.4,25,65,078,37.2,14,51,347,,22,46,302,*7E
$GPGSV,4,2,15,18,46,169,29.3,04,46,302,,193,44,174,,31,39,271,*5A
$GPGSV,4,3,15,12,28,044,,26,10,205,,29,09,137,,24,09,053,*7F
$GPGSV,4,4,15,32,07,321,,15,04,110,,21,03,184,*46
$GLGSV,2,1,7,68,79,024,,79,60,275,,78,49,005,,67,37,139,*56
$GLGSV,2,2,7,69,28,333,,80,09,230,,77,03,034,*60
$GNRMC,073229.171,A,2458.5448,N,12119.6740,E,0.000,0.00,260116,,,A*41
$GNVTG,0.00,T,,M,0.000,N,0.000,K,A*23
$GNACCURACY,12.1*24
$PMTKDGP,0*4D
$PMTKDBG,2011,0,1,0,0,0,0,0,0,0,1,0,0,0,0,0,0,0,0,1,1,1,1,1,0,0,0,0,0,0,0,0,0,0026,0014,0002,0003,0003,0000,0000,0000,0.0000,1.1992,0.0000,0.0000,0.0000,0.0000,*41
$PMTKDB2,0D1E,0000,0000,0000,0000,0000,0000,0000,0162.58,0000.00,11992.68,211162.04,00-0.04,0282.29,00-0.21,0000.00,*29
$PMTKEPH,43,2,4,5,10,12,13,14,15,18,20,21,22,24,25,-26.2.5,29,30,31,-32.0.1,193,-65.2.5,-66.2.5,-67.2.5,-68.2.5,-69.2.5,-70.2.5,-71.2.5,-72.2.5,-73.2.5,-74.2.5,-75.2.5,-76.2.5,-77.2.5,-78.2.5,-79.2.5,-80.2.5,-82.2.5,-83.2.5,-84.2.5,-85.2.5,-86.2.5,-87.2.5,-88.2.5*70
$PMTKALM,32,1,2,3,5,6,7,8,9,10,11,12,13,14,15,16,17,18,19,20,21,22,23,24,25,26,27,28,29,30,31,32,193*51

#WXM[.?0A2C4E6G8I:K<M>O@QBSDUFWHYJ[L]N_PaRcTeVgXiZk\m^o`qbsdufwhyj{l}npy&37
#NMQR.A0DD3E5FGLI^Q`NQOPQYWTUVW\Y^n\p^_`abcgifghislr~^vsqwstuvz}ƴ³Ŷȹ˼ο&38
#NMQR.A0GI3D5FHMI^QSSPeQRR\TUVWj]pl\dcp`ccdvmmphjm~^qqrvuxz{{ƱɸȺüӿǳŶɹмӿ&F5
#NMQR.A0GJ3D5FHMI^QSSPeQRRhTUVWna^c]a`d`ccdmzfnh|^qr{yuwx}}ŲŸȻϽѿȳŶȹмӿ&9D
#NMQR.A0GK3D5FHMI^QSSPeQRhYjkVW[Y[l\]fa`ccdy{zlhkkp^qwqr|uwwǼȺппóŶɹмӿ&71
#NMQR.A0HB3D5FHMI^QSSPeQRRXTUVWlYn\\net`dcdui|xhqrp^rxqruxyxżȺüӿƳŶɹмӿ&29
#NMQR.A0HC3D5FHMI^QSSPeQRhhjkVWkl^\rs_r`dcdgljzhkspu^qryuxw}õƼȻϿǳŶɹмӿ&AC
#NMQR.A0HD3D5FHMI^QSSPeQRRSTUVWi]a_rpfg`ccdzxlyhrtu^vtqruw{ȻϼýȳŶɹмӿ&F8
#NMQR.A0HE3D5FHMI^QSSPeQRR\TUVW`]^n\`qh`ecdufomhq}kmo^wyqs}uz~~÷ȽȽҿĳŶȹмӿ&7A
#NMQR.A0HF3D5FHMI^QSSPeQRRZTUVWnYmb\]`a`fcdey|ihnmu^uqryvuz{|ƹпɳŶȹмӿ&8B
#NMQR.A0HG3D5FHMI^QSSPeQRRYTUVWXYpb\_oc`ecdjzzihokr^qrtxuzx{ķȿͻϿ³Ŷȹмӿ&4E
#NMQR.A0HH3D5FHMI^QSSPeQRReTUVWl]`l\aag`fcdxmgkhql~r^rqsvuzw~ȾлϿóŶȹмӿ&D4
#NMQR.A0HI3D5FHMI^QSSPeQRhgjkVWila`\^b``fcdy{ozhortpp^xtqr{uz}{²ƵʶȾϺпĳŶȹмӿ&5F
#NMQR.A0HJ3D5FHMI^QSSPeQRTeTUVW\Ync^`ab`fcdmxknhn}tmm^sxqr{uz|²ŸȿϿɳŶȹмӿ&2D
#NMQR.A0HK3D5FHMI^QSSPeQRRYTUVWm]\d\etd`ecdzlklhnlkmn^ruqszuz{y}{}ôĴο³Ŷȹмӿ&BC
#NMQR.A0IB3D5FHMI^QSSPeQRRdTUVW`anp\`gb`ecdjggnhq~}n^qs{|uz|{÷ƺƳȾͻѿóŶȹмӿ&0F
#NMQR.A0ID3D5FHMI^QSSPeQRRiTUVW]]_\\opevicduwf|hps^pqrzy}·óȴȻȸϺųŶʹмӿ&50
#NMQR.A0IE3D5FHMI^QSSPeQRh[jkVWl]mbqpdcvicdwgohh}q}n^orqrw}x{|ĴȾȹҿųŶ˹мӿ&6E
#NMQR.A0IF3D5FHMI^QSSPeQRhSjkVWXYkbq`opvicdjjoxh}orm^xrqrx|xųȺҿĳŶ˹мӿ&A4
#NMQR.A0IG3D5FHMI^QSSPeQRRhTUVWia_a\cfhvicduymhhp}t^ouqryzw}z{ŴȷȹƳŶȹмӿ&24
#NMQR.A0IH3D5FHMI^QSSPeQRReTUVWnYna]etqvhcdeynyh~~sms^wsqssw|~|²·ȹοҾųŶʹмӿ&30
#NMQR.A0II3D5FHMI^QSSPeQRffjkVWZY^arctrvhcdvehoh~pms^vqr~{{ï¶ȹϺҾųŶʹмӿ&30
#NMQR.A0IJ3D5FHMI^QSSPeQRhgjkVWXlbnqre`vicduihmh~q|pr^xqru}ŲȻȹϾҿĳŶ̹мӿ&6B

#NM^Z.BB1DCEF6H8JKP<NNT@QBSD&0C
#\XOU.?0BB3HF6G8ON;QNPb@QBTZYVGY_^[LbNcfQcfghggXjkmqmow`tesx~}~psx}&CF
#\XOU.@0CG3HE6G8ON;QRPb@QB\ZUF`^YJ`LaaOadefeeVhiknomn^otcqv{{xnqv{~&30
#\XOU.A0BJ3GG6G8ON;SNP`@QBW\UF[`YJ`LcN`cdeddUghjkkpr]bpv}|zyz}mpuz}&20
#\XOU.B0E2C4E6G8[KKL=N?PARCWEVGY\]^]]N`acgchkV|~l[isvwqszsdwvgxiz{|}nprty{~&5E
#\XOU.C0BKF4E6G8I:]MMN?PARCTEYGXI[^_`__PbbjijfjX|p]kprxvy{zxwhz{k|m~rtvx}&31
#\XOU.D0DC3GL6G8LL;RNPQ@QBSDUF\HZaK]`abaaRdegfgnkZr~mw_muwxywvi{lpux|&04
#\XOU.E0BD3FN6G8MQ;TNPQ@QBSDUF\HZJ\_`a``QcdffgooYpm~^lsquw|~{xzi{l~qvy}&83
#\XOU.F0CH3D5F7H9\LLM>O@QBSDXFWHZ]^_^^OabcggknWi{}t\notsuuvzufhyj{|}~oqsuz|&89
#\XOU.G0CK3D5F7H9\LLM>O@QBSDXFWHZ]^_^^OabcglnlWi|~}\nouvvvs|ewwhyj{|}~oqsuz|&9B
#\XOU.H0CF3D5F7H9\LLM>O@QBSDXFWHZ]^_^^OabcfkkiWizjm\jqoqzz||}~gizk|}~prtv{}&B5
#\XOU.@@1CH4E6G8I:]MMN?PARCTEYGXI[^_`__PbcdehfkXmrkl]kqxttwzzyh{k|m~rtvx}&EC
#\XOU.@E1DDH5GP8I:NN=`PPQBSDUFWH^J[L`ehdjRhigjgXmn}u]kvtyz{x~|gyj~}nsuwy~&E7
#\XOU.@F1DDH5HJ8I:NN=WPPQBSDUFWH^J[L`ehdjRhiekgX|tt]kvuuvvv~zgy}jm~rtvx}&9A
#\XOU.@G1DCE5O7H9MM<VSOPARCTEVG]IZK_dgciQgfelmW}os\jpwswutv|vgy}j}}nsuwy~&BC
#\XOU.@H1DDG5GO8I:NN=WPPQBSDUFWH^J[L`ehdjRhelkhXk}]krrwst}{{|hz~k~otvxz&1B
#\XOU.@I1DCE5HJ8I:NN=WPPQBSDUFWH^J[L`ehdjRhgfmnXmqqt]kqyqsx|x|hz~k~puwy{&17
#\XOU.A@1DDH5F7H9J;UNNO@QBSDUFZHYJ^cfbhPfgchnVxknq[itsssr{vzewwhyj{|}~oqsuz|&B6
#\XOU.AA1DDG5F7H9J;UNNO@QBSDUFZHYJ^cfbhPfcjhlVnonj[ipoxuvuxw{fxxizk|}~prtv{}&DC
#\XOU.AB1DCM5F7H9J;UNNO@QBSDUFZHYJ^cfbhPfbgmeVphn~[mnurpzvwtewwhyj{|}~oqsuz|&B3
#\XOU.AC1DCL5HG8I:NN=`PPQBSDUFWH^J[L`ehdjRhheooXn|}n]kppxv{w~|hzkotvxz&29
#\XOU.AD1DCL5F7H9J;UNNO@QBSDUFZHYJ^cfbhPffddjVnyzl[innwstsst}fhyj{|}~oqsuz|&BA
#\XOU.AE1DCK5F7H9J;UNNO@QBSDUFZHYJ^cfbhPeiffiVmk~r[tnorsvx{dvxgxiz{|}nprty{~&92
#\XOU.AF1CG4E6G8I:\QMN?PARCTE\GXI[^_`__PbcehgfjXm||n]krurtzv~|gyj{l}~qtvx}&1D
#\XOU.BG1DCE5F7H9J;UNNO@QBSDUFZHYJ^cfbhPfdlfjVpzno[iowoqzuwt}fx|izk|}~prtv{}&F1
#\XOU.CH1DE4E6G8I:SMMN?PARCTE\GXI[^_`__PbceheihXppm]kstvxwx}fxizk|}~prtv{}&AB

#NM`a.A@BC3E5F7H9J;L=N?PQRSTUVWHYJ[L&53
#NLPT.@@1CF4EFGK9KIS=NMPRRC]^_GUZX`cM^]aheShcilX&C3
#NLPT.AE1CF4EFGK9GOJT>ONQRSDV_^\IW\Z__O`_bckUoekoZ&1B
#NLPT.@H1CF4EFGK9GNJS>ONQRSDY[_^IW]Z_bO`_gjkUgifoo[&59
#NLPT.C0B2&D5
#NLPT.@ID2D4&3E
#NLPT.BA1D3&06
#NLPT.@B1D3&05
#NLPT.AF1C3&09
#NLPT.AI1C3&0C
#NLPT.AD1C3&07
#NLPT.@E1C3&07
#NLPT.AAE2F4&3A
#NLPT.AAE2E4&39
#NLPT.A@B2F4&36
#NLPT.AAD2E4&38
#NLPT.A@B2E4&35
#NLPT.AAE2F4&3A
#NLPT.AAD2F4&39
#NLPT.A@J2D4&3C
#NLPT.A@I2E4&3C
#NLPT.A@I2F4&3D
#NLPT.A@H2D4&3A
#NLPT.@D1C3&06

#NMMN.@0>CKLN6JQRM;NMOP@RUVWVVGY]J[L^^OajkljkdhokZk\&9D
#KL_c.C0BCEIEKK8FPK<RR?TASCTE^WXZJ&3B
#KL_c.@@1CDFNGHH9GMSOO?UUBWDVFWHaZ[]M&CB
#KL_c.@B1CDFFGOO9GOROO?UUBWDVFWHaZ[_M&D6
#KL_c.@D1CDFJHIN9GPPR>TTAVCUEVG`YZ\L&A5
#KL_c.@E1CDEFIHI9GONTU?UUBWDVFWHaZ[_M&D4
#KL_c.@H1CDFKHKP9GOOTR?UUBWDVFWHaZ[]M&E2
#KL_c.AA1CDEHILN9GNUPU?UUBWDVFWHaZ[_M&DE
#KL_c.AB1CDFJFLL9GQL=SS@UBTDUF_XY[K&6B
#KL_c.AD1CDEHMNH9GOQSQ?UUBWDVFWHaZ[_M&DD
#KL_c.AE1CDFMKGK9GMORO?UUBWDVFWHaZ[]M&D5
#KL_c.AF1CDEIINM9KSLR>TTAVYDWFWHaZ[_M&E7
#KL_c.AI1CDEIOGK9LMO=SS@UBTDUF_XY]K&79
#KL_c.BA1CDFIGLL9GQUU>TTAVCUEVG`YZ\L&AC
#KL_c.BB1CDEHKKI9KNMU>TTAVYDWFWHaZ[_M&DD
#KL_c.@ID2DDLKLIJ:HMVNP@VVCXEWGXIb[\^N&0B
#KL_c.AAD2HELKG8FNSTQ>TTAVCVEVG`YZ\L&B0
#KL_c.AAE2HIEKI8FKLQV>TTAVCVEVG`YZ\L&A8
#KL_c.A@J2HDIOJ8JQSP=SS@UBUDUF_XY]K&89
#KL_c.A@G2GJFOP8FOPUQ>TTAVCVEVG`YZ^L&BE
#KL_c.A@B2HGFNH8FNOOR>TTAVCVEVG`YZ\L&A5
#KL_c.A@I2HHFFP8FKQRM>TTAVCVEVG`YZ\L&AA
#KL_c.A@H2GKHHO8JLNM=SS@UBUDUF_XY]K&7D
#KLbg.?0CD3FFJ7II:MQ=POXASWDWVXH[\K]eNcPbkfThgWjjm[mo^qpzbuzexh{~k~}orux|&05
#KLbg.@0A2&F3

#\Qpou/ECE3EHHHQ9LLS=OV@RSUDVX[XIb^^MfcPdgedUijhmZrloo_wstvduxi}nsx}&69
#NP\U.@H1CDGLNIOQJS<aTTPQRCZWV\lmJdaor`dQsefgwnXrllv_srutw}fyzi}pw~Ȧ˽ĭɴ͹&D9
#NP\U.A@1CDGLNIMPLS<aTSPQRCTEVGXIZK^pa`ciRdkUii}p{s\oosurcw}|jqw~ŵʽͬǳߺ&68
#NP\U.AA1CDGLNIOPRL<aTSPQRCTEVGXIZK`ca`ciRyzz|Wz}rpl^svvyey}zlszƣþǯʶν&D6
#NP\U.AB1CDGLNIOQLQ<aTTQQRCZfV\lmJdaor`dQsefgwnXrll_vutw}f|kryöâ˩оŮֵм&D0
#NLXZ.@C1BC4FNOI9N_NSQT@WUTWXXGnm^b\]NpaavciUkonk\rnycuuwzjq&D8
#NLXZ.@D1BC4FNOI9N`PPdd@WUSiYgGnm^\\]NpaavgjUkm~m}\nxwwycyzjo&CB
#NLXZ.@E1BC4FNOI9NaPNcU@WUi\^gGnm\a\]NpaavvvUkhqi\nqtuzcww~~jq&2E
#NLXZ.@F1BC4FNOI9OKPRSU@WUTj\iGnm`m\]NpaavgkUwy~{jl\b{x}i|}p&F7
#NLXZ.@G1BC4FNOI9OLQVbU@WUTYWjGnm^]\]NpaauteUzlynk\nruycy{y|j}~q&C1
#NLXZ.@H1BC4FNOI9OMTTWd@WUiX^YGnm]q\]NpaauwhUhohins\ouyc}y}j~}~q&E2
$[AGT],GSET=3
$[AGT],rm,1,rt,7
$[AGT],fgFirstReq:0
$[AGT],bitmap,old: 108,new: 108
$[AGT],fsm,wm,3
$[AGT],skip
090098.609,HBD,IF1,TIM,DSP,u1ChnNum,37,u2DataSize,57
090098.609,HBD,IF1,COM,BinDecX,65065
090098.609,HBD,IF1,TIM,DSP,u1ChnNum,48,u2DataSize,57
090098.609,HBD,IF1,COM,BinDecX,65065
090098.609,HBD,WRN,COM,DtNxtMM,4011,3011
090098.609,HBD,IF1,GPS,TkDltNo,2011,1033

#MZYQ.DB1B3&1A
090098.609,HBD,IF1,TIM,NWloc,fgfirstUseNW,0,case,0,NWAID,0,NWUSE,0
090098.609,HBD,IF1,AGP,BOOST,Posdiff:185.499176,1.013266,num:0,PosConverge,0,BoostRemT,17.000

#MZYQ.C@1B3&17
$LOC_Cache_BIT,00000002*7D
090098.609,HBD,IF1,AGP,AGPSMGN,Posdiff:185.499176,1.013266,num:0,PosConverge,0,AGPSRemT,13.587

#XPda.CHEB3&4F

#MZYQ.@B1WYZ5G7JLRM<&F7

#MZYQ.AH1HG4&57
090098.609,HBD,IF1,AGP,AGPSMGN,AGPSMode:3,AGPSTimer:2.414
$PMTK015,90098609,10,3011,AMode,3,ATimer,2.414,Remain,13.586*4E
090098.609,HBD,IF1,AGP,AGPSMGN,DOP.H :1.495585,PosCon:0,[50.685013,34.822906,3.039815]
$PMTK013,3011,INF,TA,ENTRY,TS,10,TOW,199967.172000000,CB,0.000283500,AGPSM,1*30
$PMTK013,3011,INF,TA,CTk,3011,CPage,16,CSF,3,CSFT,5.172,SFNumSent,0*54
$PMTK013,3011,INF,TA,NPage,16,NSF,4,NSFTow,199968.000000000,NZCNT,33329,NSFTk,3839*41
$PMTK013,3011,INF,TA,TAEnableList*71
$PMTK015,90098609,5,3011,TA_Aiding*61
$PMTK015,90098609,6,3011,NACQ,6,NBS,6,NSFS,0,NEXS,0*62
$HBD,INF,RTC,F,0,Y,16,M,1,D,26,H,7,M,32,Sec,30,Sub,3531,T,3004,SM,9198*3F
$DBts1,TSOK,0,WNSet,1,TOWS,10,WN,1881,BAcc,22.581,TAcc,211158.375,*57
$DBts2,TTK,3011,TOW,199967.172000000,B,0.000283500,D,0.000001199,*02
090098.609,HBD,IF1,ALO,CdmPvtU,
$HBD,INF,RTC,F,0,Y,16,M,1,D,26,H,7,M,32,Sec,30,Sub,3531,T,3004,SM,9198*3F
$GNGGA,073230.171,2458.5393,N,12119.6794,E,1,5,1.50,132.5,M,15.0,M,,*41
$GPGSA,A,3,10,25,18,31,12,,,,,,,,1.77,1.50,0.95*05
$GLGSA,A,3,,,,,,,,,,,,,1.77,1.50,0.95*17
$GPGSV,4,1,15,10,72,222,34.8,25,65,078,33.1,14,51,347,,22,46,302,*79
$GPGSV,4,2,15,18,46,169,28.8,04,46,302,,193,44,174,,31,39,271,30.1*4C
$GPGSV,4,3,15,12,28,044,25.5,26,10,205,,29,09,137,,24,09,053,19.6*73
$GPGSV,4,4,15,32,07,321,,15,04,110,,21,03,184,*46
$GLGSV,2,1,7,68,79,024,,79,60,275,,78,49,005,,67,37,139,*56
$GLGSV,2,2,7,69,28,333,,80,09,230,,77,03,034,*60
$GNRMC,073230.171,A,2458.5393,N,12119.6794,E,1.969,195.52,260116,,,A*4C
$GNVTG,195.52,T,,M,1.969,N,3.648,K,A*27
$GNACCURACY,7.8*19
$PMTKDGP,0*4D
$PMTKDBG,3011,0,1,0,1,0,0,0,1,0,0,0,0,0,0,0,0,0,0,1,1,1,1,1,0,0,0,0,0,0,0,0,0,0026,0014,0002,0005,0005,0000,0000,0000,0.0000,1.1987,0.0000,0.0000,0.0000,0.0000,*45
$PMTKDB2,0D19,0000,0000,0000,0000,0000,0000,0700,0061.49,1199.56,11987.98,211158.38,00-0.60,0283.50,00-0.21,0000.00,*53
$PMTKEPH,43,2,4,5,10,12,13,14,15,18,20,21,22,24,25,-26.2.5,29,30,31,-32.0.1,193,-65.2.5,-66.2.5,-67.2.5,-68.2.5,-69.2.5,-70.2.5,-71.2.5,-72.2.5,-73.2.5,-74.2.5,-75.2.5,-76.2.5,-77.2.5,-78.2.5,-79.2.5,-80.2.5,-82.2.5,-83.2.5,-84.2.5,-85.2.5,-86.2.5,-87.2.5,-88.2.5*70
$PMTKALM,32,1,2,3,5,6,7,8,9,10,11,12,13,14,15,16,17,18,19,20,21,22,23,24,25,26,27,28,29,30,31,32,193*51

#WXM[.?0A2C4E6G8I:K<M>O@QBSDUFWHYJ[L]N_PaRcTeVgXiZk\m^o`qbsdufwhyj{l}npy&37

#NM^Z.BB1ECEF6H8JKP<NNT@QBSD&0D
#\XOU.?0BB3GM6G8ON;QNPb@QBUZUVGZ_Z[LbNcgQcfghghXoknqnu_q{drw~yorw|~&4E
#\XOU.@0CG3GK6G8ON;RRPb@QBT\[VGYa`[LbNbhQcfghghXokmumw_xwwsdrw|{{orw|&54
#\XOU.A0BJ3GF6G8ON;SNP`@QBTXYVGY]^[LbNgPbefgfgWnjjqqp^rcqw~}y~nqv{~&47
#\XOU.B0E2C4E6G8[KKL=N?PARCWEVGY\]^]^NeadggjU{pn~Zk\on_parstufwhyj{l}~qsvxz|&BC
#\XOU.C0BKF4E6G8I:]MMN?PARCTEYGXI[^_`_`PfhgdehWpjt\joqpvzyvyvgyzj{l}~qsuw|~&DC
#\XOU.D0DC3GH6G8ON;RNP`@QB[TUF_XYJ`L_aOadefefVmhqoqn]nrbpxzz|}l~oty|&0B
#\XOU.E0BD3FM6G8ON;TNP`@QB\ZUF`^YJ`LcN`cdedeUlgmnsm\sqaovtxvzy{l~oty|&D9
#\XOU.F0CH3D5F7H9\LLM>O@QBSDXFWHZ]^_^_OfadkjnVkz|~[mopqruxwtegxiz{|}nprty{~&6C
#\XOU.G0CK3EM6G8LL;^RNO@QBSDUF\HYJ\_`a`aQhcgifiXrp|m]oryqrytyfxxiw|nsvxz&BC
#\XOU.H0CF3FH6G8NJ;]RP`@QBUTEXWH^J\L^abcbcSjehinpZ~tu_ms{|yz|~yjlqvy}&B1
#\XOU.@@1CH4FL7H9MM<_SOPARCTEVG]IZK]`ababRhmnngoY{~u^lryrzu{|zi|lqvxz|&50
#\XOU.@E1DDH5GP8I:MM=`PRSBSDUFWH^J\L`eheaRhigipX~rq~]kvtr{uy~xgi{nsuxz&2E
#\XOU.@F1DDH5HI8I:NN=WPPQBSDUFWH^J[L`eheaRhiekgXr~t]kvuuysyv}gy|j|~}otvxz&19
#\XOU.@G1DCE5GP8I:NM=_TRSBSDUFWH^J\L`eheaRhgfmmXrknr]kqxs{xv}zhz~kpuwz|&82
#\XOU.@H1DDG5HG8I:NN=WPPQBSDUFWH^J[L`eheaRheljpXrqn]krrwszwxwzhz}kpuwy{&19
#\XOU.@I1DCE5HG8I:NN=WPPQBSDUFWH^J[L`eheaRhgfmlX}~nu]kqxz{wu}xhz}kpuwy{&5E
#\XOU.A@1DDH5HG8I:NN=WPPQBSDUFWH^J[L`eheaRhiekhXm~s]kuxyw{}x}gi|m~rtvx}&A2
#\XOU.AA1DDG5GP8I:NN=WPPQBSDUFWH^J[L`eheaRheljmXrk]krrwsvx}~yhj}~otvxz&0D
#\XOU.AB1DCM5GO8I:NN=WPPQBSDUFWH^J[L`eheaRhdiohX}ju]oppwwzw|ygiwnsuwy~&D0
#\XOU.AC1DCL5GO8I:NN=`PPQBSDUFWH^J[L`eheaRhheonX}oos]kppy{t}}zwhzk~}puwy{&3D
#\XOU.AD1DDG5GM8I:NN=_PPQBSDUFWH^J[L`eheaRheliiXjm]krqzwuuxyhz{k}puwy{&3D
#\XOU.AE1DCK5HG8I:NN=WPPQBSDUFWH^J[L`eheaRgkhhnXl{~u]vppsz{yyfxxiw~nsuwy~&C8
#\XOU.AF1CG4E6G8I:\QMN?PARCTE\GXI[^_`_`PgcekehW~ksm\jqtqsyu}{fxizk|}~psuw|~&ED
#\XOU.BG1DCM5F7H9J;UNNO@QBSDUFZHYJ^cfc_PfbegnVii~m[mnurpzvwte~gxiz{|}nprty{~&82
#\XOU.CH1DE4E6G8I:SMMN?PARCTE\GXI[^_`_`PgceihgWnz~|\jrsuwvw|ewhyj{|}~oqsuz|&9A

#NM`a.B@BC3E5F7H9J;L=N?PQRSTUVWHYJ[L&54
#NLPT.@@1CF4EFGK9MIO=NMPTWCZW^GUYX\^M^]`jbSecnhX&AF
#NLPT.AE1CF4EFGK9GLJN>ONQVSDVV^ZIZY^]N_^agjTidojY&DD
#NLPT.@H1CF4EFGK9GMJU>ONQRUDV\XYIZY]]N_^acfTkdnoY&E1
#NLPT.C0B2&D5
#NLPT.@ID2D4&3E
#NLPT.BA1CF4EFGK9LIO=NMPRVCVVV`HYX]dM^]`heSeedkhY&E0
#NLPT.@B1CF4EFGK9SIS=NMPXYCYWV`HYX[aM^]`abSeidopY&F8
#NLPT.AF1C3&09
#NLPT.AI1D3&0D
#NLPT.AD1CF4EFGH9JIL=NMPQRCTEVUXYJ[Z]^_Pa`cdU&F0
#NLPT.@E1D3&08
#NLPT.AAE2F4&3A
#NLPT.AAE2E4&39
#NLPT.A@B2F4&36
#NLPT.AAD2E4&38
#NLPT.A@B2E4&35
#NLPT.AAE2F4&3A
#NLPT.AAD2F4&39
#NLPT.A@J2E4&3D
#NLPT.A@I2E4&3C
#NLPT.AAD2F4&39
#NLPT.A@H2E4&3B
#NLPT.@D1C3&06

#NMMN.@0>CKLM6JQQN;OMOP@RUVWVWGY]J[L^^OajkljldhokZk\&9F
#KL_c.C0GCFIJJ7ENS;PO>S@RBSD]VWYI&16
#KL_c.@@1HDKKFP8FLRMT>SRAVCUEVG`YZ\L&AB
#KL_c.@B1HCMKNK8FNQNP>SRAVCUEVG`YZ^L&B1
#KL_c.@D1HDGLHL8FOOQ=RQ@UBTDUF_XY[K&77
#KL_c.@E1GLMMFP8FNMSR>SRAVCUEVG`YZ^L&BE
#KL_c.@H1HDHLJL8FNNRT>SRAVCUEVG`YZ\L&B4
#KL_c.AA1HCEMKJ8FMTOM>SRAVCUEVG`YZ^L&A7
#KL_c.AB1HDGJKK8FOT<QP?TASCTE^WXZJ&46
#KL_c.AD1HCFGLN8FNPRS>SRAVCUEVG`YZ^L&B0
#KL_c.AE1HDKEFH8FLNQM>SRAVCUEVG`YZ\L&9C
#KL_c.AF1HCFMMM8JRLN=RQ@UXCVEVG`YZ^L&B9
#KL_c.AI1HCGIFJ8KLS<QP?TASCTE^WX\J&48
#KL_c.BA1HDFKKK8FPTQ=RQ@UBTDUF_XY[K&7C
#KL_c.BB1HCFEJH8JMLQ=RQ@UXCVEVG`YZ^L&A4
#KL_c.@ID2HJIFHH9GLTVR?TSBWDVFWHaZ[]M&DF
#KL_c.AAD2HELJP8FNSSV>SRAVCVEVG`YZ\L&B9
#KL_c.AAE2HIEKI8FKLQT>SRAVCVEVG`YZ\L&A3
#KL_c.A@J2HDIOK8JQSN=RQ@UBUDUF_XY]K&85
#KL_c.A@G2GJFOO8FOPUV>SRAVCVEVG`YZ^L&BF
#KL_c.A@B2HGFNG8FNOOS>SRAVCVEVG`YZ\L&A2
#KL_c.A@I2HHFFO8FKQQT>SRAVCVEVG`YZ\L&AC
#KL_c.A@H2GKHHO8JLNR=RQ@UBUDUF_XY]K&7F
#KLbg.?0CD3FFJ7II:MQ=POXASWDWVXH[\K]eNcPbkfThgWjjm[mo^qpzbuzexh{~k~}orux|&05
#KLbg.@0C2EDG6IHL:&5E

#\Qpou/ABDH4FHJNO:OTT>QWAT\XEXY[[J\bedObacShhkhXmnon]vprsb{vxvgx{lqv{&0D
#NP\U.AD1CDGLNIOQMM<aTTPQRCZWV\lmJdaor`dQsefgwnXrllms_sruzdipu|ƥͻϬسϺ&6B
#NP\U.AE1CDGLNIOQJS<aTTPQRCZWV\lmJdaor`dQsefgwnXrllm_qtutw|fkryĬ˳θ&F8
#NP\U.AI1CDGLNHPLKS<aTSPQRCTEVGXIZKe_tffQkSijn{|iZt`tt{vgnu|óǦĭشһ&D3
#NP\U.B@1CDGLNHIKOM<aTSPQRCTEVGXIZK^n`sreRelUxxmn[n~bvuu{ipw~ŲʻϫſԲڹ&39
#NLXZ.@I1BC4FNOI9ONQ`Qc@WUTWY_Gnm^[\]NpabkdzUznylk\nwsqwcwzj}~q&CE
#NLXZ.A@1BC4FNOI9OONUVO@WUiY[^Gnm]p\]NpaavdgUhl}kjt\pspqcw~~|j~}~q&8A
#NLXZ.AA1BC4FNOI9OP^``P@WUifggGnm]^\]NpaauywU|{p{~\sqxvcu}~jq&95
#NLXZ.AB1BC4FNOI9OQObOd@WUiWWiGnm]m\]NpabjhkUhohqqo\~v{c{xwz|j~q&EB
#NLXZ.AC1BC4FNOI9ORQRVT@WUSV]ZGnm]\\]NpaavihUkj|qm\vsvwvcv~y|jq&E9
#NLXZ.AD1BC4FNOI9OSNORU@WUSY^hGnm]q\]NpaautlUm{yp|\qvvsbtt}xwzi|}p&88
$[AGT],GSET=3
$[AGT],rm,1,rt,7
$[AGT],fgFirstReq:0
$[AGT],bitmap,old: 108,new: 108
$[AGT],fsm,wm,3
$[AGT],skip
090098.711,HBD,IF1,TIM,DSP,u1ChnNum,37,u2DataSize,57
090098.711,HBD,IF1,COM,BinDecX,65065
090098.711,HBD,IF1,TIM,DSP,u1ChnNum,48,u2DataSize,57
090098.711,HBD,IF1,COM,BinDecX,65065
090098.711,HBD,WRN,COM,DtNxtMM,4840,4011
090098.711,HBD,IF1,GPS,TkDltNo,3011,1033
$QEPO_Request*05
$[AGT],GSET=3
$[AGT],rm,1,rt,10
$[AGT],set Qepo req
$[AGT],TSETe=3
$[AGT],inco
$[AGT],rm,0
$[AGT],remd == 0
090098.711,HBD,IF1,TIM,NWloc,fgfirstUseNW,0,case,0,NWAID,0,NWUSE,0
090098.711,HBD,IF1,AGP,BOOST,Posdiff:5.976648,0.547509,num:8,PosConverge,1,BoostRemT,16.000
$Boost, flag on*64
$LOC_Cache_BIT,00000002*7D
090098.711,HBD,IF1,AGP,AGPSMGN,Posdiff:5.976648,0.547509,num:0,PosConverge,0,AGPSRemT,13.482

#XPda.DHEB3&50

#MZYQ.@B1CEYL6H8KN]]=&1F

#MZYQ.AH1HG4&57
090098.719,HBD,IF1,AGP,AGPSMGN,AGPSMode:3,AGPSTimer:2.521
$PMTK015,90098716,10,4011,AMode,3,ATimer,2.521,Remain,13.479*40
090098.719,HBD,IF1,AGP,AGPSMGN,DOP.H :1.102614,PosCon:0,[29.572037,21.291025,2.635638]
$PMTK013,4011,INF,TA,ENTRY,TS,10,TOW,199968.172000000,CB,0.000284693,AGPSM,1*36
$PMTK013,4011,INF,TA,CTk,4011,CPage,16,CSF,4,CSFT,0.172,SFNumSent,0*56
$PMTK013,4011,INF,TA,NPage,16,NSF,5,NSFTow,199974.000000000,NZCNT,33330,NSFTk,9839*48
$PMTK013,4011,INF,TA,TAEnableList*76
$PMTK015,90098718,5,4011,TA_Aiding*67
$PMTK015,90098718,6,4011,NACQ,7,NBS,7,NSFS,0,NEXS,0*64
$HBD,INF,RTC,F,0,Y,16,M,1,D,26,H,7,M,32,Sec,31,Sub,3565,T,4005,SM,10056*02
$DBts1,TSOK,0,WNSet,1,TOWS,10,WN,1881,BAcc,15.621,TAcc,211150.156,*51
$DBts2,TTK,4011,TOW,199968.172000000,B,0.000284693,D,0.000001198,*05
090098.719,HBD,IF1,ALO,CdmPvtU,
$HBD,INF,RTC,F,0,Y,16,M,1,D,26,H,7,M,32,Sec,31,Sub,3565,T,4005,SM,10056*02
$GNGGA,073231.171,2458.5405,N,12119.6800,E,1,8,1.10,132.2,M,15.0,M,,*44
$GPGSA,A,3,10,25,18,14,193,31,12,24,,,,,1.41,1.10,0.88*30
$GLGSA,A,3,,,,,,,,,,,,,1.41,1.10,0.88*1A
$GPGSV,4,1,15,10,72,222,38.8,25,65,078,37.4,14,51,347,27.3,22,46,302,*6C
$GPGSV,4,2,15,18,46,169,31.5,04,46,302,,193,44,174,25.0,31,39,271,34.6*53
$GPGSV,4,3,15,12,28,044,29.0,26,10,205,,29,09,137,,24,09,053,21.8*7F
$GPGSV,4,4,15,32,07,321,,15,04,110,,21,03,184,*46
$GLGSV,2,1,7,68,79,024,,79,60,275,,78,49,005,,67,37,139,*56
$GLGSV,2,2,7,69,28,333,,80,09,230,,77,03,034,*60
$GNRMC,073231.171,A,2458.5405,N,12119.6800,E,1.064,199.46,260116,,,A*4A
$GNVTG,199.46,T,,M,1.064,N,1.971,K,A*2D
$GNACCURACY,6.0*10
$PMTKDGP,0*4D
$PMTKDBG,4011,0,1,0,1,0,0,0,1,0,0,0,0,0,0,0,0,0,0,1,1,1,1,1,0,0,0,0,0,0,0,0,1,0026,0035,0002,0008,0008,0000,0000,0000,0.0000,1.1982,0.0000,0.0000,0.0000,0.0000,*45
$PMTKDB2,0D19,0000,0000,0000,0000,0000,0000,0700,0036.44,0000.00,11982.92,211150.16,00-0.20,0284.69,00-0.21,0000.00,*5D
$PMTKEPH,43,2,4,5,10,12,13,14,15,18,20,21,22,24,25,-26.2.5,29,30,31,-32.0.1,193,-65.2.5,-66.2.5,-67.2.5,-68.2.5,-69.2.5,-70.2.5,-71.2.5,-72.2.5,-73.2.5,-74.2.5,-75.2.5,-76.2.5,-77.2.5,-78.2.5,-79.2.5,-80.2.5,-82.2.5,-83.2.5,-84.2.5,-85.2.5,-86.2.5,-87.2.5,-88.2.5*70
$PMTKALM,32,1,2,3,5,6,7,8,9,10,11,12,13,14,15,16,17,18,19,20,21,22,23,24,25,26,27,28,29,30,31,32,193*51

#WXM[.?0A2C4E6G8I:K<M>O@QBSDUFWHYJ[L]N_PaRcTeVgXiZk\m^o`qbsdufwhyj{l}npy&37

#NM^Z.BB1FCEF6H8JKP<NNT@QBSD&0E
#\XOU.?0BB3HG6G8ON;QNPb@QBVZUVG[_Z[LbNciQcfghgiXjjmlns_utdrw~{~orx}&D7
#\XOU.@0CG3HF6G8ON;QRPb@QBU\WVGZa\[LbNcdQcfghgiXjjlpmu_ydrw||y}orw|&FA
#\XOU.A0BJ3GJ6G8ON;RNP`@QBUXUVGZ]Z[LbN`cQcfghgiXrslqn^pwzcqw~}}~nqw|&E1
#\XOU.B0BF3GF6G8ON;SRP`@QBTTUFXXYJ`L`N`cdedfUggikjm\vaovywxxx}zk}nrwz~&55
#\XOU.C0BKF4GN7H9OS<USQaARCXUF[XI_K^M_bcdceTjhlhrZlpsn_mrtvxvyj|}mqvy}&90
#\XOU.D0DC3GM6G8ON;QNPb@QBT[YVGY`^[LbNbaQcfghgiXrqkrn^xxucqy{~x}mpuz}&58
#\XOU.E0BD3GG6G8ON;TNP`@QBT][VGYb`[LbNePbefgfhWqmjsu]tuybpwux~|z}}mpv{~&23
#\XOU.F0CH3M5F7KK:]MMN?PARCTE[GXI[^_`_aPjcfklVxqkr[mnuwswyzzegul}~qsuw|~&4B
#\XOU.G0CK3FE6G8MP;^RPQ@QBSDUF\HZJ\_`a`bQkdmehWzjk|\nqxvz{xvewwhv}}m~rtxz&B4
#\XOU.H0CF3FJ6G8ON;]RP`@QBTTUVGYYZ[LbN`PbefgfhWpoprn]rbpv~~y{zmpuz}&99
#\XOU.@@1CH4FO7H9NQ<_SQRARCTEVG]I[K]`abacRklhflXj|~t]kqxqy|}v{}h{k~puw{}&28
#\XOU.@E1DDH5GN8I:LL=`PRSBSDUFWH^J\L`ehebRhigipXq|n]kvtsv{}{vgi|nsuxz&41
#\XOU.@F1DDH5GL8I:NM=`PRSBSDUFWH^J\L`ehebRhiekgXmj|s]kvuvzvw~zgi|~nsuxz&01
#\XOU.@G1DCE5HH8I:NM=_TRSBSDUFWH^J\L`ehebRhgfmlXks]kqxsyu}w||hz~kpuwz|&98
#\XOU.@H1DDG5GP8I:NM=`PRSBSDUFWH^J\L`ehebRheljoXinom]krrv{tw}y{hz{k}}qvx{}&A1
#\XOU.@I1DCE5HI8I:MT=`PRSBSDUFWH^J\L`ehebRhgfmkXpn]kqyqtu|wz~hz~k}~qvx{}&C3
#\XOU.A@1DDH5GP8I:NN=WPPQBSDUFWH^J[L`ehebRhiekgXq]kuxyzt}z~gy}j|otvxz&27
#\XOU.AA1DDG5GO8I:NN=WPPQBSDUFWH^J[L`ehebRheljkX}m~]krrws|u{}hz~k~puwy{&4F
#\XOU.AB1DCM5GO8I:NN=WPPQBSDUFWH^J[L`ehebRhdioiXn{}]oppxy|{w}gy}jx~puwy{&45
#\XOU.AC1DCL5GO8I:MQ=`PRSBSDUFWH^J\L`ehebRhheonXm]kppxwxu{w}hzkpuwz|&A7
#\XOU.AD1DDG5GM8I:LN=_PRSBSDUFWH^J]L`ehebRheligXrlsr]krqzyzxuw}hz{kpuwz|&5E
#\XOU.AE1DCK5HH8I:NN=WPPQBSDUFWH^J[L`ehebRgkhhnXr}]voxqx||ufhv{nsuwy~&DA
#\XOU.AF1F3D5F7H9\LLM>O@QBSDXFWHZ]^_^`OaachhgV|m}r[iprvsur{dvgxiz{|}nprty{~&55
#\XOU.BG1DCM5F7H9J;]NNO@QBSDUF]HYJ^cfc`PfbghiVhjk[moowyw{ytegxiz{|}nprty{~&9D
#\XOU.CH1DE4E6G8I:SMMN?PARCTE\GXI[^_`_aPbbddhgWmrq\jrsuwvw|ewhyj{|}~oqsuz|&7C

#NM`a.C@BC3E5F7H9J;L=N?PQRSTUVWHYJ[L&55
#NLPT.@@1CF4EFGK9KIM=NMPRXCXZ]GUYX_dM^]bcbSechlX&AC
#NLPT.AE1CF4EFGK9GMJM>ONRXTDZ[\HVZY^^N_^ajjTfdjmY&E2
#NLPT.@H1CF4EFGK9KIM=NMPVXCZ]_GUYXd_M^]dfhSfckoX&D1
#NLPT.@D1CF4EFGK9MIP=NMPQRC]YZ_^I[Ya_N_^ihgTgiehkZ&29
#NLPT.@ID2DG5FGHL:HOKV?PORSTEW_ZZZbL_\_hQcafnkWmjhqq]&C1
#NLPT.BA1CF4EFGK9GKJR>ONQRVDVV^\IW[ZacO`_bleUjepmZ&12
#NLPT.@B1CF4EFGK9KOJQ>ONTWTDV\X[IZYd`N_^ffiTldjiY&F2
#NLPT.AF1D3&0A
#NLPT.AI1D3&0D
#NLPT.AD1CF4EFGK9GLOKP?PORVUE_]X[cK\[fdPa`clnVkngst\&9E
#NLPT.@E1D3&08
#NLPT.AAE2F4&3A
#NLPT.AAE2F4&3A
#NLPT.A@B2E4&35
#NLPT.AAD2E4&38
#NLPT.A@B2F4&36
#NLPT.AAE2E4&39
#NLPT.AAD2F4&39
#NLPT.A@J2E4&3D
#NLPT.A@I2E4&3C
#NLPT.AAD2F4&39
#NLPT.A@H2E4&3B
#NLPT.C0B2&D5

#NMMN.@0>CKLL6JQPL;PMOP@RUVWVXGY]J[L^^OajkljmdhokZk\&9E
#KL_c.C0BBEDJJ7EOJ;OM>S@RBSD]VWYI&FF
#KL_c.@@1CCJFFN8FLRMV>RPAVCUEVG`YZ\L&9C
#KL_c.@B1KKEMG7EMPMN=QO@UBTDUF_XY]K&77
#KL_c.@D1CCFGHL8FOOQ=QO@UBTDUF_XY[K&68
#KL_c.@E1JKGEL7EMLRQ=QO@UBTDUF_XY]K&7C
#KL_c.@H1CCGGJJ8FNNSM>RPAVCUEVG`YZ\L&9D
#KL_c.AA1KCGJG7ELSNM=QO@UBTDUF_XY]K&70
#KL_c.AB1CCFEKK8FPK<PN?TASCTE^WXZJ&2F
#KL_c.AD1KCKKK7EMOQO=QO@UBTDUF_XY]K&7E
#KL_c.AE1CCIJFG8FLNQN>RPAVCUEVG`YZ\L&96
#KL_c.AF1KDGLN7IQKK<PN?TWBUDUF_XY]K&83
#KL_c.AI1KDMEJ7JKQ;OM>S@RBSD]VW[I&1B
#KL_c.BA1CCEFKJ8FPTR=QO@UBTDUF_XY[K&6D
#KL_c.BB1KCIIH7ILKR<PN?TWBUDUF_XY]K&7A
#KL_c.@ID2HFJFP8FKSUT>RPAVCUEVG`YZ\L&B4
#KL_c.AAD2HELJN8FNSTN>RPAVCVEVG`YZ\L&AD
#KL_c.AAE2HIEKH8FKLQU>RPAVCVEVG`YZ\L&A0
#KL_c.A@J2HDIOK8JQSO=QO@UBUDUF_XY]K&83
#KL_c.A@G2GJFOM8FOPUR>RPAVCVEVG`YZ^L&B6
#KL_c.A@B2HGFMO8FNOOR>RPAVCVEVG`YZ\L&A5
#KL_c.A@I2HHFFO8FKQQV>RPAVCVEVG`YZ\L&AB
#KL_c.A@H2GKHHP8JLNP=QO@UBUDUF_XY]K&7B
#KLbg.?0CD3FFJ7II:MQ=POXASWDWVXH[\K]eNcPbkfThgWjjm[mo^qpzbuzexh{~k~}orux|&05
#KLbg.@0C2EDG6IHL:&5E

#\Qpou/D1CGFGL7H9J;L=PUPAV[DUFZZ]aK_bccPhjjjUmnjoZknw_x{dxz|i{{}}nsx&82
#NP\U.BA1CDGLNIOQLQ<aTTPQRCZWV\lmJdaor`dQsefgwnXrllq_tyutw}f|k~ryų̩Ӯٵк&89
#NP\U.BC1CDGLNIOQMM<aTUPQVC\UVWXYJ[L]NueQxfgfmhXjnm\puxcxxx~j||qxóǢǷΩҾѯ׶̽&0A
#NLXZ.AE1BC4FNOI9OTNVRS@WUT[]kGnm`]\]NpaaufeUwpklk\nstrvcvyyj}q&D4
#NLXZ.AF1BC4FNOI9O\LSRa@WUSfi]Gnm_\\]NpaavfzUwo}{qm\vxwzcxyzj}q&35
#NLXZ.AG1BC4FNOI9O]MVTO@WUTUihGnm]p\]NpaauteUzjy}}o\uupsbx||i{|~o&71
#NLXZ.AH1BC4FNOI9O^]Pae@WUTi^lGnm`m\]NpaauudUwzkikl\xqzc{{|j}}~q&19
#NLXZ.AI1BC4FNOI9O_LURc@WUTYh]Gnm^]\]NpaaulfUzmilqm\voc{~zj}~q&D5
#NLXZ.B@1BC4FNOI9O`La_U@WUS[ZjGnm^]\]NpaauuwUnhm{l\truzc|j|}p&DB
$[AGT],GSET=3
$[AGT],rm,1,rt,7
$[AGT],fgFirstReq:0
$[AGT],bitmap,old: 108,new: 108
$[AGT],inco
$[AGT],srm,1,dsm,4,tp,7,length,12
$[AGT],tp,264,wn,1881,tw,199968,si,12
$[AGT],rm,2
$[AGT],state:7
$[AGT],wn:1881, tw:199968
$[AGT],ergt
$[AGT],
$[AGT],Esgt 1137715200
$[AGT],epegt
$[AGT],gfisiz()
$[AGT],egtEf,1140307200
$Rdon
$[AGT],res,1137828768,sst,1137715200,egsn,1140307200
$[AGT],wk,epo
$[AGT],s,1,m,1
$[AGT],idle
$@#$^ [AGNT] pEd
$[AGT],opmode GLO(1),GEL(0),DB(0)
$[AGT],tw,199968,gs,1137828768
$[AGT],eextd
$[AGT]start verify
$[AGT],gfisiz()
$[AGT]FileType:GPS+GLO
$[AGT],
$[AGT],epegt
$[AGT],gfisiz()
$[AGT],Extract epo done
$[AGT],GSET=3
$[AGT],rm,4,rt,8
$[AGT],inco
$[AGT],srm,4,dsm,4,tp,8,length,12
$[AGT],tp,264,wn,1881,tw,199968,si,12
$[AGT],rm,3
$[AGT],state:6
$[AGT],wn:1881,tw:199968
$[AGT],BGAI
$PMTK015,90098736,4,4031,PMTK712,1881,199966.160000,3000.000,0,0,0,0.000*36
$AGPS,4041,TimeCompensate,0.900,WN,1881,TOW,199967.060000*77
Use_New_Time,0,count,1,-1142,12003,Local,1881,199968.172000 &A3
TimeSetOK,0,WeekNO,1881,TOW,199967.060000,RMS,3.000000,TTick,4041 &8A
SetNATime,1137828767 &55
$PMTK001,712,3*34
090098.742,HBD,IF1,MSG,AidEPO,SV,1,path_2NG,ValidEPO,0,u4CurrGpsSecs,1137828768,u4GpsSecs,1137823200,seq,45,NAseq,45,Age_Epo,17,Naage,17,NaValidGEPO,1
090098.742,HBD,IF1,MSG,AidEPO,SV,2,path_2NG,ValidEPO,0,u4CurrGpsSecs,1137828768,u4GpsSecs,1137823200,seq,45,NAseq,45,Age_Epo,17,Naage,17,NaValidGEPO,1
090098.742,HBD,IF1,MSG,AidEPO,SV,3,path_2NG,ValidEPO,0,u4CurrGpsSecs,1137828768,u4GpsSecs,1137823200,seq,45,NAseq,45,Age_Epo,17,Naage,17,NaValidGEPO,1
090098.742,HBD,IF1,MSG,AidEPO,SV,4,path_2NG,ValidEPO,1,u4CurrGpsSecs,1137828768,u4GpsSecs,1137823200,seq,45,NAseq,0,Age_Epo,17,Naage,0,NaValidGEPO,0
090098.742,HBD,IF1,MSG,AidEPO,SV,5,path_2NG,ValidEPO,0,u4CurrGpsSecs,1137828768,u4GpsSecs,1137823200,seq,45,NAseq,45,Age_Epo,17,Naage,17,NaValidGEPO,1
090098.742,HBD,IF1,MSG,AidEPO,SV,6,path_2NG,ValidEPO,0,u4CurrGpsSecs,1137828768,u4GpsSecs,1137823200,seq,45,NAseq,45,Age_Epo,17,Naage,17,NaValidGEPO,1
$[AGT],0,av:61,b_sky:0
$[AGT],1,av:69,b_sky:0
$[AGT],2,av:113,b_sky:0
$[AGT],3,av:0,b_sky:0
$[AGT],4,av:71,b_sky:0
$[AGT],5,av:67,b_sky:0
$[AGT],6,av:67,b_sky:0
$[AGT],7,av:59,b_sky:0
$[AGT],8,av:67,b_sky:0
$[AGT],9,av:123,b_sky:0
$[AGT],10,av:61,b_sky:0
$[AGT],11,av:123,b_sky:0
$[AGT],12,av:71,b_sky:0
$[AGT],13,av:123,b_sky:0
$[AGT],14,av:121,b_sky:0
$[AGT],15,av:57,b_sky:0
$[AGT],16,av:65,b_sky:0
$[AGT],17,av:121,b_sky:0
$[AGT],18,av:63,b_sky:0
$[AGT],19,av:71,b_sky:0
$[AGT],20,av:121,b_sky:0
$[AGT],21,av:123,b_sky:0
$[AGT],22,av:63,b_sky:0
$[AGT],23,av:121,b_sky:0
$[AGT],24,av:121,b_sky:0
$[AGT],25,av:57,b_sky:1
$[AGT],26,av:57,b_sky:0
$[AGT],27,av:63,b_sky:0
$[AGT],28,av:121,b_sky:0
$[AGT],29,av:69,b_sky:0
$[AGT],30,av:123,b_sky:0
$[AGT],31,av:103,b_sky:0
$[AGT],Eend:1, Send:1, ct:1
$[AGT],wkbee
$[AGT],s,1,m,2
$[AGT],idle
$@#$^ [AGNT] sBi
$[AGT],GSET=3
$[AGT],rm,6,rt,3
$[AGT],receive pmtk
090098.742,HBD,IF1,MSG,AidEPO,SV,7,path_2NG,ValidEPO,0,u4CurrGpsSecs,1137828768,u4GpsSecs,1137823200,seq,45,NAseq,45,Age_Epo,17,Naage,17,NaValidGEPO,1
090098.742,HBD,IF1,MSG,AidEPO,SV,8,path_2NG,ValidEPO,0,u4CurrGpsSecs,1137828768,u4GpsSecs,1137823200,seq,45,NAseq,45,Age_Epo,17,Naage,17,NaValidGEPO,1
090098.742,HBD,IF1,MSG,AidEPO,SV,9,path_2NG,ValidEPO,0,u4CurrGpsSecs,1137828768,u4GpsSecs,1137823200,seq,45,NAseq,45,Age_Epo,17,Naage,17,NaValidGEPO,1
090098.742,HBD,IF1,MSG,AidEPO,SV,10,path_2NG,ValidEPO,0,u4CurrGpsSecs,1137828768,u4GpsSecs,1137823200,seq,45,NAseq,45,Age_Epo,17,Naage,17,NaValidGEPO,1
090098.742,HBD,IF1,MSG,AidEPO,SV,11,path_2NG,ValidEPO,0,u4CurrGpsSecs,1137828768,u4GpsSecs,1137823200,seq,45,NAseq,45,Age_Epo,17,Naage,17,NaValidGEPO,1
090098.742,HBD,IF1,MSG,AidEPO,SV,12,path_2NG,ValidEPO,0,u4CurrGpsSecs,1137828768,u4GpsSecs,1137823200,seq,45,NAseq,45,Age_Epo,17,Naage,17,NaValidGEPO,1
090098.742,HBD,IF1,MSG,AidEPO,SV,13,path_2NG,ValidEPO,0,u4CurrGpsSecs,1137828768,u4GpsSecs,1137823200,seq,45,NAseq,45,Age_Epo,17,Naage,17,NaValidGEPO,1
090098.742,HBD,IF1,MSG,AidEPO,SV,14,path_2NG,ValidEPO,0,u4CurrGpsSecs,1137828768,u4GpsSecs,1137823200,seq,45,NAseq,45,Age_Epo,17,Naage,17,NaValidGEPO,1
090098.742,HBD,IF1,MSG,AidEPO,SV,15,path_2NG,ValidEPO,0,u4CurrGpsSecs,1137828768,u4GpsSecs,1137823200,seq,45,NAseq,45,Age_Epo,17,Naage,17,NaValidGEPO,1
090098.742,HBD,IF1,MSG,AidEPO,SV,16,path_2NG,ValidEPO,0,u4CurrGpsSecs,1137828768,u4GpsSecs,1137823200,seq,45,NAseq,45,Age_Epo,17,Naage,17,NaValidGEPO,1
090098.742,HBD,IF1,MSG,AidEPO,SV,17,path_2NG,ValidEPO,0,u4CurrGpsSecs,1137828768,u4GpsSecs,1137823200,seq,45,NAseq,45,Age_Epo,17,Naage,17,NaValidGEPO,1
090098.742,HBD,IF1,MSG,AidEPO,SV,18,path_2NG,ValidEPO,0,u4CurrGpsSecs,1137828768,u4GpsSecs,1137823200,seq,45,NAseq,45,Age_Epo,17,Naage,17,NaValidGEPO,1
090098.750,HBD,IF1,MSG,AidEPO,SV,19,path_2NG,ValidEPO,0,u4CurrGpsSecs,1137828768,u4GpsSecs,1137823200,seq,45,NAseq,45,Age_Epo,17,Naage,17,NaValidGEPO,1
090098.750,HBD,IF1,MSG,AidEPO,SV,20,path_2NG,ValidEPO,0,u4CurrGpsSecs,1137828768,u4GpsSecs,1137823200,seq,45,NAseq,45,Age_Epo,17,Naage,17,NaValidGEPO,1
090098.750,HBD,IF1,MSG,AidEPO,SV,21,path_2NG,ValidEPO,0,u4CurrGpsSecs,1137828768,u4GpsSecs,1137823200,seq,45,NAseq,45,Age_Epo,17,Naage,17,NaValidGEPO,1
090098.750,HBD,IF1,MSG,AidEPO,SV,22,path_2NG,ValidEPO,0,u4CurrGpsSecs,1137828768,u4GpsSecs,1137823200,seq,45,NAseq,45,Age_Epo,17,Naage,17,NaValidGEPO,1
090098.750,HBD,IF1,MSG,AidEPO,SV,23,path_2NG,ValidEPO,0,u4CurrGpsSecs,1137828768,u4GpsSecs,1137823200,seq,45,NAseq,45,Age_Epo,17,Naage,17,NaValidGEPO,1
090098.750,HBD,IF1,MSG,AidEPO,SV,24,path_2NG,ValidEPO,0,u4CurrGpsSecs,1137828768,u4GpsSecs,1137823200,seq,45,NAseq,45,Age_Epo,17,Naage,17,NaValidGEPO,1
090098.750,HBD,IF1,MSG,AidEPO,SV,25,path_2NG,ValidEPO,0,u4CurrGpsSecs,1137828768,u4GpsSecs,1137823200,seq,45,NAseq,45,Age_Epo,17,Naage,17,NaValidGEPO,1
090098.750,HBD,IF1,MSG,AidEPO,SV,26,path_2NG,ValidEPO,0,u4CurrGpsSecs,1137828768,u4GpsSecs,1137823200,seq,45,NAseq,45,Age_Epo,17,Naage,17,NaValidGEPO,1
090098.750,HBD,IF1,MSG,AidEPO,SV,27,path_2NG,ValidEPO,0,u4CurrGpsSecs,1137828768,u4GpsSecs,1137823200,seq,45,NAseq,45,Age_Epo,17,Naage,17,NaValidGEPO,1
090098.750,HBD,IF1,MSG,AidEPO,SV,28,path_2NG,ValidEPO,0,u4CurrGpsSecs,1137828768,u4GpsSecs,1137823200,seq,45,NAseq,45,Age_Epo,17,Naage,17,NaValidGEPO,1
090098.750,HBD,IF1,MSG,AidEPO,SV,29,path_2NG,ValidEPO,0,u4CurrGpsSecs,1137828768,u4GpsSecs,1137823200,seq,45,NAseq,45,Age_Epo,17,Naage,17,NaValidGEPO,1
090098.750,HBD,IF1,MSG,AidEPO,SV,30,path_2NG,ValidEPO,0,u4CurrGpsSecs,1137828768,u4GpsSecs,1137823200,seq,45,NAseq,45,Age_Epo,17,Naage,17,NaValidGEPO,1
090098.750,HBD,IF1,MSG,AidEPO,SV,31,path_2NG,ValidEPO,0,u4CurrGpsSecs,1137828768,u4GpsSecs,1137823200,seq,45,NAseq,45,Age_Epo,17,Naage,17,NaValidGEPO,1
090098.750,HBD,IF1,MSG,AidEPO,SV,32,path_2NG,ValidEPO,2,u4CurrGpsSecs,1137828768,u4GpsSecs,1137823200,seq,45,NAseq,0,Age_Epo,17,Naage,0,NaValidGEPO,0
$PMTK015,90098759,4,4051,PMTK710,0A,000000,000000,000000,000000,000005,233138,00FFF1,065EB4,230333,30D2F5,12B4E7,026900,8A8CE2,13EEA1,0D801B,31387C,000D29,12D1BE,FFFE27,16C462,189088,1E22C7,FFA8D3,230F54*6D
#DEPH 10 1137828268 0 0 0 0 5 233138 FFF1 65EB4 230333 30D2F5 12B4E7 26900 8A8CE2 13EEA1 D801B 31387C D29 12D1BE FFFE27 16C462 189088 1E22C7 FFA8D3 230F54 &77
$PMTK001,710,3*36
$[AGT],GSET=3
$[AGT],rm,6,rt,3
$[AGT],receive pmtk
$PMTK015,90098781,4,4081,PMTK710,0C,000000,000000,000000,000000,0000E6,5C3138,000017,2FA98C,5C0D60,2A5E1E,A9951F,0B5902,F21DA3,1108A1,0C5A02,31387C,0007AB,47C25B,001E28,58685D,1DF61A,3B2482,FFA9BB,5C0EF0*68
#DEPH 12 1137828268 0 0 0 0 E6 5C3138 17 2FA98C 5C0D60 2A5E1E A9951F B5902 F21DA3 1108A1 C5A02 31387C 7AB 47C25B 1E28 58685D 1DF61A 3B2482 FFA9BB 5C0EF0 &4A
$PMTK001,710,3*36
$[AGT],GSET=3
$[AGT],rm,6,rt,3
$[AGT],receive pmtk
$PMTK015,90098783,4,4081,PMTK710,0E,000000,000000,000000,000000,0000EC,0E3138,00FFEC,00E7C4,0EFE77,338B9E,FE262E,FEC604,408AB5,09B0A1,0DA9C2,31387C,003657,065E05,FFDF27,4B002D,24A0B0,8FF97F,FFA7F5,0EFB1C*6C
#DEPH 14 1137828268 0 0 0 0 EC E3138 FFEC E7C4 EFE77 338B9E FE262E FEC604 408AB5 9B0A1 DA9C2 31387C 3657 65E05 FFDF27 4B002D 24A0B0 8FF97F FFA7F5 EFB1C &EA
$PMTK001,710,3*36
$[AGT],GSET=3
$[AGT],rm,6,rt,3
$[AGT],receive pmtk
$PMTK015,90098784,4,4081,PMTK710,0F,000000,000000,000000,000000,0000E9,5D3138,00FFF0,D973A8,5D0070,3CF37E,719D76,004E04,1CCA2D,0903A1,0E3D4D,31387C,FFE151,A36776,FFE025,EFB713,235913,50A11D,FFA285,5DFF58*64
#DEPH 15 1137828268 0 0 0 0 E9 5D3138 FFF0 D973A8 5D0070 3CF37E 719D76 4E04 1CCA2D 903A1 E3D4D 31387C FFE151 A36776 FFE025 EFB713 235913 50A11D FFA285 5DFF58 &97
$PMTK001,710,3*36
$[AGT],GSET=4
$[AGT],rm,6,rt,3
$[AGT],receive pmtk
$PMTK015,90098908,4,4201,PMTK710,12,000000,000000,000000,000000,0000E8,313138,000022,3E8244,31042F,3B56E0,E11AF7,03E408,777CD0,13C1A1,0D43A2,31387C,FFBA28,120A56,008B25,AEE663,16D0B1,E999D8,FFA111,311080*16
#DEPH 18 1137828268 0 0 0 0 E8 313138 22 3E8244 31042F 3B56E0 E11AF7 3E408 777CD0 13C1A1 D43A2 31387C FFBA28 120A56 8B25 AEE663 16D0B1 E999D8 FFA111 311080 &7B
$PMTK001,710,3*36
$[AGT],GSET=4
$[AGT],rm,6,rt,3
$[AGT],receive pmtk
$PMTK015,90098911,4,4211,PMTK710,14,000000,000000,000000,000000,0000EE,2C3138,000017,32E7A8,2C0340,38FB83,4443F1,02D902,898CC8,1514A1,0D8647,31387C,004125,F3B301,FFEC25,BC5BDB,14D135,D1F12F,FFA5D5,2C1290*6F
#DEPH 20 1137828268 0 0 0 0 EE 2C3138 17 32E7A8 2C0340 38FB83 4443F1 2D902 898CC8 1514A1 D8647 31387C 4125 F3B301 FFEC25 BC5BDB 14D135 D1F12F FFA5D5 2C1290 &B6
$PMTK001,710,3*36
$[AGT],GSET=4
$[AGT],rm,6,rt,3
$[AGT],receive pmtk
$PMTK015,90098916,4,4211,PMTK710,15,000000,000000,000000,000000,0000E7,463138,00FFEF,BD850C,46F46C,385F04,BFCEE3,F6430B,C8A81A,12F1A1,0D7752,31387C,FF3FFD,9DCAED,004226,228289,18B7B5,1D8F82,FFA071,46F41C*13
#DEPH 21 1137828268 0 0 0 0 E7 463138 FFEF BD850C 46F46C 385F04 BFCEE3 F6430B C8A81A 12F1A1 D7752 31387C FF3FFD 9DCAED 4226 228289 18B7B5 1D8F82 FFA071 46F41C &15
$PMTK001,710,3*36
$[AGT],GSET=4
$[AGT],rm,6,rt,3
$[AGT],receive pmtk
$PMTK015,90098918,4,4211,PMTK710,16,000100,000000,000000,000000,0000DA,6B3138,00FFD2,354634,6B0490,393CB8,578EB5,03C403,E02385,13B4A1,18CD6B,31387C,005E28,1A334B,FFF525,98776C,1604AD,75CF41,FFA60C,6B1100*6B
#DEPH 22 1137828268 100 0 0 0 DA 6B3138 FFD2 354634 6B0490 393CB8 578EB5 3C403 E02385 13B4A1 18CD6B 31387C 5E28 1A334B FFF525 98776C 1604AD 75CF41 FFA60C 6B1100 &BF
$PMTK001,710,3*36
$[AGT],GSET=4
$[AGT],rm,6,rt,3
$[AGT],receive pmtk
$PMTK015,90098922,4,4221,PMTK710,18,000000,000000,000000,000000,000005,453138,00FFFB,FE8390,45FDBD,31BD54,C378C5,FE1802,222973,1647A1,0D23A7,31387C,FFE27D,B9367E,FFFE26,C109FB,15000E,2B98DF,FFA82D,45EC54*60
#DEPH 24 1137828268 0 0 0 0 5 453138 FFFB FE8390 45FDBD 31BD54 C378C5 FE1802 222973 1647A1 D23A7 31387C FFE27D B9367E FFFE26 C109FB 15000E 2B98DF FFA82D 45EC54 &3C
$PMTK001,710,3*36
$[AGT],GSET=4
$[AGT],rm,6,rt,3
$[AGT],receive pmtk
$PMTK015,90098923,4,4221,PMTK710,19,000000,000000,000000,000000,00000C,133137,00FFC7,F21D0C,130BD2,2DA705,570DF1,0A6002,91608D,10DFA1,0C8992,31377C,000EA9,43C2B9,001627,DEFB8E,1DA11C,398319,FFA8A7,130E5C*11
#DEPH 25 1137828268 0 0 0 0 C 133137 FFC7 F21D0C 130BD2 2DA705 570DF1 A6002 91608D 10DFA1 C8992 31377C EA9 43C2B9 1627 DEFB8E 1DA11C 398319 FFA8A7 130E5C &7E
$PMTK001,710,3*36
$[AGT],GSET=4
$[AGT],rm,6,rt,3
$[AGT],receive pmtk
$PMTK015,90098925,4,4221,PMTK710,1F,000000,000000,000000,000000,0000E3,483138,00FFF2,256958,48FF2B,2BB92C,301732,FF7404,45F9FB,1612A1,0D7AE2,31387C,005C7F,EA978E,002127,A4005C,1694ED,E50603,FFABA4,48F01C*1A
#DEPH 31 1137828268 0 0 0 0 E3 483138 FFF2 256958 48FF2B 2BB92C 301732 FF7404 45F9FB 1612A1 D7AE2 31387C 5C7F EA978E 2127 A4005C 1694ED E50603 FFABA4 48F01C &2B
$PMTK001,710,3*36
$[AGT],GSET=4
$[AGT],rm,6,rt,3
$[AGT],receive pmtk
$PMTK015,90098926,4,4221,PMTK711,01,59,412901,4E0E13,FD4E00,A10CDC,FECCB9,134ABF,066F64,01000C*49
$PMTK001,711,3*37
$[AGT],GSET=4
$[AGT],rm,6,rt,3
$[AGT],receive pmtk
$PMTK015,90098928,4,4221,PMTK711,02,59,427DA8,4E0032,FD3E00,A10D46,FD0D76,A7494D,1AF3CF,4E0014*31
$PMTK001,711,3*37
$[AGT],GSET=4
$[AGT],rm,6,rt,3
$[AGT],receive pmtk
$PMTK015,90098929,4,4221,PMTK711,03,59,430275,4E0AE0,FD5A00,A10DDA,2933E7,77E513,76F10E,FDFFF8*46
$PMTK001,711,3*37
$[AGT],GSET=4
$[AGT],rm,6,rt,3
$[AGT],receive pmtk
$PMTK015,90098931,4,4231,PMTK711,05,59,452594,4E027B,FD4C00,A10D5D,28C889,13C808,7E69B6,EC0024*3C
$PMTK001,711,3*37
$[AGT],GSET=4
$[AGT],rm,6,rt,3
$[AGT],receive pmtk
$PMTK015,90098932,4,4231,PMTK711,06,59,460222,4E0DF9,FD4E00,A10CA2,FE74A1,A47038,360CE2,11005C*3E
$PMTK001,711,3*37
$[AGT],GSET=4
$[AGT],rm,6,rt,3
$[AGT],receive pmtk
$PMTK015,90098934,4,4231,PMTK711,07,59,474A10,4E10A6,FD5500,A10D08,7F84FC,92C78A,EA01F4,3D001C*4C
$PMTK001,711,3*37
$[AGT],GSET=4
$[AGT],rm,6,rt,3
$[AGT],receive pmtk
$PMTK015,90098937,4,4231,PMTK711,08,59,480E86,4E0C96,FD3000,A10CAA,D3A319,C56C2F,8F3100,FD0004*4A
$PMTK001,711,3*37
$[AGT],GSET=4
$[AGT],rm,6,rt,3
$[AGT],receive pmtk
$PMTK015,90098940,4,4241,PMTK711,09,59,490506,4E0866,FD3600,A10CB2,539E2D,4CE73F,5D4C00,070054*4B
$PMTK001,711,3*37
$[AGT],GSET=4
$[AGT],rm,6,rt,3
$[AGT],receive pmtk
$PMTK015,90098942,4,4241,PMTK711,0A,59,4A08B7,4E0B0C,FD5900,A10D1C,29090E,885C2B,B168E1,06FFEC*36
$PMTK001,711,3*37
$[AGT],GSET=4
$[AGT],rm,6,rt,3
$[AGT],receive pmtk
$PMTK015,90098943,4,4241,PMTK711,0B,59,4B84EB,4EE186,FD0600,A10CA6,EFCBB0,3CFDDB,EED416,AD0010*3D
$PMTK001,711,3*37
$[AGT],GSET=4
$[AGT],rm,6,rt,3
$[AGT],receive pmtk
$PMTK015,90098945,4,4241,PMTK711,0C,59,4C2F3A,4E1F25,FD6A00,A10C02,AB3E4C,1A4346,DB4409,2F0038*48
$PMTK001,711,3*37
$[AGT],GSET=4
$[AGT],rm,6,rt,3
$[AGT],receive pmtk
$PMTK015,90098946,4,4241,PMTK711,0D,59,4D2637,4E1333,FD4400,A10D00,58766B,50F274,10DDEF,E8FFE8*42
$PMTK001,711,3*37
$[AGT],GSET=4
$[AGT],rm,6,rt,3
$[AGT],receive pmtk
$PMTK015,90098949,4,4241,PMTK711,0E,59,4E4402,4E0E4A,FD3E00,A10D40,56FC2D,B0955A,5B8B51,00FFFC*41
$PMTK001,711,3*37
$[AGT],GSET=4
$[AGT],rm,6,rt,3
$[AGT],receive pmtk
$PMTK015,90098950,4,4251,PMTK711,0F,59,4F41DE,4EF898,FD2100,A10DC4,5198BA,13586D,3AF5B6,D9000C*41
$PMTK001,711,3*37
$[AGT],GSET=4
$[AGT],rm,6,rt,3
$[AGT],receive pmtk
$PMTK015,90098951,4,4251,PMTK711,10,59,504549,4E1F7A,FD6900,A10D45,AC01F0,0CF60F,85D7DF,FA0024*31
$PMTK001,711,3*37
$[AGT],GSET=4
$[AGT],rm,6,rt,3
$[AGT],receive pmtk
$PMTK015,90098953,4,4251,PMTK711,11,59,5159CF,4E152B,FD3C00,A10C9E,D5B6A2,B031CC,5E2591,E5001C*40
$PMTK001,711,3*37
$[AGT],GSET=4
$[AGT],rm,6,rt,3
$[AGT],receive pmtk
$PMTK015,90098955,4,4251,PMTK711,12,59,528792,4EF48E,FD3E00,A10CD3,2807C0,B1ED25,9D75A5,3E0034*37
$PMTK001,711,3*37
$[AGT],GSET=4
$[AGT],rm,6,rt,3
$[AGT],receive pmtk
$PMTK015,90098957,4,4251,PMTK711,13,59,535C47,4E1348,FD3A00,A1191D,D7B686,1B80AD,EC64C9,BB0008*48
$PMTK001,711,3*37
$[AGT],GSET=4
$[AGT],rm,6,rt,3
$[AGT],receive pmtk
$PMTK015,90098958,4,4251,PMTK711,14,59,542889,4EF565,FD3F00,A10D12,25E97B,35DAE4,3FD018,330020*3D
$PMTK001,711,3*37
$[AGT],GSET=4
$[AGT],rm,6,rt,3
$[AGT],receive pmtk
$PMTK015,90098964,4,4261,PMTK711,15,59,55BCA5,4EFBBC,FD3900,A10D04,FD9364,B5243B,C14EED,BDFFF0*4C
$PMTK001,711,3*37
$[AGT],GSET=4
$[AGT],rm,6,rt,3
$[AGT],receive pmtk
$PMTK015,90098965,4,4261,PMTK711,16,59,563E14,4EF327,FD3A00,A11857,280FEF,AD7AA0,745493,35FFE8*4B
$PMTK001,711,3*37
$[AGT],GSET=4
$[AGT],rm,6,rt,3
$[AGT],receive pmtk
$PMTK015,90098966,4,4261,PMTK711,17,59,575587,4E0283,FD2E00,A10D60,53E084,95768F,2A6AD8,EBFFEC*4A
$PMTK001,711,3*37
$[AGT],GSET=4
$[AGT],rm,6,rt,3
$[AGT],receive pmtk
$PMTK015,90098969,4,4261,PMTK711,18,59,582239,4E05A0,FD4600,A10CAC,7DAF19,0E3171,1157C6,FE0010*46
$PMTK001,711,3*37
$[AGT],GSET=4
$[AGT],rm,6,rt,3
$[AGT],receive pmtk
$PMTK015,90098973,4,4271,PMTK711,19,59,592935,4E178D,FD6100,A10C32,A93A25,1C4000,C2090E,F2FFC0*4A
$PMTK001,711,3*37
$[AGT],GSET=4
$[AGT],rm,6,rt,3
$[AGT],receive pmtk
