$[AGT],GSET=0
$[AGT],rm,6,rt,4
$[AGT],SAP,Eidle
$[AGT],e=1,b=1,s=1,aosp=1
$[AGT],ipath,/data/misc/
$PMTK013,AgpsMachine,set,0,result,0*17
067909.547,HBD,IF1,BOT,UInitCf,1,0,0,16,100,0,255,2000,26000000,115200,1000,0,-2147483456,ffff6753,2

067909.547,HBD,IF1,BOT,MNLVer,_u1MTKChipID=1
067909.547,HBD,IF1,GPS,NVFile,Opened
067909.547,HBD,IF1,GPS,NVFile,g_BMAP_NVfile_Operation_load,0
067909.547,HBD,IF1,ALO,AlcInit,
067909.547,HBD,IF1,ALO,AlSCIni,
067909.547,HBD,IF1,ALO,PMCmod4,0
067909.547,HBD,IF1,ALO,EdInitD,
067909.547,HBD,IF1,ALO,PmcInit,
067909.547,HBD,IF1,ALO,VtCfgDb,20,20,4294967295
067909.547,HBD,IF1,BOT,InitCfg,1,115200,115200,26000000,255,0,0,0.000000,0.000000
067909.547,HBD,IF1,BOT,BotUrV2,BINFO(): x,-2147483456,y,ffff6753,
067909.547,HBD,IF1,BOT,BotUrV2,BINFO(): MT6753_ DSP
067909.547,HBD,IF1,BOT,BotUrV2,_BINFO(): B,-149904296,L,61448
067909.547,HBD,IF1,BOT,BotUrV2,RFG,3,0,3
067910.023,HBD,IF1,BOT,ClkType,255
$PMTK015,67910024,1,GPS_INIT_DONE*7A
067910.023,HBD,IF1,MSG,MNLInit,OK
$[AGT],GSET=0
$[AGT],rm,1,rt,11
$[AGT],inco
$[AGT],rm,0
$[AGT],remd == 0

#MZYQ.D@1C3&19

$PMTK010,001*2E

$PMTK010,002*2D
$PMTK013,INF,0,128,4,128*59
$PMTK015,67910027,4,67910020,PMTK764,0,0,0,2,0,128,4,128*34
$$PMTK764,0,0,0,2,0,128,4,128*15
067910.023,HBD,IF1,GPS,FrstDtt,00,00
$PMTK015,67910028,2,FIRST_DBTT*28
067910.031,HBD,IF1,GPS,TkDltIn,0,0,0

#MZYQ.@@1B3D5&64
$SELF_ATOW,0,1*4F
067910.031,HBD,IF1,TIM,HALTIME,0,
067910.031,HBD,IF1,TIM,HALTSTA,0,
067910.031,HBD,IF1,TIM,IdbtsDa,RTCstatusA,0,fgSysTimeOK,1,UseSystime,0,LoadRTCUpdateOK,RTC_age,21
067910.031,HBD,IF1,TIM,IdbtsDa,RTCstatusB,0,fgSysTimeOK,1,UseSystime,0
067910.031,HBD,IF1,TIM,DtsAcRT,PRTC,Load,Wn,1881,Tow,177763.994501355,RtcD,-12.026,
$IRTC,i2RtcTimeLastWn,1881,dfRtcTimeLastTow,177746.950256,*2B
$IRTC,i2RtcTimeLastWn,1881,dfRtcTimeLastTow,177763.951090,*25
$IRTC,dfDltTow1,15.918030,*2A
$IRTC,dfDltTow2,15.918221,*2B
$IRTC,i2GpsWn2,1881,dfGpsTow2,177779.912723,*26
067910.031,HBD,IF1,TIM,DtsAcRT,PRTC,Load,GWn,1881,GTow,177779.912722563,RWn,1881,RTow,177763.951089817,RtcD,-12.026,
$IRTC,dfDltTow,15.918221,HTTFF_163,0,_fgEnableAccIGPST,1*70

#MZYQ.D@1B3&18
067910.031,HBD,IF1,TIM,IdtsAcT,1,1881,177779.912000000,9,15.9,

#MZYQ.DD1B3&1C

#MZYQ.CB1D3&1B
$QEPO_Request*05
$[AGT],GSET=0
$[AGT],rm,1,rt,10
$[AGT],inco
$[AGT],rm,0
$[AGT],remd == 0

#MZYQ.DB1C3&1B
067910.031,HBD,IF1,TIM,NWloc,fgfirstUseNW,0,case,0,NWAID,0,NWUSE,0
$Boost, hotstart*5A
067910.031,HBD,IF1,AGP,BOOST,Posdiff:157625199099904.000000,0.000000,num:0,PosConverge,0,BoostRemT,20.000
$LOC_Cache_BIT,00000000*7F
$DBnm_NLP,[24.975739,121.327994,0,20.000000][2016/1/26,1:2:33][0][1]*3A
$cache_pos,-3007998.261785,4941839.564807,2676711.064507,[1137806564]*64
$Cache_age,15,NLP_age,-99,NV_age,15*3B
067910.031,HBD,IF1,AGP,AGPSMGN,Posdiff:157625199099904.000000,0.000000,num:0,PosConverge,0,AGPSRemT,16.000

#MZYQ.AA1D3&18
067910.031,HBD,IF1,GPS,EpoLoad,HOST_EPO,BAD_Load,ffffffff,316056,45

#MZYQ.AE1I3&21

#XPda.@@BC3&42
067910.031,HBD,IF1,GPS,FTModeC,FT_Mode,1,Send_Comd
067910.031,HBD,IF1,AGP,AGPSMGN,AGPSMode:-1,AGPSTimer:0.000
$PMTK015,67910031,10,21,AMode,-1,ATimer,0.000,Remain,16.000*60
$PMTK015,67910031,6,21,NACQ,0,NBS,0,NSFS,0,NEXS,0*6E
$HBD,INF,RTC,F,0,Y,16,M,1,D,26,H,1,M,22,Sec,42,Sub,28452,T,1,SM,7815*34
$DBts1,TSOK,0,WNSet,1,TOWS,9,WN,1881,BAcc,1183216.000,TAcc,1220038.000,*68
$DBts2,TTK,11,TOW,177779.922000000,B,-0.000245094,D,0.000001247,*22
067910.031,HBD,IF1,ALO,CdmPvtU,
$HBD,INF,RTC,F,0,Y,16,M,1,D,26,H,1,M,22,Sec,42,Sub,28452,T,1,SM,7815*34
$PMTK013,21,set epo bitmap,R:0,F:1 *1D
$GNGGA,012242.922,2458.5428,N,12119.6820,E,0,0,,162.8,M,15.0,M,,*5C
$GPGSA,A,1,,,,,,,,,,,,,99.99,99.99,1.00*01
$GLGSA,A,1,,,,,,,,,,,,,99.99,99.99,1.00*1D
$GPGSV,3,1,11,13,88,009,,193,66,050,,02,55,118,,15,49,235,*49
$GPGSV,3,2,11,05,48,026,,20,39,310,,29,38,288,,30,20,065,*7F
$GPGSV,3,3,11,06,13,129,,24,05,190,,07,03,041,*4D
$GLGSV,1,1,0*55
$GNRMC,012242.922,V,2458.5428,N,12119.6820,E,0.000,0.00,260116,,,N*52
$GNVTG,0.00,T,,M,0.000,N,0.000,K,N*2C
$GNACCURACY,39.7*2B
$PMTKDGP,0*4D
$PMTKDBG,11,0,1,0,0,0,0,0,0,0,1,0,0,0,0,0,0,0,0,1,1,1,1,1,0,0,0,0,1,0,0,0,0,0001,0014,0002,0000,0000,0022,0001,0000,0.0000,1.2470,0.0000,0.0000,0.0000,0.0000,*44
$PMTKDB2,0000,0000,0000,0000,0000,0000,0000,0100,1579.82,0000.00,12470.15,1220038.00,0000.00,-245.09,00-0.04,0000.00,*1B
$PMTKEPH,19,2,3,4,5,6,7,9,12,13,15,17,19,20,23,25,28,29,30,193*59
$PMTKALM,32,1,2,3,5,6,7,8,9,10,11,12,13,14,15,16,17,18,19,20,21,22,23,24,25,26,27,28,29,30,31,32,193*51

#WXM[.?0A2C4E6G8I:K<M>O@QBSDUFWHYJ[L]N_PaRcTeVgXiZk\m^o`qbsdufwhyj{l}npy&39

#NM^Z.BB1CD4F6G8I:K<M>&DD
#\XOU.AF1B3D5F7H9JKLM>O@QBSDUFWHYJ[L]^_`QbSdUfWhijk\m^o`qbstuvgxizk|m~oq&32
#\XOU.BG1B3D5F7H9JKLM>O@QBSDUFWHYJ[L]^_`QbSdUfWhijk\m^o`qbstuvgxizk|m~oq&34
#\XOU.CH1B3D5F7H9JKLM>O@QBSDUFWHYJ[L]^_`QbSdUfWhijk\m^o`qbstuvgxizk|m~oq&36

#NM`a.@A1C3D5F7H9J;L=NOPQRSTUFWHYJ&F1

#NMMN.@0>CLJI6KHRL;MN>PQYWT]EWWHYJdL^efghkamghWhY&0F
#KL_c.A0BEKHFGJ8FMMRR>PUQBXUWFXHYJc\]_O&37
#KL_c.D0BEKEKHM8FLRUR>PUQBXUWFXHYJc\]_O&47
#KL_c.E0BEJENHI8FNTPU>PUQBXUWFXHYJc\]aO&4A
#KL_c.F0BEILEOG8FMSMV>PUQBXUWFXHYJc\]aO&49
#KL_c.@C1CFLJOKK9GMLOT?QVRCYVXGYIZKd]^`P&6F
#KL_c.@E1CFLGGNJ9KKT=OTPAWTVEWGXIb[\^N&0A
#KL_c.A@1CFLEJOM9GQQT>PUQBXUWFXHYJc\]_O&41
#KL_c.AD1CFJNFGO9KNMT>PUQBXUWFWHYJc\]_O&3E
#KL_c.AI1CFKNOHN9GLOPR?QVRCYVXGYIZKd]^`P&7A
#KL_c.B@1CFKIFHI9GMRMU?QVRCYVXGYIZKd]^bP&65
#KL_c.@ID2DGGGKMK:HMPUO@RWSDZWYHZJ[Le^_aQ&9A
#KLbg.?0BC3EH6HQL:M<NS?UATSDW_G[YJaLdNadQ&55
#KLbg.@0BF3FEG7JIL;NMQ?RQVCVU[GZY`K^]eObajSfeoWjjj[nno_rrtcvvygzz~k&20

#NMO_.UVWXYZ[\7^_`abcde@ghijklmnIpqrstuvwRyz{|W~`e&3B

#NM`].@A1C3M5HKQPORM=OQQTT[TXFX_`J\de_OahijknoijYklotvovvxwdrzx|izk&D0
#NP\U.A0BCFKMFLOQL;`SSOPQBX[XllnIc`nq_cPrdefvmWqkkq^sxsvexg|{nu|ƳǤ̩ʵݼ&01
#NP\U.B0BCFKLOHIQL;`SSPPQBSDUFWHYJ^n_feuQxyxiV}|}}t]qpudxwkrx˹Ьɳѹ&11
#NP\U.C0BCFKMFLMRM;`SSOPQBSDUFWHYJ]c_fetQdkTwwiymZmsmoqauuw|{hou|Þɻӱʸ&16
#NP\U.D0BCFKMFLONR;`SSOPQBX[XllnIc`nq_cPrdefvmWqkkv^psvewh|ov}Ǵʥ˼ìӳ̷о&41
#NLXZ.@0AB3EMNH8MKMUMR?VTRhUUFml]c[\Mo``tviT{{zmqk[mprxsbx}zhzz{|n&12
#NLXZ.A0AB3EMNH8MLR`_R?VTRSVkFml\b[\Mo``ufdT{zgnil[}trqbtv~{i~|}p&7C
#NLXZ.B0AB3EMNH8MMKNTP?VTRdiXFml^k[\Mo``uvtTgoi{|r[suqxbzyzip&0B
#NLXZ.D0AB3EMNH8MOMQVQ?VTRU[jFml]n[\Mo``ugyTgnzimq[mpswbz~|i|}p&AD
#NLXZ.E0AB3EMNH8MPKNOT?VTRgj[Fml]c[\Mo``tkwT{{m|or[}qxswbvxz~{i{||}p&9D
067910.031,HBD,IF1,COM,WtDtCnt,3
$[AGT],GSET=0
$[AGT],rm,1,rt,7
$[AGT],fgFirstReq:1
$[AGT],bitmap,old:   0,new: 308
$[AGT],inco
$[AGT],srm,1,dsm,4,tp,7,length,12
$[AGT],tp,776,wn,1881,tw,177779,si,12
$[AGT],rm,2
$[AGT],state:7
$[AGT],wn:1881, tw:177779
$[AGT],ergt
$[AGT],
$[AGT],Esgt 1137715200
$[AGT],epegt
$[AGT],gfisiz()
$[AGT],egtEf,1140307200
$Rdon
$[AGT],res,1137806579,sst,1137715200,egsn,1140307200
$[AGT],wk,epo
$[AGT],s,1,m,1
$[AGT],idle
$@#$^ [AGNT] pEd
$[AGT],opmode GLO(1),GEL(0),DB(0)
$[AGT],tw,177779,gs,1137806579
$[AGT],eextd
$[AGT]start verify
$[AGT],gfisiz()
$[AGT]FileType:GPS+GLO
$[AGT],
$[AGT],epegt
$[AGT],gfisiz()
$[AGT],Extract epo done
$[AGT],GSET=0
$[AGT],rm,4,rt,8
$[AGT],inco
$[AGT],srm,4,dsm,4,tp,8,length,12
$[AGT],tp,776,wn,1881,tw,177779,si,12
$[AGT],rm,3
$[AGT],state:6
$[AGT],wn:1881,tw:177779
$[AGT],BGAI
$[AGT],0,av:67,b_sky:0
$[AGT],1,av:73,b_sky:0
$[AGT],2,av:119,b_sky:0
$[AGT],3,av:0,b_sky:0
$[AGT],4,av:73,b_sky:0
$[AGT],5,av:73,b_sky:0
$[AGT],6,av:73,b_sky:0
$[AGT],7,av:65,b_sky:0
$[AGT],8,av:73,b_sky:0
$[AGT],9,av:59,b_sky:0
$[AGT],10,av:67,b_sky:0
$[AGT],11,av:123,b_sky:0
$[AGT],12,av:73,b_sky:0
$[AGT],13,av:59,b_sky:0
$[AGT],14,av:123,b_sky:0
$[AGT],15,av:63,b_sky:0
$[AGT],16,av:71,b_sky:0
$[AGT],17,av:57,b_sky:0
$[AGT],18,av:69,b_sky:0
$[AGT],19,av:89,b_sky:0
$[AGT],20,av:61,b_sky:0
$[AGT],21,av:65,b_sky:0
$[AGT],22,av:69,b_sky:0
$[AGT],23,av:55,b_sky:1
$[AGT],24,av:123,b_sky:0
$[AGT],25,av:63,b_sky:0
$[AGT],26,av:63,b_sky:0
$[AGT],27,av:69,b_sky:0
$[AGT],28,av:121,b_sky:0
$[AGT],29,av:73,b_sky:0
$[AGT],30,av:61,b_sky:0
$[AGT],31,av:109,b_sky:1
$[AGT],Eend:1, Send:1, ct:2
$[AGT],wkbee
$[AGT],s,1,m,2
$[AGT],idle
$@#$^ [AGNT] sBi
067910.031,HBD,IF1,MSG,AidEPO,SV,1,ret,1
067910.031,HBD,IF1,MSG,AidEPO,SV,2,ret,1
067910.031,HBD,IF1,MSG,AidEPO,SV,3,ret,1
067910.031,HBD,IF1,MSG,AidEPO,SV,4,path_2NG,ValidEPO,1,u4CurrGpsSecs,1137806579,u4GpsSecs,1137801600,seq,45,NAseq,0,Age_Epo,16,Naage,0,NaValidGEPO,0
067910.031,HBD,IF1,MSG,AidEPO,SV,5,ret,1
067910.031,HBD,IF1,MSG,AidEPO,SV,6,ret,1
067910.031,HBD,IF1,MSG,AidEPO,SV,7,ret,1
067910.031,HBD,IF1,MSG,AidEPO,SV,8,ret,1
067910.031,HBD,IF1,MSG,AidEPO,SV,9,ret,1
067910.031,HBD,IF1,MSG,AidEPO,SV,10,ret,1
067910.031,HBD,IF1,MSG,AidEPO,SV,11,ret,1
067910.031,HBD,IF1,MSG,AidEPO,SV,12,ret,1
067910.031,HBD,IF1,MSG,AidEPO,SV,13,ret,1
067910.031,HBD,IF1,MSG,AidEPO,SV,14,ret,1
067910.031,HBD,IF1,MSG,AidEPO,SV,15,ret,1
067910.031,HBD,IF1,MSG,AidEPO,SV,16,ret,1
067910.031,HBD,IF1,MSG,AidEPO,SV,17,ret,1
067910.031,HBD,IF1,MSG,AidEPO,SV,18,ret,1
067910.031,HBD,IF1,MSG,AidEPO,SV,19,ret,1
067910.031,HBD,IF1,MSG,AidEPO,SV,20,ret,1
067910.031,HBD,IF1,MSG,AidEPO,SV,21,ret,1
067910.031,HBD,IF1,MSG,AidEPO,SV,22,ret,1
067910.031,HBD,IF1,MSG,AidEPO,SV,23,ret,1
067910.039,HBD,IF1,MSG,AidEPO,SV,24,ret,1
067910.039,HBD,IF1,MSG,AidEPO,SV,25,ret,1
067910.039,HBD,IF1,MSG,AidEPO,SV,26,ret,1
067910.039,HBD,IF1,MSG,AidEPO,SV,27,ret,1
067910.039,HBD,IF1,MSG,AidEPO,SV,28,ret,1
067910.039,HBD,IF1,MSG,AidEPO,SV,29,ret,1
067910.039,HBD,IF1,MSG,AidEPO,SV,30,ret,1
067910.039,HBD,IF1,MSG,AidEPO,SV,31,ret,1
067910.039,HBD,IF1,MSG,AidEPO,SV,32,path_2NG,ValidEPO,2,u4CurrGpsSecs,1137806579,u4GpsSecs,1137801600,seq,45,NAseq,0,Age_Epo,16,Naage,0,NaValidGEPO,0
067910.039,HBD,IF1,MSG,AidGLEP,SV,1,ret,1
067910.039,HBD,IF1,MSG,AidGLEP,SV,2,ret,1
067910.039,HBD,IF1,MSG,AidGLEP,SV,3,ret,1
067910.039,HBD,IF1,MSG,AidGLEP,SV,4,ret,1
067910.039,HBD,IF1,MSG,AidGLEP,SV,5,ret,1
067910.039,HBD,IF1,MSG,AidGLEP,SV,6,ret,1
067910.039,HBD,IF1,MSG,AidGLEP,SV,7,ret,1
067910.039,HBD,IF1,MSG,AidGLEP,SV,8,ret,1
067910.039,HBD,IF1,MSG,AidGLEP,SV,9,ret,1
067910.039,HBD,IF1,MSG,AidGLEP,SV,10,ret,1
067910.039,HBD,IF1,MSG,AidGLEP,SV,11,ret,1
067910.039,HBD,IF1,MSG,AidGLEP,SV,12,ret,1
067910.039,HBD,IF1,MSG,AidGLEP,SV,13,ret,1
067910.039,HBD,IF1,MSG,AidGLEP,SV,14,ret,1
067910.039,HBD,IF1,MSG,AidGLEP,SV,15,ret,1
067910.039,HBD,IF1,MSG,AidGLEP,SV,16,ret,1
067910.039,HBD,IF1,MSG,AidGLEP,SV,18,ret,1
067910.039,HBD,IF1,MSG,AidGLEP,SV,19,ret,1
067910.039,HBD,IF1,MSG,AidGLEP,SV,20,ret,1
067910.039,HBD,IF1,MSG,AidGLEP,SV,21,ret,1
067910.039,HBD,IF1,MSG,AidGLEP,SV,22,ret,1
067910.039,HBD,IF1,MSG,AidGLEP,SV,23,ret,1
067910.039,HBD,IF1,MSG,AidGLEP,SV,24,ret,1
067911.031,HBD,IF1,TIM,DSP,u1ChnNum,37,u2DataSize,57
067911.031,HBD,IF1,COM,BinDecX,65065
067911.031,HBD,IF1,TIM,DSP,u1ChnNum,48,u2DataSize,57
067911.031,HBD,IF1,COM,BinDecX,65065
067911.031,HBD,WRN,COM,DtNxtMM,1011,1012
067911.031,HBD,IF1,GPS,TkDltIn,11,11,0
067911.031,HBD,IF1,TIM,AcRCCEr,33,776,759,17,105,95
067911.031,HBD,IF1,TIM,NWloc,fgfirstUseNW,0,case,0,NWAID,0,NWUSE,0
067911.039,HBD,IF1,AGP,BOOST,Posdiff:542.919250,1.603622,num:0,PosConverge,0,BoostRemT,18.999
$MTK_GPS_BEST,5,1012,PR,6,TT4SV,1012*26
$LOC_Cache_BIT,00000000*7F
$DBnm_NLP,[24.975739,121.327994,0,20.000000][2016/1/26,1:2:33][0][1]*3A
$cache_pos,-3007998.261785,4941839.564807,2676711.064507,[1137806564]*64
$cache,3,5,1.366577*5F
$cache,4,15,1.299236*6A
$cache,6,20,1.888939*60
$cache,8,29,1.950073*64
$cache,10,13,1.817841*5F
$DO_Err,mean,1.664533,std,0.274814*79
$Cache_age,16,NLP_age,-99,NV_age,16*3B
067911.039,HBD,IF1,AGP,AGPSMGN,Posdiff:542.919250,1.603622,num:0,PosConverge,0,AGPSRemT,16.000

#MZYQ.AE1E3&1D

#XPda.A@BD3&44

#MZYQ.@B1JJH5G7ZPRQ<&E1

#MZYQ.AH1HG4&57
067911.039,HBD,IF1,AGP,AGPSMGN,AGPSMode:-1,AGPSTimer:0.000
$PMTK015,67911037,10,1012,AMode,-1,ATimer,0.000,Remain,16.000*66
067911.039,HBD,IF1,AGP,AGPSMGN,DOP.H :1.699498,PosCon:0,[83.466934,65.319832,4.997906]
$PMTK015,67911037,6,1012,NACQ,5,NBS,5,NSFS,0,NEXS,0*68
$HBD,INF,RTC,F,0,Y,16,M,1,D,26,H,1,M,22,Sec,43,Sub,28581,T,1005,SM,7019*0B
$DBts1,TSOK,0,WNSet,1,TOWS,5,WN,1881,BAcc,66.862,TAcc,9999000.000,*5C
$DBts2,TTK,1012,TOW,177780.847310486,B,-0.000261894,D,0.000001235,*27
067911.039,HBD,IF1,ALO,CdmPvtU,
$HBD,INF,RTC,F,0,Y,16,M,1,D,26,H,1,M,22,Sec,43,Sub,28581,T,1005,SM,7019*0B
$GNGGA,012243.847,2458.5329,N,12119.6734,E,1,6,1.70,162.8,M,15.0,M,,*4C
$GPGSA,A,3,193,05,15,20,29,13,,,,,,,1.96,1.70,0.99*3B
$GLGSA,A,3,,,,,,,,,,,,,1.96,1.70,0.99*16
$GPGSV,3,1,11,13,88,009,37.0,193,66,050,37.0,02,55,118,,15,49,235,37.0*53
$GPGSV,3,2,11,05,48,026,35.1,20,39,310,35.3,29,38,288,35.8,30,20,065,*6D
$GPGSV,3,3,11,06,13,129,,24,05,190,,07,03,041,*4D
$GLGSV,3,1,9,88,71,246,,65,40,008,,66,37,293,,87,33,174,*56
$GLGSV,3,2,9,75,18,098,,74,08,048,,76,07,148,,72,06,048,*54
$GLGSV,3,3,9,67,01,254,*6F
$GNRMC,012243.847,A,2458.5329,N,12119.6734,E,3.116,129.74,260116,,,A*49
$GNVTG,129.74,T,,M,3.116,N,5.773,K,A*29
$GNACCURACY,10.3*24
$PMTKDGP,0*4D
$PMTKDBG,1012,0,1,0,0,0,0,0,1,0,0,0,0,0,0,0,0,0,0,1,1,1,1,1,0,0,0,0,0,0,0,0,0,0028,0014,0002,0006,0006,0000,0001,0000,0.0000,1.2345,0.0000,0.0000,0.0000,0.0000,*4D
$PMTKDB2,0714,0000,0000,0000,0000,0000,0000,0000,0105.99,1231.15,12345.77,9999000.32,0001.39,-261.89,00-0.04,0000.00,*12
$PMTKEPH,43,2,3,4,5,6,7,9,12,13,15,17,19,20,23,-24.2.5,25,28,29,30,193,-65.2.5,-66.2.5,-67.2.5,-68.2.5,-69.2.5,-70.2.5,-71.2.5,-72.2.5,-73.2.5,-74.2.5,-75.2.5,-76.2.5,-77.2.5,-78.2.5,-79.2.5,-80.2.5,-82.2.5,-83.2.5,-84.2.5,-85.2.5,-86.2.5,-87.2.5,-88.2.5*5B
$PMTKALM,32,1,2,3,5,6,7,8,9,10,11,12,13,14,15,16,17,18,19,20,21,22,23,24,25,26,27,28,29,30,31,32,193*51

#WXM[.?0A2C4E6G8I:K<M>O@QBSDUFWHYJ[L]N_PaRcTeVgXiZk\m^o`qbsdufwhyj{l}npy&39
#NMQR.A0AC3D5FHMI^QOMP`QQR[TUVWiY_\\^d_vcccmz{}j}mp^qtuy|z´öǸϽҿ³ŶɹӼο&BE
#NMQR.A0AD3D5FHMI^QOMP`QQRUTUVWaac[`rffveccvhg{knnrrt^svqyuy|{zĳȽǺϼ¿³Ŷʹμο&F8
#NMQR.A0AE3D5FHMI^QOMP`QQfWjkVWj]nmrq`d`ecceewpkikrrm^puqrzuyxz}öϻſ³Ŷ̹μο&FB
#NMQR.A0AG3D5FHMI^QOMP`QQSiTUVW^l[^qpaf`eccekmmkmsntn^qtvuy|ɷǾϺνÿ³Ŷȹ̼ο&07
#NMQR.A0AH3D5FHMI^QOMP`QQUYTUVW[al`]^edvdccw{hxj~qmn^oqrt{}}·ȵ̿ÿ³Ŷȹ˼ο&53
#NMQR.A0AI3D5FHMI^QOMP`QQhVjkVW_Yoc_qefvwcclgzpj}|v^syqvvux|ŶҾ³Ŷȹ˼ο&68
#NMQR.A0AJ3D5FHMI^QOMP`QQhVjkVW_]]\rqecvtccflglkokrt^xqqrw}zƳǹ˻ſ³Ŷɹмο&E7
#NMQR.A0AK3D5FHMI^QOMP`QQVWTUVW_Ybc\ddpvwcczji|kp~mp^rqr{y|{ǻҿ³Ŷʹμο&CA
#NMQR.A0BB3D5FHMI^QOMP`QQhUjkVW^a`[\cru`ecchnx|ki~|mv^xqrzuzw~ƹýп³Ŷ˹ϼο&E9
#NMQR.A0BC3D5FHMI^QOMP`QQgijkVW\]bmmqcgvbccllnzlkj}ps^pyqzy{~|ĳĳȸϿ³Ŷ͹˼ο&CE
#NMQR.A0BD3D5FHMI^QOMP`QQSZTUVWXYkb^sdr`ucckhjij{plrn^wpqtuuzy}~ȾϺ³Ŷ̹мο&B7
#NMQR.A0BE3D5FHMI^QOMP`QQg\jkVW_a^cqetdvuccunl|kloq}v^oqt~~ĶǻǼſ³Ŷȹϼο&9D
#NMQR.A0BF3D5FHMI^QOMP`QQgfjkVWYaol\]rdvucczhwoknkn^xqvs||Ǻȼǻƿ³Ŷȹ˼ο&C1
#NMQR.A0BG3D5FHMI^QOMP`QQhSjkVW_]a`pfp`vwccxhzjk}|rm^sqv}|ŵǷǷп³Ŷɹмο&80
#NMQR.A0BH3D5FHMI^QOMP`QQSfTUVW^a[]rn^c`wccezizj{ov^qyqvs{u~Żϼ³Ŷȹμο&F1
#NMQR.A0BI3D5FHMI^QOMP`QQh\jkVW\Yndqbsqvscczkixkkp~}^uyqwwz{ļǺĿ³Ŷȹͼο&D4
#NMQR.A0BJ3D5FHMI^QOMP`QQTUTUVW_]ap_r_s`fccgjimkpqpqt^yqzv{uz}~Ǽʹǿ˻ο³ŶɹҼο&B7
#NMQR.A0BK3D5FHMI^QOMP`QQhhjkVW`Y]onoeqvrcclj{jkjp~n^vpqwx{{~³¹ƹǼƿ³Ŷɹ̼ο&B9
#NMQR.A0CB3D5FHMI^QOMP`QQSZTUVWZao`____`eccxmxmkqqqp^pqt}uyy|ŷƳǼϼ³Ŷɹ̼ο&A6
#NMQR.A0CC3D5FHMI^QOMP`QQgijkVWXYbbnq__vbccinozkkkr^xyq}xʺ¿ƿ³Ŷ͹˼ο&AE
#NMQR.A0CD3D5FHMI^QOMP`QQfUjkVW[a^m_bra`eccdykkkzo|~u^ttqutuyyz}|ùžǻϺνϿ³Ŷɹ̼ο&73
#NMQR.A0CE3D5FHMI^QOMP`QQgijkVWa]a]qobgvwccwgmgkzrk}^uqwöǸϽѿ³Ŷɹμο&A4
#NMQR.A0CF3I5FHMI^QOMP`QQhejkVW]ab_rrfevvccunfykl{q^xqtwwz}~ǿѿ³Ŷɹϼο&71
#NMQR.A0CG3D5FHMI^QOMP`QQeZjkVW]]\^r_fg`uccivkhj}lks^stqt|u}²ʽлӿ³Ŷʹμο&36
#NMQR.A0CH3D5FHMI^QOMP`QQYSjkVWmY]pq_cg`wcchl{|kj}km^ovqr{vuz³ɶǾüӿ³Ŷɹ̼ο&CA
#NMQR.A0CI3D5FHMI^QOMP`QQSiTUVWlYa[\ddbvtcczllykm~^uqsxy|ĵǹſ³Ŷȹ̼ο&1D
#NMQR.A0CJ3D5FHMI^QOMP`QQSZTUVWna^]`^oa`tcceil|jz~m^qqvuxy|~ò·ĵϼҿ³Ŷɹͼο&59
#NMQR.A0CK3D5FHMI^QOMP`QQR\TUVWYaboabscvrcci{kikjk~po^uwqrww{ĸĵƴǼÿÿ³Ŷ˹ͼο&87
#NMQR.A0DB3D5FHMI^QOMP`QQT[TUVWkYk^\ocg`acclinlkj~nv^tsqr}{úķϺҾ³Ŷȹ˼ο&7D
#NMQR.A0DC3D5FHMI^QOMP`QQhUjkVWnY`l^b`g`acclflxj}|m}m^oqvxzôǵҽ³Ŷȹ˼ο&8F
#NMQR.A0GG3D5FHMI^QOMP`QQRWTUVWiampqprp`cccdlixiimk}s^pxqrtux~{~ŷȺ¿¿óŶȹмӿ&6F
#NMQR.A0GH3D5FHMI^QOMP`QQSSTUVW[ala]cp_`cccij{oh}mqr~^qryuxw|µȼ̿ÿƳŶȹмӿ&08

#NM^Z.BB1CCEG6H8JLK<NNT@QBSD&08
#\XOU.?0H2DH5F7IK:SMOQ?PARCTE[GZI[\db`_PigiimlWhp\jptrwruxyzgyj|~otvz|&21
#\XOU.@0BKF4IF7H9PO<ROQcARCZ]VG^aZKaMafPbckigfWpistrv^rvcq}~|~|mpuz}&95
#\XOU.A0C2C4E6G8[KKL=N?PARCWEVGYZb`^]NggchcgU|ih~Zhnnqxwvrwtewzhl}~qsuw|~&16
#\XOU.B0F2FL5F7NM:PMO_?PAUWTEY[XI_K^]N`aigedUnnhjnn\rvwpaot|wy{zy}l~oty|&2A
#\XOU.C0BG3HE6G8ON;QNP`@QBXTUF\XYJ`L_fOabjhfeVooiptm]qwyzbz|}{j|}m{qvy}&39
#\XOU.D0H2DI5F7JK:SMOP?PARCTE[GYI[\db`_PigiimgWhrnp\jptpsywuwzgyjnsuy{&00
#\XOU.E0CB3GM6G8ON;QNP`@QBXVUF\ZYJ`L_fOabjhfeVonrjko]wqbpxwzxzlnrwz~&DF
#\XOU.F0DB3D5F7H9\LLM>O@QBSDXFWHZ[ca_^OhgdhdgVl{i}[inuoxvtvywfy{i|m~rtvx}&39
#\XOU.G0CK3GN6G8ON;QNP`@QBVVUFZZYJ`L_^OabjhfeVonqnnp]orrbp|{~|y|lnrwz~&E0
#\XOU.H0G2C4E6G8[KKL=N?PARCWEVGYZb`^]NgfafdeU{jhlZhoorqwssu|exxhz|||m~rtvx}&27
#\XOU.@@1CF4IF7H9PO<ROQcARC\]VG`aZKaMbePbckigfWppnorm^wyutcqvyyy}}}nqv{~&58
#\XOU.@E1DCF5GL8I:S<TNQRARCTEVG]I\K\Ma``ejfT{wxoYgnrvpuruywd}fx|k|}~pruw|~&66
#\XOU.AF1DCG5F7H9J;QMNO@QBSDUFZHYJ[L^`edhdSxjo{Xfmnqnspqqvc}evgxyz{l}nprwy|~&13
#\XOU.BG1H3D5F7H9\LLM>O@QBSDXFWHZ[ca_^OhfkldlV{|}j[ipqqrwyxvufyyizk|}~prtv{}&D6
#\XOU.CH1I3D5F7H9\LLM>O@QBSDXFWHZ[ca_^OhfhckkVpp|[iosorys||yfxizk|}~prtv{}&DF

#NM`a.@@BD3E5F7H9J;L=N?PQRSTUVWHYJ[L&53
#NLPT.F0D2&DA
#NLPT.@ID2DG5FGHL:OJQ>ONQRTDV_^[IZY^]N_^afgTndjoY&F4
#NLPT.A0B2&D3
#NLPT.D0BE3DEFJ8JJIQ=NMPUXCXUZ^HVZY]aN_^adcTndpoY&EE
#NLPT.@E1CF4EFGK9RIQ=NMPSUCW^][HYX[\M^]`abSmcjhX&BA
#NLPT.F0C2&D9
#NLPT.A@1CF4EFGK9LIQ=NMPSXCVUZ^HYX\\M^]`akSmcnlX&BB
#NLPT.B@1C3&04
#NLPT.AI1CF4EFGK9SIN=NMPS[CW^][HVZY\eN_^abgTflelpZ&30
#NLPT.E0B2&D7
#NLPT.@C1CF4EFGK9GKJS>ONQXSDV_^[IW[Z^`O`_bdiUoeknZ&15

#NMMN.@0>CLHI6JQRM;MMOQ@RS[YWVGYYJ[LbN`ghikdcnkoYj[&6A
#KL_c.A0HKIFGH7ELLOS=SP@VBTDUF_XY[K&7B
#KL_c.D0HKFKHK7EKQSN=SP@UBTDUF_XY[K&86
#KL_c.E0HJGDHF7EMSMN=SP@WBTDUF_XY]K&7D
#KL_c.F0HJCENN7ELRKL=SP@VBTDUF_XY]K&82
#KL_c.@C1ILLEKJ8FLKMQ>TQAVCUEVG`YZ\L&A7
#KL_c.@E1ILHGNJ8JLK<RO?UASCTE^WXZJ&4A
#KL_c.A@1ILFJOM8FPOT=SP@VBTDUF_XY[K&87
#KL_c.AD1IKEFGN8JMOL=SP@VSUDWFWHaZ[_M&DD
#KL_c.AI1ILFEHM8FKNNS>TQAVCUEVG`YZ\L&AD
#KL_c.B@1IKJFHH8FLPTT>TQAVCUEVG`YZ^L&B0
#KL_c.@ID2JGHKMJ9GLORT?URBWDVFWHaZ[]M&E2
#KL_c.A@J2FMLHNP9GNRSO?URBWDWFWHaZ[]M&EC
#KL_c.A@E2FMLFHP9GLPNV?URBWDWFWHaZ[]M&DD
#KL_c.AAD2FMFIGP9SR<RO?TATCTE^WX\J&50
#KL_c.AAE2FMGGGK9GOPUR?URBWDWFWHaZ[_M&DC
#KL_c.A@B2FMGJLL9GMOOO?URBWDWFWHaZ[_M&D5
#KL_c.A@I2FMIIOH9KQS=SP@UBUDUF_XY]K&85
#KL_c.A@H2FMGHMN9KMTT>TQAVCVEVG`YZ^L&B9
#KL_c.AAB2FMKKLH9GPUMR?URBWDWFWHaZ[]M&DF
#KL_c.AAA2FMNOOO9GMSPQ?URBWDWFWHaZ[]M&EC
#KLbg.?0CB3EH6III:LUP>Q@RWCYEXWaI\[L_gObafSffgWkiZmlu^u`srtdwv~h{{loqu&C0
#KLbg.@0C2EDG6IHL:&5E

#\Qpou/AI2FDJJ7KNS;N=Q?QXTCX[[YHZaK_fdbPdhhjUkkkpZprqr_pxswd~i}nsx}&8C
#NP\U.E0BCFKMFLQOL;`SSOPQBX[XllnIc`nq_cPrdefvmWqkklv^psuey}hz{ov}ȴϫĽʲ̶ӽ&9F
#NP\U.F0BCFKMFLQQP;`SSPPQBXjXllnIc`nq_cPrdefvmWqkku^rysve|j~qxơʷ˨ҭǿɴѻ &8D
#NP\U.H0BCFKMFIHPO;`SRPPQBSDUFWHYJca_ob`QfgTlnooiZsqxau{u}|h|ov}ŵѮĵ޼&7E
#NP\U.@B1CDGLNGLQOT<aTSPQRCTEVGXIZKab`qvcRdkUh}yp{k\rsozcvv}jqw~ķ̫Ҳѹ&86
#NLXZ.F0AB3EMNH8MQO]NN?VTSSeUFml]o[\Mo``ubgTl|n|}p[uoxb}w{i}|}p&B5
#NLXZ.G0AB3EMNH8MRKaUb?VTRf]\Fml\a[\Mo``tswTyipzrm[rvrvb{yi|}~p&E2
#NLXZ.H0AB3EMNH8MSKQM_?VTR[Z[Fml\c[\Mo``ttiTjipn{p[ptqbx~i{|o&66
#NLXZ.@@1BC4FNOI9N\LU`e@WUSfUlGnm_l\]NpaavdxUhphjk\uvvxzcu}jp&DE
#NLXZ.@A1BC4FNOI9N]TQc`@WUhU]ZGnmZ_\]NpaautfU{}{ls~\porwwcvwxjq&35
#NLXZ.@B1BC4FNOI9N^NcRV@WUTjW]Gnm`m\]NpaauceUwykpo\nsyc}{x|j}}~q&E8
$[AGT],GSET=1
$[AGT],rm,1,rt,1
$[AGT],fsm,wm,2
$[AGT],rv PMTKRQTEPH,1881,177780,2,24,32
$[AGT],GSET=1
$[AGT],rm,1,rt,7
$[AGT],fgFirstReq:0
$[AGT],bitmap,old: 308,new: 108
$[AGT],skip re_agps_req
$[AGT],GSET=1
$[AGT],rm,4,rt,9
$[AGT],inco
$[AGT],sel SI
$[AGT],rm,4
$[AGT],state:4
$[AGT],state:4
$[AGT],wkssi
$[AGT],s,1,m,3
$[AGT],idle
$[AGT],send aosp AGPS req
067911.047,HBD,IF1,BOT,MNLVer,AXN_3.70,1312,MNL_VER_15091601ALPS05_3.70_03,39,76
067912.031,HBD,IF1,TIM,DSP,u1ChnNum,37,u2DataSize,57
067912.031,HBD,IF1,COM,BinDecX,65065
067912.031,HBD,IF1,TIM,DSP,u1ChnNum,48,u2DataSize,57
067912.031,HBD,IF1,COM,BinDecX,65065
067912.031,HBD,IF1,GPS,TkDltIn,1012,1018,6
067912.031,HBD,IF1,TIM,NWloc,fgfirstUseNW,0,case,0,NWAID,0,NWUSE,0
067912.031,HBD,IF1,AGP,BOOST,Posdiff:6.191299,1.271214,num:0,PosConverge,0,BoostRemT,17.999
$LOC_Cache_BIT,00000000*7F
067912.031,HBD,IF1,AGP,AGPSMGN,Posdiff:6.191299,1.271214,num:0,PosConverge,0,AGPSRemT,16.000

#MZYQ.AE1B3&1A

#XPda.B@BD3&45

#MZYQ.@B1UHG5H7^O\\<&02

#MZYQ.AH1HG4&57
067912.039,HBD,IF1,AGP,AGPSMGN,AGPSMode:-1,AGPSTimer:0.000
$PMTK015,67912037,10,2012,AMode,-1,ATimer,0.000,Remain,16.000*66
067912.039,HBD,IF1,AGP,AGPSMGN,DOP.H :1.700214,PosCon:0,[50.501404,36.693607,4.923100]
$PMTK015,67912037,6,2012,NACQ,5,NBS,5,NSFS,0,NEXS,0*68
$HBD,INF,RTC,F,0,Y,16,M,1,D,26,H,1,M,22,Sec,44,Sub,28582,T,2005,SM,7754*02
$DBts1,TSOK,0,WNSet,1,TOWS,5,WN,1881,BAcc,51.490,TAcc,9999000.000,*59
$DBts2,TTK,2012,TOW,177781.856000000,B,-0.000260649,D,0.000001235,*22
067912.039,HBD,IF1,ALO,CdmPvtU,
$HBD,INF,RTC,F,0,Y,16,M,1,D,26,H,1,M,22,Sec,44,Sub,28582,T,2005,SM,7754*02
$GNGGA,012244.856,2458.5343,N,12119.6736,E,1,6,1.70,162.7,M,15.0,M,,*4A
$GPGSA,A,3,193,05,15,20,29,13,,,,,,,1.97,1.70,0.99*3A
$GLGSA,A,3,,,,,,,,,,,,,1.97,1.70,0.99*17
$GPGSV,3,1,11,13,88,009,37.6,193,66,050,37.0,02,55,118,,15,49,235,36.2*56
$GPGSV,3,2,11,05,48,026,35.3,20,39,310,36.0,29,38,288,36.0,30,20,065,*64
$GPGSV,3,3,11,06,13,129,,24,05,190,,07,03,041,*4D
$GLGSV,3,1,9,88,71,246,,65,40,008,,66,37,293,,87,33,174,*56
$GLGSV,3,2,9,75,18,098,,74,08,048,,76,07,148,,72,06,048,*54
$GLGSV,3,3,9,67,01,254,*6F
$GNRMC,012244.856,A,2458.5343,N,12119.6736,E,2.470,136.27,260116,,,A*4C
$GNVTG,136.27,T,,M,2.470,N,4.576,K,A*23
$GNACCURACY,7.9*18
$PMTKDGP,0*4D
$PMTKDBG,2012,0,1,0,1,0,0,0,1,0,0,0,0,0,0,0,0,0,0,1,1,1,1,1,0,0,0,0,0,0,0,0,0,0028,0014,0002,0006,0006,0000,0001,0000,0.0000,1.2354,0.0000,0.0000,0.0000,0.0000,*4F
$PMTKDB2,0714,0000,0000,0000,0000,0000,0000,0700,0062.42,0000.00,12354.07,9999000.32,0000.96,-260.65,00-0.04,0000.00,*16
$PMTKEPH,44,2,3,4,5,6,7,9,12,13,15,17,19,20,23,-24.2.5,25,28,29,30,-32.0.1,193,-65.2.5,-66.2.5,-67.2.5,-68.2.5,-69.2.5,-70.2.5,-71.2.5,-72.2.5,-73.2.5,-74.2.5,-75.2.5,-76.2.5,-77.2.5,-78.2.5,-79.2.5,-80.2.5,-82.2.5,-83.2.5,-84.2.5,-85.2.5,-86.2.5,-87.2.5,-88.2.5*5D
$PMTKALM,31,1,2,3,5,6,7,8,9,10,11,12,13,14,15,16,17,18,19,20,21,22,23,24,25,26,27,28,29,30,31,193*7F

#WXM[.?0A2C4E6G8I:K<M>O@QBSDUFWHYJ[L]N_PaRcTeVgXiZk\m^o`qbsdufwhyj{l}npy&39
#NMQR.A0DD3E5FGLI^QRTPaPQYWTUVW_Y^]\p^_`abcvefghi~rq~^sqwstuvzñȹ³Ŷȹ˼ο&53
#NMQR.A0GI3D5FHMI^QOMP`QQR\TUVWnlpd\ds``cccgemnh~{|m^uqruux|~{{¸ºȼνƿǳŶɹмӿ&94
#NMQR.A0GJ3D5FHMI^QOMP`QQRhTUVWl]^b]a^f`dccekjghrlo^qwqruuyy}}ƱɷȻϿνοȳŶȹмӿ&45
#NMQR.A0GK3D5FHMI^QOMP`QQhYjkVWXl[m\]gu`cccjkzhiismn^yqrzyuxyŴȺýĿóŶɹмӿ&62
#NMQR.A0HB3D5FHMI^QOMP`QQRXTUVW^Yn\\ndd`cccewikiikl~~^qryux{~ƴȺν¿ƳŶɹмӿ&AC
#NMQR.A0HC3D5FHMI^QOMP`QQhhjkVWnl^\rscf`cccu{okh~p~q^tqrxux{ĹȻνÿǳŶɹмӿ&A1
#NMQR.A0HD3D5FHMI^QOMP`QQRSTUVWiYa_rprt`ccckiw}h~npur^pvqrtwuyz{ǵȻοÿȳŶɹмӿ&98
#NMQR.A0HE3D5FHMI^QOMP`QQR\TUVWka^m\`er`fccenolhrko^qqssu{{z~ŸȾлƿĳŶȹмӿ&97
#NMQR.A0HF3D5FHMI^QOMP`QQRZTUVW]lmb\]_r`gccmjjohooolu^svqrzu{yy~|´²ĺϿɳŶȹмӿ&F0
#NMQR.A0HG3D5FHMI^QOMP`QQRYTUVW_lpa\_eg`fccyknihq}or^wwqrwuz}zðöƹȿϾϿ³Ŷȹмӿ&E3
#NMQR.A0HH3D5FHMI^QOMP`QQReTUVWna`d\adp`fcch{iyhzpps^sqsuz}|ŷȾϼпóŶȹмӿ&C7
#NMQR.A0HI3D5FHMI^QOMP`QQhgjkVWmaa`\^as`fccjlx}hqs~t^pqrvuz{úĵȿϿϿĳŶȹмӿ&ED
#NMQR.A0HJ3D5FHMI^QOMP`QQTeTUVWjln_^`op`fccehgohp~mr^qruz}zîǻοɳŶȹмӿ&22
#NMQR.A0HK3D5FHMI^QOMP`QQRYTUVW_Y\d\e_c`gccjzyihopou^xqsswu{||z}ƵͿϿ³Ŷȹмӿ&E8
#NMQR.A0IB3D5FHMI^QOMP`QQRdTUVWjlno\`ph`fccxvjhhz|n~^xuqsvu{{|{ƺȽϽοóŶȹмӿ&03
#NMQR.A0ID3D5FHMI^QOMP`QQRiTUVWZY_[\oguvhccfhkyh}plv^upqrw~w|}~´ȴȹϿѿųŶʹмӿ&ED
#NMQR.A0IE3D5FHMI^QOMP`QQh[jkVW_lmcqpbuvhccgnzmh|~o~m^wqrw~{{z|ŸȹϿųŶ˹мӿ&31
#NMQR.A0IF3D5FHMI^QOMP`QQhSjkVW\akcq`cevhccxynzh|}tlv^qyqrw}|}źƼȹϺϿĳŶ˹мӿ&1C
#NMQR.A0IG3D5FHMI^QOMP`QQRhTUVW_a_`\cppvhccfiiph}~trt^vqrt~xzöǴȹϽпƳŶȹмӿ&99
#NMQR.A0IH3D5FHMI^QOMP`QQReTUVWXlna]e`eviccmjooh|lsp^pqsy~||·ȹÿҿųŶʹмӿ&C4
#NMQR.A0II3D5FHMI^QOMP`QQffjkVWYY^drc_rviccfm{}h|jsp^tqrtz{ĴñƹȹпųŶʹмӿ&46
#NMQR.A0IJ3D5FHMI^QOMP`QQhgjkVW\lbnqrofvhccexokh|spmo^sqruw~úȹϿϿĳŶ̹мӿ&B3

#NM^Z.BB1DCEG6H8JKT<NNT@QBSD&11
#\XOU.?0G2EH5F7JQ:TMOP?PARCTE[GYI[\db``PdfllioWplms\jqqwxuy|zxgz{j~|~~otw{}&18
#\XOU.@0BKF4IF7H9PO<ROQcARCU[^WHZ`c\McOeaRdemkiiYltuqwp`u}es~~orw|&B6
#\XOU.A0C2C4E6G8[KKL=N?PARCWEVGYZb`^^NaheidfU|k~jZhnnpvyvu|vewhl}~qsuw|~&27
#\XOU.B0F2FL5F7NM:PMOa?PASVXUFX[]ZKaMc_PbckiggWknsqrq^wtcqv~y{~nqv{~&18
#\XOU.C0BG3GN6G8ON;QNPb@QBV\UFZ`YJ`Lb^OabjhffVjnillp]rtbz|x~|j|~m{rwz~&10
#\XOU.D0G2C4E6G8[KKL=N?PARCWEVGYZb`^^NagcgdmU{nj}Zhooptvys|vex}hyj{|}~oqsuz|&99
#\XOU.E0CB3GN6G8ON;QNPb@QBTYWVGY^\[LbNd`QcdljhhXlosqot_svsdrzyznqv{~&74
#\XOU.F0DB3D5F7H9\LLM>O@QBSDXFWHZ[ca__ObhfiegVl~mq[intxuusywwfyi|m~rtvx}&3D
#\XOU.G0CK3GN6G8ON;QNPb@QBTWWVGY\\[LbNd`QcdljhhXlorurt_tq|dr~}~nqv{~&97
#\XOU.@@1CF4IG7H9PO<ROQcARCU]^WHZbc\McOeaRdemkiiYmqovvq`tyzesx{z~psx}&33
#\XOU.@E1DDD5HH8I:NN=WPPQBSDUFWH^J[L^cffeRfmnoolY|spt^lqx{t|z}i{~lpuwy{&4C
#\XOU.@F1DDD5GN8I:NN=WPPQBSDUFWH^J[L^cffeRfmnoomYluq^lqx{tzx|zi{~l~qvxz|&76
#\XOU.@G1DCM5HI8I:NN=WPPQBSDUFWH^J[L^cffeRfmlhnjY|ov^lru{s|z~}i{}lqvxz|&64
#\XOU.@H1DCH5HH8I:NN=WPPQBSDUFWH^J[L^cffeRfmlfhnYm}r^lxtywt|xhz|kotvxz&FA
#\XOU.@I1DDE5GO8I:NN=WPPQBSDUFWH^J[L^cffeRfmkkknY}pn^lsyx{|}}|i{|lqvxz|&7C
#\XOU.A@1DCL5HJ8I:NN=WPPQBSDUFWH^J[L^cffeRfmiinnYrltv^pxr{w|vfxziw|m~rtvx}&83
#\XOU.AA1DCE5GP8I:NN=WPPQBSDUFWH^J[L^cffeRfmgjllYnnss^lqvttx{}yi{~l~qvxz|&4F
#\XOU.AB1DCK5HI8I:NN=WPPQBSDUFWH^J[L^cffeRfmghmjY}~q^xstyu}|vgy|jxotvxz&06
#\XOU.AC1DDH5HJ8I:NN=WPPQBSDUFWH^J[L^cffeRfmgfpoYjtq~^lsqusv|y~xi{}l~qvxz|&37
#\XOU.AD1DDG5GP8I:NN=WPPQBSDUFWH^J[L^cffeRfmfiglYrpm^usqy|zwfxyiwm~rtvx}&8C
#\XOU.AE1DCM5GK8I:LT=VPRSBSDUFWH^J\L^cffeRfmlhnpYqt^lruz|}~||xi{l~qvx{}&D6
#\XOU.AF1DCG5F7H9J;QMNO@QBSDUFZHYJ[L^dfcfdSwnniXjlounouqwbtvevgxyz{l}nprwy|~&0A
#\XOU.BG1DG4E6G8I:]LMN?PARCTEYGXI[\db``PdfiigfWzi{q\utrqq{tvew~hyj{|}~oqsuz|&89
#\XOU.CH1I3D5F7H9\LLM>O@QBSDXFWHZ[ca__OceghmlVh|lp[iosorys||yfxizk|}~prtv{}&C6

#NM`a.A@BD3E5F7H9J;L=N?PQRSTUVWHYJ[L&54
#NLPT.E0C2&D8
#NLPT.@ID2DG5FGHL:LJM>ONQTZD^__HVZY\dN_^adjTidjmY&F7
#NLPT.A0B2&D3
#NLPT.D0BE3DEFJ8IHM<MLOSXBTT\XGUYX]^M^]ahcShcnhX&AF
#NLPT.@E1CF4EFGK9QIM=NMQQ[CW^][HVZY\`N_^ajcTndjmY&F5
#NLPT.E0D2&D9
#NLPT.A@1CF4EFGK9GKJQ>ONQWYD^_`HYXadM^]bjgShcilX&D0
#NLPT.B@1C3&04
#NLPT.AI1CF4EFGK9MIL=NMPYRC]^_GXW`_L]\`ifRgbhkW&A3
#NLPT.@C1CF4EFGK9GRJU>ONS[ZD^__HYX]eM^]`heShcilX&DA
#NLPT.AAA2E4&35
#NLPT.AAA2F4&36
#NLPT.A@J2E4&3D
#NLPT.A@E2E4&38
#NLPT.AAB2E4&36
#NLPT.A@I2E4&3C
#NLPT.A@B2E4&35
#NLPT.A@H2E4&3B
#NLPT.AAE2E4&39
#NLPT.AAD2E4&38
#NLPT.A@J2F4&3E

#NMMN.@0>CLHK6JQQN;NMOQ@RS[YWWGYYJ[LbN`ghikecnlnYj[&6F
#KL_c.A0CKFJEO7ELLOU=RQ@UBTDUF_XY[K&7D
#KL_c.D0CKDEGI7EKQSN=RQ@UBTDUF_XY[K&76
#KL_c.E0CJDHFL7EMSMQ=RQ@VBTDUF_XY]K&7F
#KL_c.F0CIJIMK7ELRKN=RQ@VBTDUF_XY]K&85
#KL_c.@C1DLIIJH8FLKMQ>SRAVCUEVG`YZ\L&A0
#KL_c.@E1DLEKMJ8JLL<QP?UASCTE^WXZJ&46
#KL_c.A@1DKMNNL8FPOS=RQ@UBTDUF_XY[K&88
#KL_c.AD1DJLJFN8JMNU=RQ@VSUDWFWHaZ[_M&E9
#KL_c.AI1DKMIGL8FKNNR>SRAVCUEVG`YZ\L&AF
#KL_c.B@1DKGJFO8FLPTV>SRAVCUEVG`YZ^L&B3
#KL_c.@ID2EGEOLH9GLORT?TSBWDVFWHaZ[]M&DB
#KL_c.A@J2GDFMHO9GNRSN?TSBWDWFWHaZ[]M&DB
#KL_c.A@E2GDFJLP9GLPNU?TSBWDWFWHaZ[]M&D6
#KL_c.AAD2FMJMKQ9SR<QP?TATCTE^WX\J&5D
#KL_c.AAE2FMKKKI9GOPUT?TSBWDWFWHaZ[_M&E8
#KL_c.A@B2FMKNPK9GMOOR?TSBWDWFWHaZ[_M&E3
#KL_c.A@I2FMMNIH9KQP=RQ@UBUDUF_XY]K&85
#KL_c.A@H2FMKMGO9KMTQ>SRAVCVEVG`YZ^L&BA
#KL_c.AAB2GDEOOP9GPUMS?TSBWDWFWHaZ[]M&E1
#KL_c.AAA2GDIJIN9GMSPQ?TSBWDWFWHaZ[]M&D3
#KLbg.?0CB3EH6III:LUP>Q@RWCYEXWaI\[L_gObafSffgWkiZmlu^u`srtdwv~h{{loqu&C0
#KLbg.@0C2EDG6IHL:&5E

#\Qpou/AE2FFNH7MIN;T=O?RYXCX\X_H\]K^__fPceehUljhlZqmsn_pxswd~i}nsx}&69
#NP\U.@C1CDGLNGMPRM<aTTPQRCY\YmmoJdaor`dQsefgwnXrllv_qxtvfkryʶƯضӽ&98
#NP\U.@E1CDGLNGMPOM<aTTPQRCY\YmmoJdaor`dQsefgwnXrllw_uutwfzkryġʷ̨״͹&06
#NP\U.@G1CDGLNGIPMR<aTTPQRCTEVGXIZK^_`pcaRyz{oW}n~tpm^qrv{eyy{lszűĽĵ&5F
#NP\U.@I1CDGLNGJIQP<aTTPQRCTEVGXIZK]p`pcaRyz{{Wz{mtm^pz|eyxlszƣ˿Ʊٸ&46
#NLXZ.@C1BC4FNOI9N_NSQT@WUTWXXGnm^b\]NpaavciUkonk\rnycuuwzjq&D8
#NLXZ.@D1BC4FNOI9N`PPdd@WUSiYgGnm^\\]NpaavgjUkm~m}\nxwwycyzjo&CB
#NLXZ.@E1BC4FNOI9NaPNcU@WUi\^gGnm\a\]NpaavvvUkhqi\nqtuzcww~~jq&2E
#NLXZ.@F1BC4FNOI9OKPRSU@WUTj\iGnm`m\]NpaavgkUwy~{jl\b{x}i|}p&F7
#NLXZ.@G1BC4FNOI9OLQVbU@WUTYWjGnm^]\]NpaauteUzlynk\nruycy{y|j}~q&C1
#NLXZ.@H1BC4FNOI9OMTTWd@WUiX^YGnm]q\]NpaauwhUhohins\ouyc}y}j~}~q&E2
$[AGT],GSET=1
$[AGT],rm,1,rt,7
$[AGT],fgFirstReq:0
$[AGT],bitmap,old: 108,new: 108
$[AGT],fsm,wm,3
$[AGT],skip
067913.031,HBD,IF1,TIM,DSP,u1ChnNum,37,u2DataSize,57
067913.039,HBD,IF1,COM,BinDecX,65065
067913.039,HBD,IF1,TIM,DSP,u1ChnNum,48,u2DataSize,57
067913.039,HBD,IF1,COM,BinDecX,65065
067913.039,HBD,IF1,GPS,TkDltIn,2012,2018,6
$QEPO_Request*05
067913.039,HBD,IF1,TIM,NWloc,fgfirstUseNW,0,case,0,NWAID,0,NWUSE,0
067913.039,HBD,IF1,AGP,BOOST,Posdiff:3.874109,0.584594,num:6,PosConverge,1,BoostRemT,16.999
$Boost, flag on*64
$LOC_Cache_BIT,00000000*7F
067913.039,HBD,IF1,AGP,AGPSMGN,Posdiff:3.874109,0.584594,num:0,PosConverge,0,AGPSRemT,16.000

#XPda.C@BD3&46

#MZYQ.@B1CCF[6I8_Qa_=&37

#MZYQ.AH1HG4&57
067913.039,HBD,IF1,AGP,AGPSMGN,AGPSMode:-1,AGPSTimer:0.000
$PMTK015,67913037,10,3012,AMode,-1,ATimer,0.000,Remain,16.000*66
067913.039,HBD,IF1,AGP,AGPSMGN,DOP.H :1.699857,PosCon:0,[34.452072,26.559826,4.919306]
$PMTK015,67913038,6,3012,NACQ,5,NBS,5,NSFS,0,NEXS,0*67
$HBD,INF,RTC,F,0,Y,16,M,1,D,26,H,1,M,22,Sec,45,Sub,28595,T,3005,SM,14482*3E
$DBts1,TSOK,0,WNSet,1,TOWS,6,WN,1881,BAcc,42.068,TAcc,9999000.000,*5B
$DBts2,TTK,3012,TOW,177782.868000000,B,-0.000259406,D,0.000001235,*2E
067913.039,HBD,IF1,ALO,CdmPvtU,
$HBD,INF,RTC,F,0,Y,16,M,1,D,26,H,1,M,22,Sec,45,Sub,28595,T,3005,SM,14482*3E
$GNGGA,012245.868,2458.5353,N,12119.6738,E,1,6,1.70,162.7,M,15.0,M,,*49
$GPGSA,A,3,193,05,15,20,29,13,,,,,,,1.97,1.70,0.99*3A
$GLGSA,A,3,,,,,,,,,,,,,1.97,1.70,0.99*17
$GPGSV,3,1,11,13,88,009,37.8,193,66,050,38.0,02,55,118,,15,49,235,37.1*55
$GPGSV,3,2,11,05,48,026,36.4,20,39,310,35.7,29,38,288,36.2,30,20,065,*66
$GPGSV,3,3,11,06,13,129,,24,05,190,,07,03,041,*4D
$GLGSV,3,1,9,88,71,246,,65,40,008,,66,37,293,,87,33,174,*56
$GLGSV,3,2,9,75,18,098,,74,08,048,,76,07,148,,72,06,048,*54
$GLGSV,3,3,9,67,01,254,*6F
$GNRMC,012245.868,A,2458.5353,N,12119.6738,E,1.136,134.06,260116,,,A*4A
$GNVTG,134.06,T,,M,1.136,N,2.105,K,A*20
$GNACCURACY,6.5*15
$[AGT],GSET=2
$[AGT],rm,1,rt,10
$[AGT],set Qepo req
$[AGT],TSETe=2
$[AGT],inco
$[AGT],rm,0
$[AGT],remd == 0
$PMTKDGP,0*4D
$PMTKDBG,3012,0,1,0,1,0,0,0,1,0,0,0,0,0,0,0,0,0,0,1,1,1,1,1,0,0,0,0,0,0,0,0,1,0028,0035,0002,0006,0006,0000,0001,0000,0.0000,1.2354,0.0000,0.0000,0.0000,0.0000,*4C
$PMTKDB2,0714,0000,0000,0000,0000,0000,0000,0700,0043.50,0000.00,12354.61,9999000.32,0000.29,-259.41,00-0.04,0000.00,*1E
$PMTKEPH,44,2,3,4,5,6,7,9,12,13,15,17,19,20,23,-24.2.5,25,28,29,30,-32.0.1,193,-65.2.5,-66.2.5,-67.2.5,-68.2.5,-69.2.5,-70.2.5,-71.2.5,-72.2.5,-73.2.5,-74.2.5,-75.2.5,-76.2.5,-77.2.5,-78.2.5,-79.2.5,-80.2.5,-82.2.5,-83.2.5,-84.2.5,-85.2.5,-86.2.5,-87.2.5,-88.2.5*5D
$PMTKALM,31,1,2,3,5,6,7,8,9,10,11,12,13,14,15,16,17,18,19,20,21,22,23,24,25,26,27,28,29,30,31,193*7F

#WXM[.?0A2C4E6G8I:K<M>O@QBSDUFWHYJ[L]N_PaRcTeVgXiZk\m^o`qbsdufwhyj{l}npy&39

#NM^Z.BB1ECEG6H8JKL<NNT@QBSD&0A
#\XOU.@0BKF4IG7H9PO<ROQcARCV[ZWH[`_\McOdiRdemkiiYknnorxpa|ft}psx}&3C
#\XOU.A0C2C4E6G8[KKL=N?PARCWEVGYZb`^^N`caijeeV{qjs[iooqwzwv}wfxim~rtvx}&48
#\XOU.B0F2GD5F7NM:PMOa?PATVTUFY[YZKaMbgPbckiggWilrmrsp_vrxdrwzyz~~orw|&92
#\XOU.C0BG3HE6G8ON;QNPb@QBTWYVGY\^[LbNchQcdljhhXjmsooos`wuwe~w~{}mp~uz}&EA
#\XOU.D0G2C4E6G8[KKL=N?PARCWEVGYZb`^^N`bjghekVymim[ippquwzt}wfy~izk|}~prtv{}&B4
#\XOU.E0CB3GN6G8ON;QNPb@QBUX]VGZ]b[LbNchQcdljhhXjmsmrpt`v{es{y}orw|&2A
#\XOU.F0DB3D5F7H9\LLM>O@QBSDXFWHZ[ca__OackjjffWzjmn\jouyvvtzxxgzj}nsuwy~&64
#\XOU.G0CK3GN6G8ON;QNPb@QBUV]VGZ[b[LbNchQcdljhhXjmslvst`wwses~}}orw|&94
#\XOU.H0CF3FF6G8LL;^MNO@QBSDUF\HYJ\]ecaaQcfkefkqYq~p^wvyusy{zgzyjxotvxz&BA
#\XOU.@@1CF4IG7H9PO<ROQcARCV]ZWH[b_\McOdiRdemkiiYkntswwpayufty|{}qty~&66
#\XOU.@E1DDD5GO8I:MT=`PRSBSDUFWH^J\L^cfffRfmnookY~|u^lqx{{v{y{~i{~lqvx{}&E6
#\XOU.@F1DDD5GO8I:MQ=`PRSBSDUFWH^J\L^cfffRfmnoolYnr^lqyrv{u||i{~lqvx{}&B6
#\XOU.@G1DCM5GM8I:MQ=`PRSBSDUFWH^J\L^cfffRfmlhniYrk^lruz||x{{zi{lqvx{}&C1
#\XOU.@H1DCH5GM8I:MM=`PRSBSDUFWH^J\L^cfffRfmlfhmY~nur^lxtuvwuy}hzk~~puwz|&5A
#\XOU.@I1DDE5GO8I:MQ=`PRSBSDUFWH^J\L^cfffRfmkkklYr^lsyyszux||i{lqvx{}&D2
#\XOU.A@1DCL5GN8I:MM=`PRSBSDUFWH^J\L^cfffRfmiinnYrnt^quvxuwxfxziwm~rtwy~&E8
#\XOU.AA1DCE5GN8I:MQ=`PRSBSDUFWH^J\L^cfffRfmgjlkYrrqp^lqvsvu{~zxi{lqvx{}&6C
#\XOU.AB1DCK5GO8I:MM=`PRSBSDUFWH^J\L^cfffRfmghmkYnklu^xstsy}}vgyjx~puwz|&57
#\XOU.AC1DDH5HH8I:NN=`PRSBSDUFWH^J\L^cfffRfmgfpmYsotq^lsquyxu}{i{lqvx{}&92
#\XOU.AD1DDG5HG8I:MT=`PRSBSDUFWH^J\L^cfffRfmfiglYr~sr^trrtzv}fx~iw|nsuxz&F7
#\XOU.AE1DCG5HG8I:LP=UORSBSDUFWH^J]L]NafehdfUxgmlZhmporvtwutew|h~|l}~qsvx}&53
#\XOU.AF1DCF5F7H9J;QMNO@QBSDUFZHYJ[L_cg`fRymniWejjkrsqqywbtxevgxyz{l}nprwy|~&0B
#\XOU.BG1EJ4E6G8I:PLMN?PARCTEYGXIZK`ac_aQbckyVhnioqoon_rtbsduvwxizk|m~otvy{}&30
#\XOU.CH1I3D5F7H9\LLM>O@QBSDXFWHZ[ca__OadhkinjWzkq\jpssurs{uzgyj{l}~qsuw|~&FB

#NM`a.B@BD3E5F7H9J;L=N?PQRSTUVWHYJ[L&55
#NLPT.@ID2DG5FGHL:MJN>ONQXWDZ[[HYX_eM^]`djSecilX&C6
#NLPT.A0B2&D3
#NLPT.D0BE3DEFJ8IHP<MLPPUBXYZFWVbZK\[`eeQcagjV&5A
#NLPT.@E1CF4EFGK9QIL=NMRQWC]^_GXW^cL]\_biRgbhkW&9E
#NLPT.E0B2&D7
#NLPT.A@1CF4EFGK9JIQ=NMQQYCYZ[GYW]aL^\afdRdbhkW&8A
#NLPT.B@1C3&04
#NLPT.AI1CF4EFGK9MIP=NMQRWCYZ[GYW[[L]\aijRdbhkW&94
#NLPT.AD1D3&08
#NLPT.@C1CF4EFGK9GSJN>ONXR[DZ[[HYXb\M^]acbSecilX&B7
#NLPT.AAA2E4&35
#NLPT.AAA2F4&36
#NLPT.A@J2E4&3D
#NLPT.A@E2E4&38
#NLPT.AAB2E4&36
#NLPT.A@I2E4&3C
#NLPT.A@B2E4&35
#NLPT.A@H2E4&3B
#NLPT.AAE2E4&39
#NLPT.AAD2E4&38

#NMMN.@0>CLHK6JQOS;OMOQ@RS[YWWGYYJ[LcN`ghikfcnmpYj[&78
#KL_c.A0BEELMNJ8FMMPU>QWAVCUEVG`YZ\L&B3
#KL_c.D0BEEJHON8FLRSU>QWAVCUEVG`YZ\L&BB
#KL_c.E0BEDJKNP8FNTNU>QWAVCUEVG`YZ^L&C0
#KL_c.F0BEDFMKP8FMSLO>QWAVCUEVG`YZ^L&B2
#KL_c.@C1CFGEMHM9GMLNO?RXBWDVFWHaZ[]M&CB
#KL_c.@E1CFFKOKQ9KMO=PV@UBTDUF_XY[K&80
#KL_c.A@1CFFJHMH9GQPO>QWAVCUEVG`YZ\L&A0
#KL_c.AD1CFEHMOL9KNOT>QWAWTVEXGXIb[\`N&18
#KL_c.AI1CFFILPH9GLOOO?RXBWDVFWHaZ[]M&DA
#KL_c.B@1CFEMMOK9GMQUW?RXBWDVFWHaZ[_M&EB
#KL_c.@ID2DFKLIJN:HMPSQ@SYCXEWGXIb[\^N&0F
#KL_c.A@J2GDLNKP9GNRRT?RXBWDWFWHaZ[]M&EE
#KL_c.A@E2GDLKOQ9GLPNP?RXBWDWFWHaZ[]M&DF
#KL_c.AAD2GDFNOI9ST<OU?TATCTE^WX\J&53
#KL_c.AAE2GDGLNJ9GOPUT?RXBWDWFWHaZ[_M&E4
#KL_c.A@B2GDHFIL9GMOOR?RXBWDWFWHaZ[_M&CD
#KL_c.A@I2GDIOLJ9KQN=PV@UBUDUF_XY]K&80
#KL_c.A@H2GDGNJQ9KMTN>QWAVCVEVG`YZ^L&B4
#KL_c.AAB2GDLGHQ9GPUMT?RXBWDWFWHaZ[]M&DE
#KL_c.AAA2GEEKLO9GMSPN?RXBWDWFWHaZ[]M&D5
#KLbg.?0CB3EH6III:LUP>Q@RWCYEXWaI\[L_gObafSffgWkiZmlu^u`srtdwv~h{{loqu&C0
#KLbg.@0C2EDG6IHL:&5E

#\Qpou/BAI3GNIH8JKNL=VR@WUC\X]G][[bL`^fPdjkjUioqlZrovu_wwysdu}x|insx}&9A
#NP\U.A@1CDGLNGMPOM<aTTPQRCY\YmmoJdaor`dQsefgwnXrll_tvtwfxi}}pw~ȵʦͽô͹&5B
#NP\U.AC1CDGLMPNMNR<aTSPQRCTEVGXIZK_r`gfvRyzz|W}{qnl^rueylszȺɷѮɵͼ&4F
#NP\U.AE1CDGLNGKPNR<aTSPQRCTEVGXIZKab`qvcRyzxmW~kllq^tuqwvex}lrxšȸѾضϽ&F8
#NP\U.AH1CDGLMPKNSS<aTTPQRCTEVGXIZK]n`gfvRdkUjhlkos\noqcvxyjqw~ɽղɹ&D6
#NLXZ.@I1BC4FNOI9ONQ`Qc@WUTWY_Gnm^[\]NpabkdzUznylk\nwsqwcwzj}~q&CE
#NLXZ.A@1BC4FNOI9OONUVO@WUiY[^Gnm]p\]NpaavdgUhl}kjt\pspqcw~~|j~}~q&8A
#NLXZ.AA1BC4FNOI9OP^``P@WUifggGnm]^\]NpaauywU|{p{~\sqxvcu}~jq&95
#NLXZ.AB1BC4FNOI9OQObOd@WUiWWiGnm]m\]NpabjhkUhohqqo\~v{c{xwz|j~q&EB
#NLXZ.AC1BC4FNOI9ORQRVT@WUSV]ZGnm]\\]NpaavihUkj|qm\vsvwvcv~y|jq&E9
#NLXZ.AD1BC4FNOI9OSNORU@WUSY^hGnm]q\]NpaautlUm{yp|\qvvsbtt}xwzi|}p&88
$[AGT],GSET=2
$[AGT],rm,1,rt,7
$[AGT],fgFirstReq:0
$[AGT],bitmap,old: 108,new: 108
$[AGT],inco
$[AGT],srm,1,dsm,4,tp,7,length,12
$[AGT],tp,264,wn,1881,tw,177782,si,12
$[AGT],rm,2
$[AGT],state:7
$[AGT],wn:1881, tw:177782
$[AGT],ergt
$[AGT],
$[AGT],Esgt 1137715200
$[AGT],epegt
$[AGT],gfisiz()
$[AGT],egtEf,1140307200
$Rdon
$[AGT],res,1137806582,sst,1137715200,egsn,1140307200
$[AGT],wk,epo
$[AGT],s,1,m,1
$[AGT],idle
$@#$^ [AGNT] pEd
$[AGT],opmode GLO(1),GEL(0),DB(0)
$[AGT],tw,177782,gs,1137806582
$[AGT],eextd
$[AGT]start verify
$[AGT],gfisiz()
$[AGT]FileType:GPS+GLO
$[AGT],
$[AGT],epegt
$[AGT],gfisiz()
$[AGT],Extract epo done
$[AGT],GSET=2
$[AGT],rm,4,rt,8
$[AGT],inco
$[AGT],srm,4,dsm,4,tp,8,length,12
$[AGT],tp,264,wn,1881,tw,177782,si,12
$[AGT],rm,3
$[AGT],state:6
$[AGT],wn:1881,tw:177782
$[AGT],BGAI
$[AGT],0,av:67,b_sky:0
$[AGT],1,av:73,b_sky:0
$[AGT],2,av:119,b_sky:0
$[AGT],3,av:0,b_sky:0
$[AGT],4,av:73,b_sky:0
$[AGT],5,av:73,b_sky:0
$[AGT],6,av:73,b_sky:0
$[AGT],7,av:65,b_sky:0
$[AGT],8,av:73,b_sky:0
$[AGT],9,av:59,b_sky:0
$[AGT],10,av:67,b_sky:0
$[AGT],11,av:123,b_sky:0
$[AGT],12,av:73,b_sky:0
$[AGT],13,av:59,b_sky:0
$[AGT],14,av:123,b_sky:0
$[AGT],15,av:63,b_sky:0
$[AGT],16,av:71,b_sky:0
$[AGT],17,av:57,b_sky:0
$[AGT],18,av:69,b_sky:0
$[AGT],19,av:89,b_sky:0
$[AGT],20,av:61,b_sky:0
$[AGT],21,av:65,b_sky:0
$[AGT],22,av:69,b_sky:0
$[AGT],23,av:55,b_sky:1
$[AGT],24,av:123,b_sky:0
$[AGT],25,av:63,b_sky:0
$[AGT],26,av:63,b_sky:0
$[AGT],27,av:69,b_sky:0
$[AGT],28,av:121,b_sky:0
$[AGT],29,av:73,b_sky:0
$[AGT],30,av:61,b_sky:0
$[AGT],31,av:109,b_sky:0
$[AGT],Eend:1, Send:1, ct:1
$[AGT],wkbee
$[AGT],s,1,m,2
$[AGT],idle
$@#$^ [AGNT] sBi
067913.047,HBD,IF1,MSG,AidEPO,SV,1,path_2NG,ValidEPO,0,u4CurrGpsSecs,1137806582,u4GpsSecs,1137801600,seq,45,NAseq,45,Age_Epo,16,Naage,16,NaValidGEPO,1
067913.047,HBD,IF1,MSG,AidEPO,SV,2,path_2NG,ValidEPO,0,u4CurrGpsSecs,1137806582,u4GpsSecs,1137801600,seq,45,NAseq,45,Age_Epo,16,Naage,16,NaValidGEPO,1
067913.047,HBD,IF1,MSG,AidEPO,SV,3,path_2NG,ValidEPO,0,u4CurrGpsSecs,1137806582,u4GpsSecs,1137801600,seq,45,NAseq,45,Age_Epo,16,Naage,16,NaValidGEPO,1
067913.047,HBD,IF1,MSG,AidEPO,SV,4,path_2NG,ValidEPO,1,u4CurrGpsSecs,1137806582,u4GpsSecs,1137801600,seq,45,NAseq,0,Age_Epo,16,Naage,0,NaValidGEPO,0
067913.047,HBD,IF1,MSG,AidEPO,SV,5,path_2NG,ValidEPO,0,u4CurrGpsSecs,1137806582,u4GpsSecs,1137801600,seq,45,NAseq,45,Age_Epo,16,Naage,16,NaValidGEPO,1
067913.047,HBD,IF1,MSG,AidEPO,SV,6,path_2NG,ValidEPO,0,u4CurrGpsSecs,1137806582,u4GpsSecs,1137801600,seq,45,NAseq,45,Age_Epo,16,Naage,16,NaValidGEPO,1
067913.047,HBD,IF1,MSG,AidEPO,SV,7,path_2NG,ValidEPO,0,u4CurrGpsSecs,1137806582,u4GpsSecs,1137801600,seq,45,NAseq,45,Age_Epo,16,Naage,16,NaValidGEPO,1
067913.047,HBD,IF1,MSG,AidEPO,SV,8,path_2NG,ValidEPO,0,u4CurrGpsSecs,1137806582,u4GpsSecs,1137801600,seq,45,NAseq,45,Age_Epo,16,Naage,16,NaValidGEPO,1
067913.047,HBD,IF1,MSG,AidEPO,SV,9,path_2NG,ValidEPO,0,u4CurrGpsSecs,1137806582,u4GpsSecs,1137801600,seq,45,NAseq,45,Age_Epo,16,Naage,16,NaValidGEPO,1
067913.047,HBD,IF1,MSG,AidEPO,SV,10,path_2NG,ValidEPO,0,u4CurrGpsSecs,1137806582,u4GpsSecs,1137801600,seq,45,NAseq,45,Age_Epo,16,Naage,16,NaValidGEPO,1
067913.047,HBD,IF1,MSG,AidEPO,SV,11,path_2NG,ValidEPO,0,u4CurrGpsSecs,1137806582,u4GpsSecs,1137801600,seq,45,NAseq,45,Age_Epo,16,Naage,16,NaValidGEPO,1
067913.047,HBD,IF1,MSG,AidEPO,SV,12,path_2NG,ValidEPO,0,u4CurrGpsSecs,1137806582,u4GpsSecs,1137801600,seq,45,NAseq,45,Age_Epo,16,Naage,16,NaValidGEPO,1
067913.047,HBD,IF1,MSG,AidEPO,SV,13,path_2NG,ValidEPO,0,u4CurrGpsSecs,1137806582,u4GpsSecs,1137801600,seq,45,NAseq,45,Age_Epo,16,Naage,16,NaValidGEPO,1
067913.047,HBD,IF1,MSG,AidEPO,SV,14,path_2NG,ValidEPO,0,u4CurrGpsSecs,1137806582,u4GpsSecs,1137801600,seq,45,NAseq,45,Age_Epo,16,Naage,16,NaValidGEPO,1
067913.047,HBD,IF1,MSG,AidEPO,SV,15,path_2NG,ValidEPO,0,u4CurrGpsSecs,1137806582,u4GpsSecs,1137801600,seq,45,NAseq,45,Age_Epo,16,Naage,16,NaValidGEPO,1
067913.047,HBD,IF1,MSG,AidEPO,SV,16,path_2NG,ValidEPO,0,u4CurrGpsSecs,1137806582,u4GpsSecs,1137801600,seq,45,NAseq,45,Age_Epo,16,Naage,16,NaValidGEPO,1
067913.047,HBD,IF1,MSG,AidEPO,SV,17,path_2NG,ValidEPO,0,u4CurrGpsSecs,1137806582,u4GpsSecs,1137801600,seq,45,NAseq,45,Age_Epo,16,Naage,16,NaValidGEPO,1
067913.047,HBD,IF1,MSG,AidEPO,SV,18,path_2NG,ValidEPO,0,u4CurrGpsSecs,1137806582,u4GpsSecs,1137801600,seq,45,NAseq,45,Age_Epo,16,Naage,16,NaValidGEPO,1
067913.055,HBD,IF1,MSG,AidEPO,SV,19,path_2NG,ValidEPO,0,u4CurrGpsSecs,1137806582,u4GpsSecs,1137801600,seq,45,NAseq,45,Age_Epo,16,Naage,16,NaValidGEPO,1
067913.055,HBD,IF1,MSG,AidEPO,SV,20,path_2NG,ValidEPO,0,u4CurrGpsSecs,1137806582,u4GpsSecs,1137801600,seq,45,NAseq,45,Age_Epo,16,Naage,16,NaValidGEPO,1
067913.055,HBD,IF1,MSG,AidEPO,SV,21,path_2NG,ValidEPO,0,u4CurrGpsSecs,1137806582,u4GpsSecs,1137801600,seq,45,NAseq,45,Age_Epo,16,Naage,16,NaValidGEPO,1
067913.055,HBD,IF1,MSG,AidEPO,SV,22,path_2NG,ValidEPO,0,u4CurrGpsSecs,1137806582,u4GpsSecs,1137801600,seq,45,NAseq,45,Age_Epo,16,Naage,16,NaValidGEPO,1
067913.055,HBD,IF1,MSG,AidEPO,SV,23,path_2NG,ValidEPO,0,u4CurrGpsSecs,1137806582,u4GpsSecs,1137801600,seq,45,NAseq,45,Age_Epo,16,Naage,16,NaValidGEPO,1
067913.055,HBD,IF1,MSG,AidEPO,SV,24,path_2NG,ValidEPO,0,u4CurrGpsSecs,1137806582,u4GpsSecs,1137801600,seq,45,NAseq,45,Age_Epo,16,Naage,16,NaValidGEPO,1
067913.055,HBD,IF1,MSG,AidEPO,SV,25,path_2NG,ValidEPO,0,u4CurrGpsSecs,1137806582,u4GpsSecs,1137801600,seq,45,NAseq,45,Age_Epo,16,Naage,16,NaValidGEPO,1
067913.055,HBD,IF1,MSG,AidEPO,SV,26,path_2NG,ValidEPO,0,u4CurrGpsSecs,1137806582,u4GpsSecs,1137801600,seq,45,NAseq,45,Age_Epo,16,Naage,16,NaValidGEPO,1
067913.055,HBD,IF1,MSG,AidEPO,SV,27,path_2NG,ValidEPO,0,u4CurrGpsSecs,1137806582,u4GpsSecs,1137801600,seq,45,NAseq,45,Age_Epo,16,Naage,16,NaValidGEPO,1
067913.055,HBD,IF1,MSG,AidEPO,SV,28,path_2NG,ValidEPO,0,u4CurrGpsSecs,1137806582,u4GpsSecs,1137801600,seq,45,NAseq,45,Age_Epo,16,Naage,16,NaValidGEPO,1
067913.055,HBD,IF1,MSG,AidEPO,SV,29,path_2NG,ValidEPO,0,u4CurrGpsSecs,1137806582,u4GpsSecs,1137801600,seq,45,NAseq,45,Age_Epo,16,Naage,16,NaValidGEPO,1
067913.055,HBD,IF1,MSG,AidEPO,SV,30,path_2NG,ValidEPO,0,u4CurrGpsSecs,1137806582,u4GpsSecs,1137801600,seq,45,NAseq,45,Age_Epo,16,Naage,16,NaValidGEPO,1
067913.055,HBD,IF1,MSG,AidEPO,SV,31,path_2NG,ValidEPO,0,u4CurrGpsSecs,1137806582,u4GpsSecs,1137801600,seq,45,NAseq,45,Age_Epo,16,Naage,16,NaValidGEPO,1
067913.055,HBD,IF1,MSG,AidEPO,SV,32,path_2NG,ValidEPO,2,u4CurrGpsSecs,1137806582,u4GpsSecs,1137801600,seq,45,NAseq,0,Age_Epo,16,Naage,0,NaValidGEPO,0
067914.031,HBD,IF1,TIM,DSP,u1ChnNum,37,u2DataSize,57
067914.031,HBD,IF1,COM,BinDecX,65065
067914.031,HBD,IF1,TIM,DSP,u1ChnNum,48,u2DataSize,57
067914.031,HBD,IF1,COM,BinDecX,65065
067914.031,HBD,IF1,GPS,TkDltIn,3012,3018,6
067914.031,HBD,IF1,TIM,NWloc,fgfirstUseNW,0,case,0,NWAID,0,NWUSE,0
067914.031,HBD,IF1,AGP,BOOST,Posdiff:2.563590,0.404413,num:7,PosConverge,1,BoostRemT,15.999
$Boost, flag on*64
$LOC_Cache_BIT,00000000*7F
067914.031,HBD,IF1,AGP,AGPSMGN,Posdiff:2.563590,0.404413,num:0,PosConverge,0,AGPSRemT,16.000

#XPda.D@BD3&47

#MZYQ.@B1CGDZ6I8_SN`=&28

#MZYQ.AH1HG4&57
067914.039,HBD,IF1,AGP,AGPSMGN,AGPSMode:-1,AGPSTimer:0.000
$PMTK015,67914037,10,4012,AMode,-1,ATimer,0.000,Remain,16.000*66
067914.039,HBD,IF1,AGP,AGPSMGN,DOP.H :1.251391,PosCon:0,[26.549084,21.315317,4.546675]
$PMTK015,67914037,6,4012,NACQ,6,NBS,5,NSFS,0,NEXS,0*6B
$HBD,INF,RTC,F,0,Y,16,M,1,D,26,H,1,M,22,Sec,46,Sub,28580,T,4005,SM,7219*08
$DBts1,TSOK,0,WNSet,1,TOWS,6,WN,1881,BAcc,35.857,TAcc,9999000.000,*5F
$DBts2,TTK,4012,TOW,177783.877000000,B,-0.000258168,D,0.000001233,*2C
067914.039,HBD,IF1,ALO,CdmPvtU,
$HBD,INF,RTC,F,0,Y,16,M,1,D,26,H,1,M,22,Sec,46,Sub,28580,T,4005,SM,7219*08
$GNGGA,012246.877,2458.5359,N,12119.6745,E,1,7,1.25,162.7,M,15.0,M,,*45
$GPGSA,A,3,193,05,15,20,29,24,13,,,,,,1.53,1.25,0.88*34
$GLGSA,A,3,,,,,,,,,,,,,1.53,1.25,0.88*1F
$GPGSV,3,1,11,13,88,009,37.7,193,66,050,38.0,02,55,118,,15,49,235,37.6*5D
$GPGSV,3,2,11,05,48,026,35.8,20,39,310,36.9,29,38,288,36.0,30,20,065,*66
$GPGSV,3,3,11,06,13,129,,24,05,190,16.9,07,03,041,*5D
$GLGSV,3,1,9,88,71,246,,65,40,008,,66,37,293,,87,33,174,*56
$GLGSV,3,2,9,75,18,098,,74,08,048,,76,07,148,,72,06,048,*54
$GLGSV,3,3,9,67,01,254,*6F
$GNRMC,012246.877,A,2458.5359,N,12119.6745,E,0.786,128.63,260116,,,A*45
$GNVTG,128.63,T,,M,0.786,N,1.456,K,A*22
$GNACCURACY,5.7*14
$PMTKDGP,0*4D
$PMTKDBG,4012,0,1,0,1,0,0,0,1,0,0,0,0,0,0,0,0,0,0,1,1,1,1,1,0,0,0,0,0,0,0,0,1,0028,0035,0002,0007,0007,0000,0001,0000,0.0000,1.2330,0.0000,0.0000,0.0000,0.0000,*49
$PMTKDB2,0714,0000,0000,0000,0000,0000,0000,0700,0034.05,0000.00,12330.22,9999000.32,0000.27,-258.17,00-0.04,0000.00,*17
$PMTKEPH,44,2,3,4,5,6,7,9,12,13,15,17,19,20,23,-24.2.5,25,28,29,30,-32.0.1,193,-65.2.5,-66.2.5,-67.2.5,-68.2.5,-69.2.5,-70.2.5,-71.2.5,-72.2.5,-73.2.5,-74.2.5,-75.2.5,-76.2.5,-77.2.5,-78.2.5,-79.2.5,-80.2.5,-82.2.5,-83.2.5,-84.2.5,-85.2.5,-86.2.5,-87.2.5,-88.2.5*5D
$PMTKALM,31,1,2,3,5,6,7,8,9,10,11,12,13,14,15,16,17,18,19,20,21,22,23,24,25,26,27,28,29,30,31,193*7F

#WXM[.?0A2C4E6G8I:K<M>O@QBSDUFWHYJ[L]N_PaRcTeVgXiZk\m^o`qbsdufwhyj{l}npy&39

#NM^Z.BB1FCEG6H8JKM<NNT@QBSD&0C
#\XOU.@0BKF4IG7H9PO<ROQcARCW[ZWH\`_\McOeaRdemkijYrllvwo`q}es{~orw|&6B
#\XOU.A0C2L4E6JJ9\LLM>O@QBSDZFWHZ[ca_`OgjhedkVyyk[iooqvyuy{{fxi~m~rtvx}&81
#\XOU.B0F2FM5F7NM:PMOa?PAUVTUFZ[YZKaMc_PbckighWppklrm^vucqv~x~~|nqv{~&9E
#\XOU.C0BG3HF6G8ON;QNPb@QBUWYVGZ\^[LbNd`QcdljhiXqqlsnr_wy{yd}y{~~}l~o}ty|&BF
#\XOU.D0G2DK5F7KK:]QMN?PARCTE[GXI[\db`aPhjgdggWo}q|\jqquqvxww~gzj|~~otwy{&06
#\XOU.E0CB3HE6G8ON;QNPb@QBVX]VG[]b[LbNd`QcdljhiXqqklos_vuszdrzx~}nqv{~&52
#\XOU.F0DB3M5F7KK:]MMN?PARCTE[GXI[\db`aPhjiefkWi{j~\jouwsu|}uvgzjnsuwy~&9D
#\XOU.G0CK3GN6G8ON;QNPb@QBVV]VG[[b[LbNd`QcdljhiXqptprr_xy{dr~}ynqv{~&78
#\XOU.H0CF3FF6G8NR;^MP`@QBTTWZGYY\_LbN`PbckighWpnrpqm^uwstc|{}zyzl~o}uz|&59
#\XOU.@@1CF4IG7H9PO<ROQcARCW]ZWH\b_\McOeaRdemkijYrrqqux`zyvesx{z~|~~psx}&B4
#\XOU.@E1DDD5GL8I:MT=`PRSBSDUFWH^J\L^cffgRfmnoojY|m^lqyryw|zxi{~lqvx{}&D9
#\XOU.@F1DDD5GO8I:MQ=`PRSBSDUFWH^J\L^cffgRfmnookYpr^lqxzzxzww~i{~lqvx{}&C2
#\XOU.@G1DCM5GP8I:MQ=`PRSBSDUFWH^J\L^cffgRfmlhnhYntp^lrvrut|}}~i{l~~rwy|~&D4
#\XOU.@H1DCH5GM8I:MM=`PRSBSDUFWH^J\L^cffgRfmlfhmYp}u^lxttu|~x{hzkpuwz|&9F
#\XOU.@I1DDE5GO8I:MQ=`PRSBSDUFWH^J\L^cffgRfmkkkkYjrns^lsyxzwuzx|i{l~rwy|~&D0
#\XOU.A@1DCL5GP8I:MM=`PRSBSDUFWH^J\L^cffgRfmiinnYrqqq^qwq{su|fxziwm~rtwy~&CC
#\XOU.AA1DCE5GL8I:MQ=`PRSBSDUFWH^J\L^cffgRfmgjljY}|sp^lqvsx{v{xi{lqvx{}&A8
#\XOU.AB1DCK5GN8I:MM=`PRSBSDUFWH^J\L^cffgRfmghmkY|prq^xtttzz}zgyjx~puwz|&79
#\XOU.AC1DDH5HG8I:NN=`PRSBSDUFWH^J\L^cffgRfmgfplYk|po^lsqvx{{{wi{l~rwy|~&AD
#\XOU.AD1DDG5GO8I:MT=`PRSBSDUFWH^J\L^cffgRfmfiglYsmuo^sww{ut}fx~iw}~nsuxz&FD
#\XOU.AE1DCF5F7H9MM<TNOPARCTEVG]IZK\M_efeeiT{onzYgmnvqoxyrcuyfy~iz{|~nprty{~&9F
#\XOU.AF1DCG5F7H9J;QMNO@QBSDUFZHYJ[L`^hafRykh|Wekjslnoqvubtvevgxyz{l}nprwy|~&0A
#\XOU.BG1EJ4E6G8I:PLMN?PARCTEYGXIZKaaebaQbcvwVdiojprppo`ructevwxyj{l}npuwz|~&6B
#\XOU.CH1I3D5F7H9\LLM>O@QBSDXFWHZ[ca_`OhficmgVjjll[iosvqwuuzyfxizk|}~prtv{}&AE

#NM`a.C@BD3E5F7H9J;L=N?PQRSTUVWHYJ[L&56
#NLPT.@ID2DG5FGHL:MJT>ONQUTDZ[[HZX[_M^]ehiSecilX&C5
#NLPT.A0C2&D4
#NLPT.D0BE3DEFJ8KHM<MLPVZBXYZFWVbbK\[`cdQcagjV&69
#NLPT.@E1CF4EFGK9OIQ=NMRTRCYZ[GXWb`L]\``bRdbhkW&89
#NLPT.E0C2&D8
#NLPT.A@1CF4EFGK9JIP=NMPUVCYXVGYW\]L]\ggdRdbhkW&83
#NLPT.B@1D3&05
#NLPT.AI1CF4EFGK9LIL=NMPUZCYXVGYW[aL]\eggRdbhkW&92
#NLPT.AD1CF4MFGK9KSJT>ONQTWD^^XYbJX^[bgPb`hgnVlmgjk\&A4
#NLPT.@C1CF4EFGK9GRJQ>ONWTXDZX`HYXdeM^]dcfSecilX&CB
#NLPT.AAA2E4&35
#NLPT.AAA2F4&36
#NLPT.A@J2E4&3D
#NLPT.A@E2E4&38
#NLPT.AAB2E4&36
#NLPT.A@I2E4&3C
#NLPT.A@B2E4&35
#NLPT.A@H2E4&3B
#NLPT.AAE2E4&39
#NLPT.AAD2E4&38

#NMMN.@0>CLHG6JQOM;PMOQ@RS[YWXGYYJ[LcN`ghikgcnnoYj[&71
#KL_c.A0IDIIMN7ELLOQ=PP@UBTDUF_XY[K&7E
#KL_c.D0IDGEEH7EKQRP=PP@UBTDUF_XY[K&73
#KL_c.E0ICGGNI7EMSMQ=PP@UBTDUF_XY]K&81
#KL_c.F0ICCIKI7ELQTU=PP@UBTDUF_XY]K&85
#KL_c.@C1JELIHH8FLKLU>QQAVCUEVG`YZ\L&A0
#KL_c.@E1JEHKKM8JLR<OO?TASCTE^WXZJ&4B
#KL_c.A@1JEFNLN8FPNT=PP@UBTDUF_XY[K&7E
#KL_c.AD1JDEIOI8JMOL=PP@VSUDWFWHaZ[_M&DA
#KL_c.AI1JEFHOM8FKNMT>QQAVCUEVG`YZ\L&AE
#KL_c.B@1JDJINO8FLPTS>QQAVCUEVG`YZ^L&B6
#KL_c.@ID2JJHOJJ9GLOQV?RRBWDVFWHaZ[]M&E4
#KL_c.A@J2GEGJKN9GNRRP?RRBWDWFWHaZ[]M&DA
#KL_c.A@E2GEGGOP9GLPMV?RRBWDWFWHaZ[]M&D5
#KL_c.AAD2GDKJOH9KKO=PP@UBUDUF_XY]K&6F
#KL_c.AAE2GDLHNH9GOPUO?RRBWDWFWHaZ[_M&D8
#KL_c.A@B2GDLLIK9GMOOO?RRBWDWFWHaZ[_M&CD
#KL_c.A@I2GDNKLI9KQP=PP@UBUDUF_XY]K&7C
#KL_c.A@H2GDLJJQ9KMTQ>QQAVCVEVG`YZ^L&B2
#KL_c.AAB2GEFMHN9GPUMQ?RRBWDWFWHaZ[]M&D3
#KL_c.AAA2GEJGLM9GMSOU?RRBWDWFWHaZ[]M&D4
#KLbg.?0CB3EH6III:LUP>Q@RWCYEXWaI\[L_gObafSffgWkiZmlu^u`srtdwv~h{{loqu&C0
#KLbg.@0C2EDG6IHL:&5E

#\Qpou/BCJ3HGGM8JLNS=UW@VXC][^G]\c\L_dgPdjehUjgklZqrtt_vxx|du}x|insx}&9D
#NP\U.AI1CDGLNGMPOM<aTTPQRCY\YmmoJdaor`dQsefgwnXrll_wsueg}~nt{ű˺̿ſǱθԿ&84
#NP\U.B@1CDGLNGMPOM<aTTPQRCY\YmmoJdaor`dQsefgwnXrllmu_rztwfyiov}µȵƦϼýǴл &68
#NP\U.BC1CDGLNGNNMS<aTUPQVC\UVWXYJ[L]NueQvufxhyXjjlpq^tye|l~szƲȣɻ;ѯض̽&51
#NLXZ.AE1BC4FNOI9OTNVRS@WUT[]kGnm`]\]NpaaufeUwpklk\nstrvcvyyj}q&D4
#NLXZ.AF1BC4FNOI9O\LSRa@WUSfi]Gnm_\\]NpaavfzUwo}{qm\vxwzcxyzj}q&35
#NLXZ.AG1BC4FNOI9O]MVTO@WUTUihGnm]p\]NpaauteUzjy}}o\uupsbx||i{|~o&71
#NLXZ.AH1BC4FNOI9O^]Pae@WUTi^lGnm`m\]NpaauudUwzkikl\xqzc{{|j}}~q&19
#NLXZ.AI1BC4FNOI9O_LURc@WUTYh]Gnm^]\]NpaaulfUzmilqm\voc{~zj}~q&D5
#NLXZ.B@1BC4FNOI9O`La_U@WUS[ZjGnm^]\]NpaauuwUnhm{l\truzc|j|}p&DB
$[AGT],GSET=3
$[AGT],rm,1,rt,1
$[AGT],fsm,wm,2
$[AGT],rv PMTKRQTEPH,1881,177783,1,24
$[AGT],GSET=3
$[AGT],rm,4,rt,9
$[AGT],inco
$[AGT],sel SI
$[AGT],rm,4
$[AGT],state:4
$[AGT],state:4
$[AGT],wkssi
$[AGT],s,1,m,3
$[AGT],idle
$[AGT],clear epo req
$[AGT],GSET=3
$[AGT],rm,1,rt,7
$[AGT],fgFirstReq:0
$[AGT],bitmap,old: 108,new: 108
$[AGT],fsm,wm,3
$[AGT],skip
067915.031,HBD,IF1,TIM,DSP,u1ChnNum,37,u2DataSize,57
067915.031,HBD,IF1,COM,BinDecX,65065
067915.031,HBD,IF1,GPS,TkDltIn,4012,4017,5
067915.039,HBD,IF1,TIM,NWloc,fgfirstUseNW,0,case,0,NWAID,0,NWUSE,0
067915.039,HBD,IF1,AGP,BOOST,Posdiff:19.694380,0.300739,num:7,PosConverge,1,BoostRemT,14.999
$Boost, flag on*64
$LOC_Cache_BIT,00000000*7F
067915.039,HBD,IF1,AGP,AGPSMGN,Posdiff:19.694380,0.300739,num:0,PosConverge,0,AGPSRemT,16.000

#XPda.E@BD3&48

#MZYQ.@B1CJYM6I8_[R`=&3F

#MZYQ.AH1HG4&57
067915.039,HBD,IF1,AGP,AGPSMGN,AGPSMode:-1,AGPSTimer:0.000
$PMTK015,67915037,10,5012,AMode,-1,ATimer,0.000,Remain,16.000*66
067915.039,HBD,IF1,AGP,AGPSMGN,DOP.H :1.251298,PosCon:0,[32.796913,24.787876,4.993817]
$PMTK015,67915037,6,5012,NACQ,6,NBS,5,NSFS,0,NEXS,0*6B
$HBD,INF,RTC,F,0,Y,16,M,1,D,26,H,1,M,22,Sec,47,Sub,28619,T,5006,SM,10563*34
$DBts1,TSOK,0,WNSet,1,TOWS,6,WN,1881,BAcc,39.296,TAcc,9999000.000,*54
$DBts2,TTK,5012,TOW,177784.891000000,B,-0.000256927,D,0.000001231,*2D
067915.039,HBD,IF1,ALO,CdmPvtU,
$HBD,INF,RTC,F,0,Y,16,M,1,D,26,H,1,M,22,Sec,47,Sub,28619,T,5006,SM,10563*34
$GNGGA,012247.891,2458.5383,N,12119.6751,E,1,7,1.25,162.7,M,15.0,M,,*4E
$GPGSA,A,3,193,05,15,20,29,24,13,,,,,,1.53,1.25,0.88*34
$GLGSA,A,3,,,,,,,,,,,,,1.53,1.25,0.88*1F
$GPGSV,3,1,11,13,88,009,36.9,193,66,050,37.0,02,55,118,,15,49,235,35.5*5C
$GPGSV,3,2,11,05,48,026,34.3,20,39,310,35.6,29,38,288,35.5,30,20,065,*66
$GPGSV,3,3,11,06,13,129,,24,05,190,18.0,07,03,041,*5A
$GLGSV,3,1,9,88,71,246,,65,40,008,,66,37,293,,87,33,174,*56
$GLGSV,3,2,9,75,18,098,,74,08,048,,76,07,148,,72,06,048,*54
$GLGSV,3,3,9,67,01,254,*6F
$GNRMC,012247.891,A,2458.5383,N,12119.6751,E,0.584,137.60,260116,,,A*43
$GNVTG,137.60,T,,M,0.584,N,1.083,K,A*23
$GNACCURACY,6.3*13
$PMTKDGP,0*4D
$PMTKDBG,5012,0,1,0,1,0,0,0,1,0,0,0,0,0,0,0,0,0,0,1,1,1,1,1,0,0,0,0,0,0,0,0,1,0099,0035,0002,0007,0007,0000,0001,0000,0.0000,1.2311,0.0000,0.0000,0.0000,0.0000,*41
$PMTKDB2,0A14,0000,0000,0000,0000,0000,0000,0700,0041.11,0000.00,12311.66,9999000.32,0000.01,-256.93,00-0.04,0000.00,*63
$PMTKEPH,44,2,3,4,5,6,7,9,12,13,15,17,19,20,23,-24.2.5,25,28,29,30,-32.0.1,193,-65.2.5,-66.2.5,-67.2.5,-68.2.5,-69.2.5,-70.2.5,-71.2.5,-72.2.5,-73.2.5,-74.2.5,-75.2.5,-76.2.5,-77.2.5,-78.2.5,-79.2.5,-80.2.5,-82.2.5,-83.2.5,-84.2.5,-85.2.5,-86.2.5,-87.2.5,-88.2.5*5D
$PMTKALM,31,1,2,3,5,6,7,8,9,10,11,12,13,14,15,16,17,18,19,20,21,22,23,24,25,26,27,28,29,30,31,193*7F

#WXM[.?0A2C4E6G8I:K<M>O@QBSDUFWHYJ[L]N_PaRcTeVgXiZk\m^o`qbsdufwhyj{l}npy&39

#NM^Z.BB1GCEG6H8JJT<NNT@QBSD&13
#\XOU.?0H2ED5F7KK:]MMN?PARCTE[GXI[\db`bPdfiefnWk}n}\jpsyzyvz{vgyj|}~otvxz&A9
#\XOU.@0BKF4IF7H9PO<ROQcARCX[ZWH]`_\McOeaRdemkikYltuqvx`syesz||orw|&7E
#\XOU.A0C2DJ5F7KK:]MMN?PARCTE[GXI[\db`bPcjgkejWq~ok\jppryywwyvgyj|otvxz&B6
#\XOU.B0F2FK5F7NM:PMOa?PAVVTUF[[YZKaMc_PbckigiWknsqqv^pywwcqv~x}|nqw|&46
#\XOU.C0BG3GN6G8ON;QNPb@QBVWYVG[\^[LbNd`QcdljhjXlpknnr_xsd}|wxzzl~o}ty|&65
#\XOU.D0G2EH5F7JP:SQOP?PARCTE[G\I[\db`bPcieigfWkl{m\jqqvrvwuv|gzj}otw{}&C1
#\XOU.E0CB3GN6G8ON;QNPb@QBWX]VG\]b[LbNd`QcdljhjXlosqor_wdrzx}z}nqv{~&86
#\XOU.F0DB3EI6G8LL;^NNO@QBSDUF\HYJ\]ecacQdjhkgjXpl|~]kpvxusv}zwh{k~puwy{&F1
#\XOU.G0CK3GN6G8ON;QNPb@QBWV]VG\[b[LbNd`QcdljhjXlorurq_vdr~}x~|nqv{~&E1
#\XOU.H0CF3FF6G8ON;^MP`@QBUTY^GZY^cLbN`PbckigiWkmqkqn^swuwc||x{x~}l~o}uz}&B7
#\XOU.@@1CF4IF7H9PO<ROQcARCX]ZWH]b_\McOeaRdemkikYmqovuw`u{xzesx{z}|psx}&2C
#\XOU.@E1DDD5GO8I:MT=`PRSBSDUFWH^J\L^cffhRfmnoojYksqo^lqyswz|{{~i{~lqvx{}&A4
#\XOU.@F1DDD5GM8I:MQ=`PRSBSDUFWH^J\L^cffhRfmnoojYsls^lqx{y|zz|i{~l~~rwy|~&D5
#\XOU.@G1DCM5GM8I:MQ=`PRSBSDUFWH^J\L^cffhRfmlhmqYkku^lrvsyu|}i{l~rwy|~&F1
#\XOU.@H1DCH5GM8I:MM=`PRSBSDUFWH^J\L^cffhRfmlfhmYjonv^lxtv|xx}hzkpuwz|&7F
#\XOU.@I1DDE5GO8I:MQ=`PRSBSDUFWH^J\L^cffhRfmkkkiYlp~~^lsyxxv|{i{lrwy|~&E3
#\XOU.A@1DCL5GO8I:MM=`PRSBSDUFWH^J\L^cffhRfmiinnYr|tn^qywwxzvfxziw|~nsuxz&F9
#\XOU.AA1DCE5GO8I:MQ=`PRSBSDUFWH^J\L^cffhRfmgjljYjr^lqu{|v~}{zi{lqvx{}&B9
#\XOU.AB1DCK5GP8I:MM=`PRSBSDUFWH^J\L^cffhRfmghmlYl}oq^xurysxwvgyjxpuwz|&43
#\XOU.AC1DDH5HG8I:NN=`PRSBSDUFWH^J\L^cffhRfmgfpjYssn^lsqwt|vz|zi{l~rwy|~&FB
#\XOU.AD1DDG5GO8I:MT=`PRSBSDUFWH^J\L^cffhRfmfiglYssrs^rwwy{tufx~iw~|~nsuxz&F0
#\XOU.AF1DCF5F7H9J;SMNO@QBSDUFZHYJ[La^biegSkzn|Xfmqttuppxtcuufwhyz{|m~oqsxz}&54
#\XOU.BG1EJ4E6G8I:PLMN?PARCTEYGXIZK`ac_aQbckyVhnioqoon_rtbsduvwxizk|m~otvy{}&30
#\XOU.CH1B3D5F7H9JKLM>O@QBSDUFWHYJ[L]^_`QbSdUfWhijk\m^o`qbstuvgxizk|m~oq&36

#NM`a.D@BD3E5F7H9J;L=N?PQRSTUVWHYJ[L&57
#NLPT.F0C2&D9
#NLPT.@ID2DG5FGHL:LJT>ONQWUDXZ_HYXadM^]`hfSdckhX&C7
#NLPT.A0C2&D4
#NLPT.D0BE3DEFJ8KHQ<MLOPWBWX\FWVa\K\[^`fQbamlV&60
#NLPT.@E1CF4EFGK9NIS=NMPRRCYXVGXWc_L]\`cjRdbhkW&8A
#NLPT.E0C2&D8
#NLPT.A@1CF4EFGK9GKJO>ONQYXDXZ`HYXc\M^]`abSdckhX&A8
#NLPT.B@1D3&05
#NLPT.AI1CF4EFGK9LIQ=NMPXZCWY_GXWacL]\_abRcbjgW&95
#NLPT.AD1CF4MFGK9KQJV>ONQVVD^]\YbJX][ehPb`edhVkqgjk\&A2
#NLPT.@C1CF4EFGK9GRJU>ONRUYDXZ_HYXcbM^]`cgSdckhX&C1
#NLPT.AAA2E4&35
#NLPT.AAA2F4&36
#NLPT.A@J2E4&3D
#NLPT.A@E2E4&38
#NLPT.AAB2E4&36
#NLPT.A@I2E4&3C
#NLPT.A@B2E4&35
#NLPT.A@H2E4&3B
#NLPT.AAE2E4&39
#NLPT.AAD2E4&38

#NMMN.@0>CLGN6JQOP;QMOQ@RS[YWYGYYJ[LcN`ghikhcnpiYj[&79
#KL_c.A0DDLHEN7ELLON=PS@UBTDUF_XY[K&73
#KL_c.D0DDIMGI7EKQRM=PS@UBTDUF_XY[K&7B
#KL_c.E0DCJFFG7EMSMN=PS@UBTDUF_XY]K&74
#KL_c.F0DCFGMI7ELQTR=PS@UBTDUF_XY]K&83
#KL_c.@C1EFEGJI8FLKLQ>QTAVCUEVG`YZ\L&95
#KL_c.@E1EEKIMO8JMK<OR?TASCTE^WXZJ&48
#KL_c.A@1EEILNO8FPNO=PS@UBTDUF_XY[K&7B
#KL_c.AD1EDHHGL8JMOP=PS@VSUDWFWHaZ[_M&D9
#KL_c.AI1EEIGGN8FKNMP>QTAVCUEVG`YZ\L&A3
#KL_c.B@1EDMHFO8FLPTQ>QTAVCUEVG`YZ^L&AC
#KL_c.@ID2EJKMLK9GLOQR?RUBWDVFWHaZ[]M&E2
#KL_c.A@J2GENKPQ9GNRQV?RUBWDWFWHaZ[]M&F2
#KL_c.A@E2GENIKI9GLPMR?RUBWDWFWHaZ[]M&D2
#KL_c.AAD2GEHLJL9KKR=PS@UBUDUF_XY]K&74
#KL_c.AAE2GEIJIJ9GOPTV?RUBWDWFWHaZ[_M&DE
#KL_c.A@B2GEIMNN9GMONV?RUBWDWFWHaZ[_M&DD
#KL_c.A@I2GEKMGN9KQS=PS@UBUDUF_XY]K&82
#KL_c.A@H2GEIKPK9KMTT>QTAVCVEVG`YZ^L&B7
#KL_c.AAB2GEMNMP9GPUMN?RUBWDWFWHaZ[]M&E2
#KL_c.AAA2GFGIGQ9GMSOR?RUBWDWFWHaZ[]M&D3
#KLbg.?0CB3EH6III:LUP>Q@RWCYEXWaI\[L_gObafSffgWkiZmlu^u`srtdwv~h{{loqu&C0
#KLbg.@0C2EDG6IHL:&5E

#\Qpou/AH2DIJGO8J:K<M>TUATSXEVG[]a^L`bfgQgklfVmhkj[l~os`sey{}j||~~oty&A9
#NLXZ.BA1BC4FNOI9OaPQTT@WUTWh_Gnm__\]NpaavdhUm}|r}k\tvc|xxyj}}~q&E0
#NLXZ.BB1BC4FNOI9PKQaNP@UgSVg_Gnm^n\]NpaaulmUhznrkp\urvbx{xi{|o&5D
#NLXZ.BC1BC4FNOI9]LSTdV@UcfihgGno]c\^NrqvtghUg}lo|l\npvtc{|yi|~p&02
$[AGT],GSET=4
$[AGT],rm,1,rt,7
$[AGT],fgFirstReq:0
$[AGT],bitmap,old: 108,new: 108
$[AGT],fsm,wm,3
$[AGT],skip
067916.031,HBD,IF1,TIM,DSP,u1ChnNum,37,u2DataSize,57
067916.031,HBD,IF1,COM,BinDecX,65065
067916.031,HBD,IF1,GPS,TkDltIn,5012,5018,6
067916.031,HBD,IF1,TIM,NWloc,fgfirstUseNW,0,case,0,NWAID,0,NWUSE,0
067916.031,HBD,IF1,AGP,BOOST,Posdiff:1.847797,0.053067,num:7,PosConverge,1,BoostRemT,13.999
$Boost, flag on*64
$LOC_Cache_BIT,00000000*7F
067916.039,HBD,IF1,AGP,AGPSMGN,Posdiff:1.847797,0.053067,num:0,PosConverge,0,AGPSRemT,16.000

#XPda.F@BD3&49

#MZYQ.@B1CUWM6I8_\]a=&55

#MZYQ.AH1HG4&57
067916.039,HBD,IF1,AGP,AGPSMGN,AGPSMode:-1,AGPSTimer:0.000
$PMTK015,67916037,10,6012,AMode,-1,ATimer,0.000,Remain,16.000*66
067916.039,HBD,IF1,AGP,AGPSMGN,DOP.H :1.251276,PosCon:0,[23.056316,17.848480,4.475511]
$PMTK015,67916037,6,6012,NACQ,6,NBS,5,NSFS,0,NEXS,0*6B
$HBD,INF,RTC,F,0,Y,16,M,1,D,26,H,1,M,22,Sec,48,Sub,28585,T,6005,SM,10175*3E
$DBts1,TSOK,0,WNSet,1,TOWS,6,WN,1881,BAcc,34.353,TAcc,9999000.000,*51
$DBts2,TTK,6012,TOW,177785.899000000,B,-0.000255693,D,0.000001229,*2D
067916.039,HBD,IF1,ALO,CdmPvtU,
$HBD,INF,RTC,F,0,Y,16,M,1,D,26,H,1,M,22,Sec,48,Sub,28585,T,6005,SM,10175*3E
$GNGGA,012248.899,2458.5390,N,12119.6751,E,1,7,1.25,162.7,M,15.0,M,,*4B
$GPGSA,A,3,193,05,15,20,29,24,13,,,,,,1.53,1.25,0.88*34
$GLGSA,A,3,,,,,,,,,,,,,1.53,1.25,0.88*1F
$GPGSV,3,1,11,13,88,009,36.6,193,66,050,37.0,02,55,118,,15,49,235,35.3*55
$GPGSV,3,2,11,05,48,026,34.6,20,39,310,35.3,29,38,288,35.3,30,20,065,*60
$GPGSV,3,3,11,06,13,129,,24,05,190,16.6,07,03,041,*52
$GLGSV,3,1,9,88,71,246,,65,40,008,,66,37,293,,87,33,174,*56
$GLGSV,3,2,9,75,18,098,,74,08,048,,76,07,148,,72,06,048,*54
$GLGSV,3,3,9,67,01,254,*6F
$GNRMC,012248.899,A,2458.5390,N,12119.6751,E,0.103,114.82,260116,,,A*40
$GNVTG,114.82,T,,M,0.103,N,0.191,K,A*26
$GNACCURACY,5.3*10
$PMTKDGP,0*4D
$PMTKDBG,6012,0,1,0,1,0,0,0,1,0,0,0,0,0,0,0,0,0,0,1,1,1,1,1,0,0,0,0,0,0,0,0,1,0099,0035,0002,0007,0007,0000,0001,0000,0.0000,1.2290,0.0000,0.0000,0.0000,0.0000,*4A
$PMTKDB2,0A1E,0000,0000,0000,0000,0000,0000,0700,0029.16,0000.00,12290.30,9999000.32,0000.00,-255.69,00-0.04,0000.00,*17
$PMTKEPH,44,2,3,4,5,6,7,9,12,13,15,17,19,20,23,-24.2.5,25,28,29,30,-32.0.1,193,-65.2.5,-66.2.5,-67.2.5,-68.2.5,-69.2.5,-70.2.5,-71.2.5,-72.2.5,-73.2.5,-74.2.5,-75.2.5,-76.2.5,-77.2.5,-78.2.5,-79.2.5,-80.2.5,-82.2.5,-83.2.5,-84.2.5,-85.2.5,-86.2.5,-87.2.5,-88.2.5*5D
$PMTKALM,31,1,2,3,5,6,7,8,9,10,11,12,13,14,15,16,17,18,19,20,21,22,23,24,25,26,27,28,29,30,31,193*7F

#WXM[.?0A2C4E6G8I:K<M>O@QBSDUFWHYJ[L]N_PaRcTeVgXiZk\m^o`qbsdufwhyj{l}npy&39

#NM^Z.BB1HCEG6H8JKM<NNT@QBSD&0E
#\XOU.?0H2DM5F7LO:]MOP?PARCTE[GYI[\db`bPbeimfglX|~to]kqtzwtz|xwhzkpuw{}&70
#\XOU.@0BKF4HO7H9PO<ROQcARCY[ZWH^`_\McOeaRdemkikYknnorwxavwft~psx}&CB
#\XOU.A0C2DK5F7KK:]MMN?PARCTE[GXI[\db`bPbecklfiXql}]kqqsz|z}|hzkpuwy{&20
#\XOU.B0F2FL5F7NM:PMOa?PAVSTE[ZXYJ`Lb^OabjhfhVhkqlqqt^tyscqv~x{}}~~~nqw|&A4
#\XOU.C0BG3GM6G8ON;QNPb@QBWWYVG\\^[LbNd`QcdljhjXjmsooos`wsxe~~xz~}mp~uz}&A3
#\XOU.D0G2C4E6G8[KKL=N?PARCWEVGYZb`^`N`cddcehV|ok}[ippquwzt}wfyzi~nsuwy~&84
#\XOU.E0CB3GM6G8ON;QNPb@QBXX]VG]]b[LbNd`QcdljhjXjmsmrps`zwxes{yz{{orw|&D7
#\XOU.F0DB3EK6G8LL;^NNO@QBSDUF\HYJ\]ecacQcemllhiY}|}r^lqwytx|y{xi|lqvxz|&4A
#\XOU.G0CK3GM6G8ON;QNPb@QBXV]VG][b[LbNd`QcdljhjXjmslvsq`v{}es}|~orw|&79
#\XOU.H0CF3FE6G8ON;^MP`@QBVT\XG[Ya]LbN`PbckigiWilqklrp_rtd}}~~~mp~v{}&71
#\XOU.@@1CF4HO7H9PO<ROQcARCY]ZWH^b_\McOeaRdemkikYkntswvvazxfty|{||~qtz&A8
#\XOU.@E1DDD5GM8I:MM=aPRSBSDUFWH^J\L^cffiRfmnooiYmqq^lqysv}~xxxi{~l~rwy|~&D6
#\XOU.@F1DDD5GN8I:LP=aPRSBSDUFWH^J\L^cffiRfmnooiY|mrr^lqx{|tz{~i{~l~rwy|~&E2
#\XOU.@G1DCM5GO8I:MM=aPRSBSDUFWH^J\L^cffiRfmlhmoY~pu^lrvusyx|~xi{l~rwy|~&D8
#\XOU.@H1DCH5GO8I:LL=aPRSBSDUFWH^J\L^cffiRfmlfhlYs~tu^lxsrvw}v{hzkpuwz|&7A
#\XOU.@I1DDE5HH8I:MM=aPRSBSDUFWH^J\L^cffiRfmkkjqYnn^lsyyyu~vw~i{lrwy|~&FB
#\XOU.A@1DCL5GN8I:LP=aPRSBSDUFWH^J\L^cffiRfmiinnYrv^qyzyy|~fxziw|~nsuxz&13
#\XOU.AA1DCE5GM8I:LT=aPRSBSDUFWH^J\L^cffiRfmgjliYols^lqvsvxywxxi{l~~rwy|~&C4
#\XOU.AB1DCK5GM8I:LP=aPRSBSDUFWH^J\L^cffiRfmghmlY{l}r^xttyxvuzgyjxpuwz|&71
#\XOU.AC1DDH5GO8I:NM=aPRSBSDUFWH^J\L^cffiRfmgfpiYlmoq^lsqv|}uywxi{lrwy|~&C2
