$[AGT],ipath,/data/misc/
$PMTK013,AgpsMachine,set,0,result,0*17
$[AGT],GSET=0
$[AGT],rm,6,rt,4
$[AGT],SAP,Eidle
$[AGT],e=1,b=1,s=1,aosp=1
028210.600,HBD,IF1,BOT,UInitCf,1,0,0,16,100,0,255,2000,26000000,115200,1000,0,-2147483456,ffff6753,2

028210.600,HBD,IF1,BOT,MNLVer,_u1MTKChipID=1
028210.604,HBD,IF1,GPS,NVFile,Opened
028210.607,HBD,IF1,GPS,NVFile,g_BMAP_NVfile_Operation_load,0
028210.607,HBD,IF1,ALO,AlcInit,
028210.607,HBD,IF1,ALO,AlSCIni,
028210.607,HBD,IF1,ALO,PMCmod4,0
028210.607,HBD,IF1,ALO,EdInitD,
028210.607,HBD,IF1,ALO,PmcInit,
028210.607,HBD,IF1,ALO,VtCfgDb,20,20,4294967295
028210.607,HBD,IF1,BOT,InitCfg,1,115200,115200,26000000,255,0,0,0.000000,0.000000
028210.607,HBD,IF1,BOT,BotUrV2,BINFO(): x,-2147483456,y,ffff6753,
028210.607,HBD,IF1,BOT,BotUrV2,BINFO(): MT6753_ DSP
028210.607,HBD,IF1,BOT,BotUrV2,_BINFO(): B,-149904296,L,61448
028210.611,HBD,IF1,BOT,BotUrV2,RFG,3,0,3
028211.092,HBD,IF1,BOT,ClkType,255
$PMTK015,28211094,1,GPS_INIT_DONE*70
028211.094,HBD,IF1,MSG,MNLInit,OK
$[AGT],GSET=1
$[AGT],rm,1,rt,11
$[AGT],inco
$[AGT],rm,0
$[AGT],remd == 0
028211.094,HBD,IF1,COM,WaitDtt,RECEIVE 1st DTT

#MZYQ.D@1C3&19

$PMTK010,001*2E

$PMTK010,002*2D
$PMTK013,INF,0,128,4,128*59
$PMTK015,28211094,4,28211090,PMTK764,0,0,0,2,0,128,4,128*37
$$PMTK764,0,0,0,2,0,128,4,128*15
028211.096,HBD,IF1,GPS,FrstDtt,00,00
$PMTK015,28211095,2,FIRST_DBTT*2F
028211.096,HBD,IF1,GPS,TkDltIn,0,0,0

#MZYQ.@@1B3D5&64
$SELF_ATOW,0,1*4F
028211.096,HBD,IF1,TIM,HALTIME,0,
028211.096,HBD,IF1,TIM,HALTSTA,0,
028211.096,HBD,IF1,TIM,IdbtsDa,RTCstatusA,0,fgSysTimeOK,1,UseSystime,0,LoadRTCUpdateOK,RTC_age,1702
028211.096,HBD,IF1,TIM,IdbtsDa,RTCstatusB,0,fgSysTimeOK,1,UseSystime,0
028211.096,HBD,IF1,TIM,DtsAcRT,PRTC,Load,Wn,1881,Tow,136395.994482606,RtcD,-10.656,
$IRTC,i2RtcTimeLastWn,1881,dfRtcTimeLastTow,136378.975067,*20
$IRTC,i2RtcTimeLastWn,1881,dfRtcTimeLastTow,136395.975970,*2C
$IRTC,dfDltTow1,1684.973206,*2F
$IRTC,dfDltTow2,1684.991160,*23
$IRTC,i2GpsWn2,1881,dfGpsTow2,138080.985643,*25
028211.096,HBD,IF1,TIM,DtsAcRT,PRTC,Load,GWn,1881,GTow,138080.985642547,RWn,1881,RTow,136395.975970097,RtcD,-10.656,
$IRTC,dfDltTow,1684.991160,HTTFF_163,0,_fgEnableAccIGPST,1*78

#MZYQ.D@1B3&18
028211.096,HBD,IF1,TIM,IdtsAcT,1,1881,138080.985000000,9,1685.0,

#MZYQ.DD1B3&1C

#MZYQ.CB1D3&1B
$QEPO_Request*05

#MZYQ.DB1C3&1B
$[AGT],GSET=1
$[AGT],rm,1,rt,10
$[AGT],inco
$[AGT],rm,0
$[AGT],remd == 0
028211.100,HBD,IF1,TIM,NWloc,fgfirstUseNW,0,case,0,NWAID,0,NWUSE,0
$Boost, hotstart*5A
028211.100,HBD,IF1,AGP,BOOST,Posdiff:157625165545472.000000,0.000000,num:0,PosConverge,0,BoostRemT,20.000
$LOC_Cache_BIT,00000000*7F
$DBnm_NLP,[24.975730,121.327973,0,20.000000][2016/1/25,14:11:10][0][0]*3F
$NLP_from_file,[24.975730,121.327973,0,20.000000][2016/1/25,14:11:10][1881,137487.000000]*7F
$Cache_age,1684,NLP_age,594,NV_age,1684*2E
$NLP_Aid*41
#DBTP 11 1 9 2497572 12132797 152 1881 138080995 1137766284 &9C

#MZYQ.C@1C3&18
028211.100,HBD,IF1,AGP,AGPSMGN,Posdiff:157625165545472.000000,0.000000,num:0,PosConverge,0,AGPSRemT,16.000

#MZYQ.AA1D3&18
028211.100,HBD,IF1,GPS,EpoLoad,HOST_EPO,BAD_Load,ffffffff,316043,45

#MZYQ.AE1I3&21

#XPda.@@BC3&42
028211.100,HBD,IF1,GPS,FTModeC,FT_Mode,1,Send_Comd
028211.100,HBD,IF1,AGP,AGPSMGN,AGPSMode:-1,AGPSTimer:0.000
$PMTK015,28211101,10,21,AMode,-1,ATimer,0.000,Remain,16.000*63
$PMTK015,28211101,6,21,NACQ,0,NBS,0,NSFS,0,NEXS,0*6D
$HBD,INF,RTC,F,0,Y,16,M,1,D,25,H,14,M,21,Sec,3,Sub,31073,T,1,SM,7703*32
$DBts1,TSOK,0,WNSet,1,TOWS,9,WN,1881,BAcc,1183216.000,TAcc,1220038.000,*68
$DBts2,TTK,11,TOW,138080.995000000,B,-0.000171921,D,0.000001196,*28
028211.100,HBD,IF1,ALO,CdmPvtU,
$HBD,INF,RTC,F,0,Y,16,M,1,D,25,H,14,M,21,Sec,3,Sub,31073,T,1,SM,7703*32
$PMTK013,21,set epo bitmap,R:1,F:1 *1C
$GNGGA,142103.995,2458.5438,N,12119.6784,E,0,0,,137.6,M,15.0,M,,*5C
$GPGSA,A,1,,,,,,,,,,,,,99.99,99.99,99.99*30
$GLGSA,A,1,,,,,,,,,,,,,99.99,99.99,99.99*2C
$GPGSV,3,1,12,08,72,313,,27,53,022,,11,40,198,,16,33,059,*78
$GPGSV,3,2,12,23,30,225,,09,29,266,,07,29,322,,193,22,148,*45
$GPGSV,3,3,12,01,20,186,,26,15,082,,22,01,122,,30,01,319,*75
$GLGSV,1,1,0*55
$GNRMC,142103.995,V,2458.5438,N,12119.6784,E,0.000,0.00,250116,,,N*5F
$GNVTG,0.00,T,,M,0.000,N,0.000,K,N*2C
$GNACCURACY,143.2*12
$PMTKDGP,0*4D
$PMTKDBG,11,0,1,0,0,0,1,0,0,0,1,0,0,0,0,0,0,0,0,1,1,1,1,1,0,0,0,0,1,0,0,0,0,0026,0014,0002,0000,0000,0022,0001,0000,0.0000,1.1963,0.0000,0.0000,0.0000,0.0000,*4C
$PMTKDB2,0000,0000,0000,0000,0000,0000,0000,0100,20512.87,0000.00,11963.52,1220038.00,0000.00,-171.92,00-0.28,0000.00,*27
$PMTKEPH,13,3,8,9,14,16,21,22,23,26,27,29,31,32*66
$PMTKALM,32,1,2,3,5,6,7,8,9,10,11,12,13,14,15,16,17,18,19,20,21,22,23,24,25,26,27,28,29,30,31,32,193*51

#WXM[.?0A2C4E6G8I:K<M>O@QBSDUFWHYJ[L]N_PaRcTeVgXiZk\m^o`qbsdufwhyj{l}npy&39

#NM^Z.BB1CD4F6G8I:K<M>&DD
#\XOU.AF1B3D5F7H9JKLM>O@QBSDUFWHYJ[L]^_`QbSdUfWhijk\m^o`qbstuvgxizk|m~oq&32
#\XOU.BG1B3D5F7H9JKLM>O@QBSDUFWHYJ[L]^_`QbSdUfWhijk\m^o`qbstuvgxizk|m~oq&34
#\XOU.CH1B3D5F7H9JKLM>O@QBSDUFWHYJ[L]^_`QbSdUfWhijk\m^o`qbstuvgxizk|m~oq&36

#NM`a.@A1C3D5F7H9J;L=NOPQRSTUFWHYJ&F1

#NMMN.@0>CKLI6KKLR;MN>XRQWVDVWGXIcK]`f_ha`lmjVgX&D6
#KL_c.@0BFGLLNH8JQMS=QXVAWTVEVGXIb[\^N&21
#KL_c.F0BFHEJKO8JMPL=QXVAWTVEVGXIb[\^N&1B
#KL_c.G0BFHMKOO8FLMQR>RYWBXUWFXHYJc\]_O&5C
#KL_c.H0BFHEKMG8FLRMO>RYWBXUWFXHYJc\]aO&4B
#KL_c.@A1CGIHLKH9KNMM>RYWBXUWFWHYJc\]_O&3C
#KL_c.@F1CGIGHKO9GNNMW?SZXCYVXGYIZKd]^`P&7A
#KL_c.AB1CGHGIHI9GQPQ>RYWBXUWFXHYJc\]aO&40
#KL_c.AC1CGIGLKL9GOMNR?SZXCYVXGYIZKd]^bP&77
#KL_c.AF1CGHKLJN9GNRUQ?SZXCYVXGYIZKd]^bP&88
#KL_c.AG1CGILIML9GNUVR?SZXCYVXGYIZKd]^`P&8C
#KL_c.B@1CGHFMPP9KPSO>RYWBXUWFWHYJc\]_O&52
#KL_c.@ID2DHEIHMO:HMSVV@T[YDZWYHYJ[Le^_aQ&B2
#KLbg.?0BD3L5HN8JP;NP>X@SXCVWFXYIaK]faOaQecT&E1
#KLbg.@0BF3FEG7JIL;NMQ?RQVCVU[GZY`K^]eObajSfeoWjjj[nno_rrtcvvygzz~k&20

#NMO_.UVWXYZ[\7^_`abcde@ghijklmnIpqrstuvwRyz{|W~`e&3B

#NM`].@A1C3M5HKQPORN=OQQTTZ]\FX][J\de_OadjcleopmYklotuuvszwdrx~zj{l&0B
#NP\U.B0BCFKLLHQLL;`SSOPQBSDUFWHYJ^a__efQxyxiV}|~k}l]qtputtdxy}{|krxƻºЭɴ̻&D0
#NP\U.G0BCFKLLLIOL;`SSOPQBWiZ^XmIkb`]bcPwihwjoWyo}}l~^pssyxe|jqx˵Ҽ&97
#NP\U.H0BCFKLLLIQP;`SSOPQBWiZ^XmIkb`]bcPwihwjoWyo}}lp^txssyzez{h|nu|ȤʾӲ˶߽&02
#NP\U.@D1CDGLMLPQQS<aTTPQRCTEVGXIZK^__uqeRyzzyW}}po\oprcwz|j}~qxƴȹʺЫ͹&16
#NLXZ.@0AB3EMNH8MKMUMN?TfRhUXFml]o[\Mo``tvvT{{z{{s[mprbyz|{hzz{|n&5E
#NLXZ.A0AB3EMNH8MLR`^U?TfRSWVFml\o[\Mo``ufiT{zg|pq[}trxtbtyi~|}p&C6
#NLXZ.B0AB3EMNH8MMKNTS?TfRdiUFml^k[\Mo``uvtTgojk~p[sttqsbzzwwip&F0
#NLXZ.D0AB3EMNH8MOMQVQ?TfRU[gFml]m[\Mo``ugwTgnzpqs[mpwpxbz{~i|}p&A3
#NLXZ.E0AB3EMNH8MPKNOP?TfRgj^Fml]o[\Mo``tseT{{nlzk[}quosybvzuyi{||}p&9A
$[AGT],GSET=1
$[AGT],rm,1,rt,1
$[AGT],inco
$[AGT],rm,0
$[AGT],remd == 0
028211.102,HBD,IF1,COM,WtDtCnt,0
$[AGT],GSET=1
$[AGT],rm,1,rt,7
$[AGT],fgFirstReq:1
$[AGT],bitmap,old:   0,new: 308
$[AGT],inco
$[AGT],srm,1,dsm,4,tp,7,length,12
$[AGT],tp,776,wn,1881,tw,138080,si,12
$[AGT],rm,2
$[AGT],state:7
$[AGT],wn:1881, tw:138080
$[AGT],ergt
$[AGT],
$[AGT],Esgt 1137715200
$[AGT],epegt
$[AGT],gfisiz()
$[AGT],egtEf,1140307200
$Rdon
$[AGT],res,1137766880,sst,1137715200,egsn,1140307200
$[AGT],wk,epo
$[AGT],s,1,m,1
$[AGT],idle
$@#$^ [AGNT] pEd
$[AGT],opmode GLO(1),GEL(0),DB(0)
$[AGT],tw,138080,gs,1137766880
$[AGT],eextd
$[AGT]start verify
$[AGT],gfisiz()
$[AGT]FileType:GPS+GLO
$[AGT],
$[AGT],epegt
$[AGT],gfisiz()
$[AGT],Extract epo done
028211.104,HBD,IF1,MSG,AidEPO,SV,1,ret,1
$[AGT],GSET=0
$[AGT],rm,4,rt,8
$[AGT],inco
028211.104,HBD,IF1,MSG,AidEPO,SV,2,ret,1
$[AGT],srm,4,dsm,4,tp,8,length,12
028211.104,HBD,IF1,MSG,AidEPO,SV,3,ret,1
$[AGT],tp,776,wn,1881,tw,138080,si,12
$[AGT],rm,3
$[AGT],state:6
028211.104,HBD,IF1,MSG,AidEPO,$[AGT],wn:1881,tw:138080
SV,4,path_2NG,ValidEPO,1,u4CurrGpsSecs,1137766880,u4GpsSecs,1137758400,seq,45,NAseq,0,Age_Epo,14,Naage,0,NaValidGEPO,0
028211.104,HBD,IF1,MSG,AidEPO,SV,5,ret,1
028211.104,HBD,IF1,MSG,AidEPO,SV,6,ret,1
028211.104,HBD,IF1,MSG,AidEPO,SV,7,ret,1
028211.104,HBD,IF1,MSG,AidEPO,SV,8,ret,1
028211.104,HBD,IF1,MSG,AidEPO,SV,9,ret,1
028211.104,HBD,IF1,MSG,AidEPO,SV,10,ret,1
028211.104,HBD,IF1,MSG,AidEPO,SV,11,ret,1
028211.104,HBD,IF1,MSG,AidEPO,SV,12,ret,1
028211.104,HBD,IF1,MSG,AidEPO,SV,13,ret,1
028211.104,HBD,IF1,MSG,AidEPO,SV,14,ret,1
028211.104,HBD,IF1,MSG,AidEPO,SV,15,ret,1
028211.104,HBD,IF1,MSG,AidEPO,SV,16,ret,1
028211.104,HBD,IF1,MSG,AidEPO,SV,17,ret,1
028211.104,HBD,IF1,MSG,AidEPO,SV,18,ret,1
028211.104,HBD,IF1,MSG,AidEPO,SV,19,ret,1
028211.104,HBD,IF1,MSG,AidEPO,SV,20,ret,1
028211.104,HBD,IF1,MSG,AidEPO,SV,21,ret,1
028211.104,HBD,IF1,MSG,AidEPO,SV,22,ret,1
028211.104,HBD,IF1,MSG,AidEPO,SV,23,ret,1
028211.104,HBD,IF1,MSG,AidEPO,SV,24,ret,1
028211.105,HBD,IF1,MSG,AidEPO,SV,25,ret,1
028211.105,HBD,IF1,MSG,AidEPO,SV,26,ret,1
028211.105,HBD,IF1,MSG,AidEPO,SV,27,ret,1
028211.105,HBD,IF1,MSG,AidEPO,SV,28,ret,1
028211.105,HBD,IF1,MSG,AidEPO,SV,29,ret,1
028211.105,HBD,IF1,MSG,AidEPO,SV,30,ret,1
028211.105,HBD,IF1,MSG,AidEPO,SV,31,ret,1
028211.105,HBD,IF1,MSG,AidEPO,SV,32,path_2NG,ValidEPO,2,u4CurrGpsSecs,1137766880,u4GpsSecs,1137758400,seq,45,NAseq,0,Age_Epo,14,Naage,0,NaValidGEPO,0
028211.105,HBD,IF1,MSG,AidGLEP,SV,1,ret,1
028211.105,HBD,IF1,MSG,AidGLEP,SV,2,ret,1
028211.105,HBD,IF1,MSG,AidGLEP,SV,3,ret,1
028211.105,HBD,IF1,MSG,AidGLEP,SV,4,ret,1
028211.105,HBD,IF1,MSG,AidGLEP,SV,5,ret,1
028211.105,HBD,IF1,MSG,AidGLEP,SV,6,ret,1
028211.105,HBD,IF1,MSG,AidGLEP,SV,7,ret,1
028211.107,HBD,IF1,MSG,AidGLEP,SV,8,ret,1
028211.107,HBD,IF1,MSG,AidGLEP,SV,9,ret,1
028211.107,HBD,IF1,MSG,AidGLEP,SV,10,ret,1
028211.107,HBD,IF1,MSG,AidGLEP,SV,11,ret,1
028211.107,HBD,IF1,MSG,AidGLEP,SV,12,ret,1
028211.107,HBD,IF1,MSG,AidGLEP,SV,13,ret,1
028211.107,HBD,IF1,MSG,AidGLEP,SV,14,ret,1
028211.107,HBD,IF1,MSG,AidGLEP,SV,15,ret,1
028211.107,HBD,IF1,MSG,AidGLEP,SV,16,ret,1
028211.107,HBD,IF1,MSG,AidGLEP,SV,18,ret,1
028211.107,HBD,IF1,MSG,AidGLEP,SV,19,ret,1
028211.107,HBD,IF1,MSG,AidGLEP,SV,20,ret,1
028211.107,HBD,IF1,MSG,AidGLEP,SV,21,ret,1
028211.107,HBD,IF1,MSG,AidGLEP,SV,22,ret,1
028211.107,HBD,IF1,MSG,AidGLEP,SV,23,ret,1
028211.107,HBD,IF1,MSG,AidGLEP,SV,24,ret,1
$[AGT],BGAI
$[AGT],0,av:80,b_sky:1
$[AGT],1,av:86,b_sky:0
$[AGT],2,av:118,b_sky:0
$[AGT],3,av:0,b_sky:1
$[AGT],4,av:86,b_sky:0
$[AGT],5,av:86,b_sky:0
$[AGT],6,av:86,b_sky:1
$[AGT],7,av:86,b_sky:0
$[AGT],8,av:88,b_sky:0
$[AGT],9,av:68,b_sky:0
$[AGT],10,av:80,b_sky:1
$[AGT],11,av:118,b_sky:0
$[AGT],12,av:0,b_sky:0
$[AGT],13,av:70,b_sky:0
$[AGT],14,av:116,b_sky:0
$[AGT],15,av:70,b_sky:0
$[AGT],16,av:82,b_sky:0
$[AGT],17,av:68,b_sky:0
$[AGT],18,av:84,b_sky:0
$[AGT],19,av:86,b_sky:0
$[AGT],20,av:66,b_sky:0
$[AGT],21,av:68,b_sky:0
$[AGT],22,av:120,b_sky:0
$[AGT],23,av:66,b_sky:0
$[AGT],24,av:68,b_sky:0
$[AGT],25,av:70,b_sky:0
$[AGT],26,av:86,b_sky:0
$[AGT],27,av:82,b_sky:0
$[AGT],28,av:120,b_sky:0
$[AGT],29,av:86,b_sky:1
$[AGT],30,av:70,b_sky:0
$[AGT],31,av:120,b_sky:0
$[AGT],Eend:1, Send:1, ct:4
$[AGT],wkbee
$[AGT],s,1,m,2
$[AGT],idle
$@#$^ [AGNT] sBi
028212.098,HBD,IF1,TIM,DSP,u1ChnNum,37,u2DataSize,57
028212.098,HBD,IF1,COM,BinDecX,65065
028212.098,HBD,IF1,TIM,DSP,u1ChnNum,48,u2DataSize,57
028212.098,HBD,IF1,COM,BinDecX,65065
028212.098,HBD,IF1,GPS,TkDltIn,11,13,2
028212.100,HBD,IF1,TIM,NWloc,fgfirstUseNW,0,case,0,NWAID,0,NWUSE,0
028212.100,HBD,IF1,AGP,BOOST,Posdiff:44.153385,7.562877,num:0,PosConverge,0,BoostRemT,19.000
$MTK_GPS_BEST,5,1011,PR,4,TT4SV,1011*24
$LOC_Cache_BIT,00000002*7D
$DBnm_NLP,[24.975730,121.327973,0,20.000000][2016/1/25,14:11:10][0][1]*3E
$Cache_age,1685,NLP_age,-99,NV_age,597*0A
028212.100,HBD,IF1,AGP,AGPSMGN,Posdiff:44.153385,7.562877,num:0,PosConverge,0,AGPSRemT,16.000

#XPda.A@BC3&43

#MZYQ.@B1IWZ5H7NP_P<&00

#MZYQ.AH1HG4&57
028212.100,HBD,IF1,AGP,AGPSMGN,AGPSMode:-1,AGPSTimer:0.000
$PMTK015,28212100,10,1021,AMode,-1,ATimer,0.000,Remain,16.000*60
028212.100,HBD,IF1,AGP,AGPSMGN,DOP.H :4.894526,PosCon:0,[763.332092,134.165878,296.405853]
$PMTK015,28212102,6,1021,NACQ,4,NBS,4,NSFS,0,NEXS,0*6C
$HBD,INF,RTC,F,0,Y,16,M,1,D,25,H,14,M,21,Sec,4,Sub,31125,T,1003,SM,1177*07
$DBts1,TSOK,0,WNSet,1,TOWS,10,WN,1881,BAcc,370.037,TAcc,297477.562,*6D
$DBts2,TTK,1011,TOW,138081.995000000,B,-0.000399979,D,0.000001251,*29
028212.102,HBD,IF1,ALO,CdmPvtU,
$HBD,INF,RTC,F,0,Y,16,M,1,D,25,H,14,M,21,Sec,4,Sub,31125,T,1003,SM,1177*07
$GNGGA,142104.995,2458.5379,N,12119.6786,E,1,4,4.89,137.9,M,15.0,M,,*4A
$GPGSA,A,3,27,08,16,09,,,,,,,,,4.99,4.89,0.96*0F
$GLGSA,A,3,,,,,,,,,,,,,4.99,4.89,0.96*10
$GPGSV,3,1,12,08,72,313,27.7,27,53,022,32.0,11,40,198,,16,33,059,24.6*65
$GPGSV,3,2,12,23,30,225,,07,29,322,,09,29,266,25.7,193,22,148,*5B
$GPGSV,3,3,12,01,20,186,,26,15,082,,22,01,122,,30,01,319,*75
$GLGSV,2,1,6,83,84,294,,80,60,072,,73,40,346,,84,31,214,*5B
$GLGSV,2,2,6,82,30,026,,79,13,126,*57
$GNRMC,142104.995,A,2458.5379,N,12119.6786,E,14.693,167.46,250116,,,A*7B
$GNVTG,167.46,T,,M,14.693,N,27.226,K,A*2B
$GNACCURACY,27.8*2B
$PMTKDGP,0*4D
$PMTKDBG,1011,0,1,0,0,0,0,0,1,0,1,0,0,0,0,0,0,0,0,1,1,1,1,1,0,0,0,0,0,0,0,0,0,0026,0014,0002,0004,0004,0000,0001,0000,0.0000,1.2507,0.0000,0.0000,0.0000,0.0000,*41
$PMTKDB2,0C16,0000,0000,0000,0000,0000,0000,0000,0775.03,1257.34,12507.33,297477.56,00-2.64,-399.98,00-0.28,0000.00,*41
$PMTKEPH,40,-1.2.4,3,-7.2.4,8,9,-11.2.4,14,16,21,22,23,26,27,29,-30.2.4,31,32,-65.2.4,-66.2.4,-67.2.4,-68.2.4,-69.2.4,-70.2.4,-71.2.4,-72.2.4,-73.2.4,-74.2.4,-75.2.4,-76.2.4,-77.2.4,-78.2.4,-79.2.4,-80.2.4,-82.2.4,-83.2.4,-84.2.4,-85.2.4,-86.2.4,-87.2.4,-88.2.4*69
$PMTKALM,32,1,2,3,5,6,7,8,9,10,11,12,13,14,15,16,17,18,19,20,21,22,23,24,25,26,27,28,29,30,31,32,193*51

#WXM[.?0A2C4E6G8I:K<M>O@QBSDUFWHYJ[L]N_PaRcTeVgXiZk\m^o`qbsdufwhyj{l}npy&39
#NMQR.A0AC3H5FHMI^Q]QOePfR[TUVWXa_[\^asvcbxmywxj~rmq^qttzz~zϾϾ԰³Ŷɹмο&5D
#NMQR.A0AD3D5FHMI^Q]QOePfRUTUVW_Yc[`robvebxvgnjknr~}p^xqqyxu|zx}ŲǻϾ԰³Ŷʹͼο&85
#NMQR.A0AE3D5FHMI^Q]QOePffWjkVWm]o]rqc_`ebxd{x{klrsno^uuqrvtuzx}Ǿýξ԰³Ŷ˹ͼο&33
#NMQR.A0AG3D5FHMI^Q]QOePfSiTUVW^lZpqpdq`ebxejzxko|pv^qqtuuyįǽνľ԰³Ŷȹ̼ο&E5
#NMQR.A0AH3D5FHMI^Q]QOePfUYTUVW]]kn]^otvdbxwzgojomo^vqr{z~{}}Ŵо԰³Ŷȹ˼ο&0F
#NMQR.A0AI3H5FHMI^Q]QOePfhVjkVWi]ol_q`d`bbxlfxlj{o|lm^xpqvuv{|ŵϼо԰³Ŷȹ˼ο&B1
#NMQR.A0AJ3D5FHMI^Q]QOePfhVjkVWaY]^rqervrbxfk{jkm~qm^qru}ŷǹϾ԰³Ŷȹμο&19
#NMQR.A0AK3D5FHMI^Q]QOePfVWTUVWZaao\depvvbxziykkplosv^upqrw{õƷƷǻ˿԰³Ŷɹͼο&CC
#NMQR.A0BB3D5FHMI^Q]QOePfhUjkVWja`]\c`h`fbxhnjkkl{~ru^rpqr||uzw{µóɻǿϿνϾ԰³Ŷʹμο&04
#NMQR.A0BC3H5FHMI^Q]QOePfhSjkVW^Ybpmq^evabxlkjhlkjq}~^tqzuy|}ȷҿ԰³Ŷ̹Ҽο&08
#NMQR.A0BD3D5FHMI^Q]QOePfSZTUVWZ]k^^s_g`vbxkgkxjrp}r^rqtxuu}³Ƶͻ԰³Ŷ˹ϼο&6D
#NMQR.A0BE3D5FHMI^Q]QOePfg\jkVW[l^nqepgvtbxum||kl~~mu^sqtz|}ķŲǼϽҽ԰³Ŷȹμο&17
#NMQR.A0BF3D5FHMI^Q]QOePfgfjkVW^]oo\]tbvtbxzhzjknqtn^qqqvtw|~|źɹǻϼӾ԰³Ŷȹ˼ο&99
#NMQR.A0BG3D5FHMI^Q]QOePfhSjkVW\Yacpfeuvvbxxgfxkosuq^xvqvuv~|ĶȻϼ԰³Ŷɹμο&E8
#NMQR.A0BH3D5FHMI^Q]QOePfSfTUVWkaZornrb`wbxeyfkjz|lnu^vrqvuu{~ǼɺϾ԰³Ŷȹͼο&82
#NMQR.A0BI3D5FHMI^Q]QOePfh\jkVW^anlqb^uvrbxzjw|kjmn^qw{}ĲŴǺϾ԰³Ŷȹ̼ο&9A
#NMQR.A0BJ3D5FHMI^Q]QOePfTUTUVWllac_rfa`fbxgijlkz|}rv^qzzuzz{ŴǻǾлž԰³Ŷɹмο&81
#NMQR.A0BK3D5FHMI^Q]QOePfhijkVWXa]pnoghvibxlikhkjq}pm^rqww}zļǼϼҾ԰³Ŷȹ̼ο&30
#NMQR.A0CB3D5FHMI^Q]QOePfS[TUVW_lo\__p``ebxxlnyk{jlp^uwqtzxuz{ǼǺϻýþ԰³Ŷɹ̼ο&0F
#NMQR.A0CC3D5FHMI^Q]QOePfgijkVWlYbdnqbavbbximopklnpu^rqvx~{Ʋμ԰³Ŷ̹Ҽο&DA
#NMQR.A0CD3D5FHMI^Q]QOePffUjkVWk]_]_bbs`fbxdxygk|ql^pquywuzǺ̻о԰³Ŷɹ˼ο&E6
#NMQR.A0CE3D5FHMI^Q]QOePfgijkVW]la`qoaevvbxwfg|k{krp^qwyzøŹǸлҾ԰³Ŷɹͼο&AC
#NMQR.A0CF3D5FHMI^Q]QOePfhejkVWZab`rrbb`abxumi}kj|pm^wqtz{}}ôǿλž԰³Ŷɹμο&98
#NMQR.A0CG3D5FHMI^Q]QOePfeZjkVWkY\nr_da`vbxinm}j{rt~t^wuqt|uu~|ĵĽͻ԰³Ŷɹͼο&16
#NMQR.A0CH3D5FHMI^Q]QOePfYSjkVWaa_aq_caaabxhkwhki}on^uqrzu~~ĳǽϿ԰³Ŷȹ̼ο&6F
#NMQR.A0CI3D5FHMI^Q]QOePfSiTUVWja`m\dgqvrbxzkkiklj|~^pqst}~úĴǺûξ԰³Ŷȹ̼ο&7A
#NMQR.A0CJ3D5FHMI^Q]QOePfSZTUVWil]p`^dd`ubxeihzjrl~q^ovqtyu}~ĴʸϿν԰³Ŷɹ̼ο&9C
#NMQR.A0CK3D5FHMI^Q]QOePfR[TUVWiYbmabshvibxizwmkimso^wqrt{~÷ƵɸǼϾ԰³ŶʹԼο&4C
#NMQR.A0DB3H5FHMI^Q]QOePfT[TUVWn]cn\o`f`cbxlhkzjrqs^wqr{uw}~ôѾ԰³Ŷȹ˼ο&F3
#NMQR.A0DC3D5FHMI^Q]QOePfhUjkVW\Y`o^bs_`bbxlemjj{qlq^tvqvw|uwzȼҾ԰³Ŷȹ˼ο&8B
#NMQR.A0GG3D5FHMI^Q]QOePfRWTUVWXampqpdf`cbxzkojiknt~p^stqruxy~Ʒȹ԰óŶȹмӿ&39
#NMQR.A0GH3D5FHMI^Q]QOePfSSTUVWall^]cdb`cbxhijoii~~^uqr{uxy|ĵŸȻϿ԰ƳŶȹмӿ&57

#NM^Z.BB1CCEF6H8JKM<NNT@QBSD&08
#\XOU.?0CI3GJ6G8ON;RNP`@QBYZUF]^YJ`L^cOicbhhUokhrrl\vopaouz|}~l~oty|&FB
#\XOU.@0I2FE5F7NM:QMO_?PAVWTEZ[XI_KbMga`ffSmiijioZ}o_mrwvt}~}yyj}~mrwy}&1F
#\XOU.A0BH3FM6G8ON;SNP`@QBUZUFY^YJ`LaNhbaggTnilpon[suw`nttzxy}xyk}nsx{&50
#\XOU.B0J2FD5F7MM:SMO_?PAZSD]VG]I\Ke_^ddQkfmhngXm]kpxtwzvz{~hzk}}pux|~&9B
#\XOU.AF1DF4E6G8I:]MMN?PARCTEYGXIc]\bbOiebigeVmqn[iotxvrwttyfxizk|}~prtv{}&BF
#\XOU.BG1DCF5F7H9J;QMNO@QBSDUFZHYJ[L__gdfdSvkykXfmquopxxsvcuyfwhyz{|m~oqsxz}&4F
#\XOU.CH1DI4E6G8I:]MMN?PARCTEYGXIc]\bbOidfifgVxykj[iorvpxrzvufx|izk|}~prtv{}&BA

#NM`a.@@BC3E5F7H9J;L=N?PQRSTUVWHYJ[L&52
#NLPT.AG1CF4EFGK9KIR=NMPQRCVVV\HYX[\M^]`abSeedooY&D5
#NLPT.G0BE3DEFJ8JHR<MLOPQBWY]YGXWZ]L]\_`aRdgclmX&B3
#NLPT.@F1CF4EFGK9KIS=NMPQRC]ZWW]IW[Z]_O`_bcdUhmfmp[&40
#NLPT.H0BE3DEFJ8JHL<MLOPQB\YY^[HVZY\_N_^abcTjgekjZ&0F
#NLPT.AC1C3&06

#NMMN.@0>CLJN6KHIL;MMOP@ZTSYYFXYIZK]]N`cibkecopmYj[&59
#KL_c.@0JEJIFI7IORL<SN?TWBUDUF_XY]K&85
#KL_c.F0JFCFNH7IKMT<SN?TWBUDUF_XY]K&88
#KL_c.G0JFKHHG7EKMNT=TO@XBTDUF_XY[K&84
#KL_c.H0JFCHEI7EKQTS=TO@ZBTDUF_XY]K&89
#KL_c.@A1KGFHMJ8JLQL=TO@UXCVEVG`YZ\L&AD
#KL_c.@F1KGDNMP8FMMUU>UPA[CUEVG`YZ\L&C4
#KL_c.AB1KFEEJL8FQKN=TO@RRCUEVG`YZ^L&9E
#KL_c.AC1KGEHMM8FNLSR>UPA[CUEVG`YZ^L&B7
#KL_c.AF1KFIHLO8FMRRO>UPASSDVFWHaZ[_M&E7
#KL_c.AG1KGJEOM8FNKTV>UPAZCUEVG`YZ\L&C0
#KL_c.B@1KFDJIH8JNPN=TO@UXCVEVG`YZ^L&AC
#KL_c.@ID2KMFNOQ9GLSPQ?VQBTY[FWHYJc\]_O&59
#KL_c.A@G2GKGOOO9RLU=TO@VBUDUF_XY[K&90
#KL_c.A@I2GJMOIK9GOTON?VQBYDWFWHaZ[_M&E9
#KL_c.A@H2GKJFJK9GLUPN?VQBXDWFWHaZ[]M&DA
#KL_c.A@F2GKFLOO9GPSOU?VQBXDWFWHaZ[_M&ED
#KL_c.AAB2GKJOGO9GMMSW?VQBWDWFWHaZ[]M&E3
#KL_c.AAA2GKFMKQ9KOOR>UPAWCVEVG`YZ\L&B1
#KLbg.?0BJ3FFG7P9LKS=PV@RSCVU\GY_J]]]NacQdciUmWqYk[ns^qpybuveywhz~l&30
#KLbg.@0C2EDG6IHL:&5E

#\Qpou/ACJF4FHJHI:QQO>VPAV[DX_WHZ^\^eNa`jfSgmnoXlqot]tqxqbyv}|gx{lqv{&36

#NM`].@@BC3E5GG8KNTSRUQ@RTTWW]`_I[`^M_ghbRdgmfoirsp\norwxxyv}zgu{}m~o&95
#NP\U.@F1CDGLMMMJPM<aTTPQRCXj[_YnJlca^cdQxjixkpXzp~~_vttz{fxi|pw~ȥάȳϸο&90
#NP\U.AA1CDGLMMMIRR<aTSQQRCTEVGXIZKca``fgRyzz|Wz}rtqu^vtstueyz|~lszŸ½ʶԽ&A0
#NP\U.AB1CDGLMLOQSQ<aTTPQRCTEVGXIZKe^tpdQxyxgVjmnl~p]wotcwx}xj|qw~õĬֳݺ&F9
#NP\U.AC1CDGLMMMJPM<aTTPQRCXj[_YnJlca^cdQxjixkpXzp~~s_qxttz{fkryɨԿԴι&F6
#NLXZ.F0AB3EMNH8MQO]NN?TfSSe[Fml^_[\Mo``ubkTl|ol}[uovxbuw|i}|}p&BA
#NLXZ.G0AB3EMNH8MRKaUT?TfRf][Fml\Z[\Mo``tstTyixkj{[rtrb{xwwyi|}~p&BE
#NLXZ.H0AB3EMNH8MSKQMT?TfR[Z[Fml\`[\Mo``tteTjip}k}[pvsbxywxi{|o&51
#NLXZ.@@1BC4FNOI9N\LU`V@UgSfUiGnm_d\]NpaavdwUhphrj\uvtscv|zjp&DD
#NLXZ.@A1BC4FNOI9N]TQca@UghU]]GnmZa\]NpaautjU{}{{|l\pc{yj}~q&5C
#NLXZ.@B1BC4FNOI9N^NcQ`@UgTjW[Gnm`l\]NpaaucfUwyk~n~\nssuwcz{xj}}~q&EC
$[AGT],GSET=1
$[AGT],rm,1,rt,1
$[AGT],fsm,wm,2
$[AGT],rv PMTKRQTEPH,1881,138081,5,1,4,7,11,30
028212.107,HBD,IF1,BOT,MNLVer,AXN_3.70,1312,MNL_VER_15091601ALPS05_3.70_03,39,76
$[AGT],GSET=1
$[AGT],rm,1,rt,7
$[AGT],fgFirstReq:0
$[AGT],bitmap,old: 308,new: 108
$[AGT],skip re_agps_req
$[AGT],GSET=1
$[AGT],rm,4,rt,9
$[AGT],inco
$[AGT],sel SI
$[AGT],rm,4
$[AGT],state:4
$[AGT],state:4
$[AGT],wkssi
$[AGT],s,1,m,3
$[AGT],idle
$[AGT],send aosp AGPS req
$[AGT],GSET=0
$[AGT],rm,6,rt,3
$[AGT],receive pmtk
$PMTK015,28212180,4,1101,PMTK290,1,1,0*24
$PMTK730,0,0,0,1,0,0,0,0,1*2A
$PMTK015,28212180,4,1101,PMTK730,0,0,0,1,0,0,0,0,1*2B
$PMTK001,290,3*3B
$[AGT],GSET=0
$[AGT],rm,6,rt,3
$[AGT],receive pmtk
$PMTK015,28212368,4,1281,PMTK712,1881,138082.080000,3000.000,0,0,0,0.000*31
$AGPS,1281,TimeCompensate,0.900,WN,1881,TOW,138082.980000*72
Use_New_Time,0,count,1,715,12003,Local,1881,138081.995000 &43
TimeSetOK,0,WeekNO,1881,TOW,138082.980000,RMS,3.000000,TTick,1281 &85
SetNATime,1137766882 &54
$PMTK001,712,3*34
$[AGT],GSET=0
$[AGT],rm,6,rt,3
$[AGT],receive pmtk
$PMTK015,28212369,4,1281,PMTK710,03,001000,000000,000000,000000,000004,352166,00FFD4,FDE1B0,350421,33633A,3D1A84,03CC00,27CAEC,12E7A1,0E39F0,21667C,001B29,4312D1,FFD827,13907D,195E76,FC71B2,FFA7E3,3517F4*10
#DEPH 3 1137766381 1000 0 0 0 4 352166 FFD4 FDE1B0 350421 33633A 3D1A84 3CC00 27CAEC 12E7A1 E39F0 21667C 1B29 4312D1 FFD827 13907D 195E76 FC71B2 FFA7E3 3517F4 &59
$PMTK001,710,3*36
$[AGT],GSET=0
$[AGT],rm,6,rt,3
$[AGT],receive pmtk
$PMTK015,28212370,4,1291,PMTK710,08,001000,000000,000000,000000,00000A,1B2164,00FFF3,FD3334,1BFA75,34C151,776DFD,FB1B00,E76BF2,0255A1,0D196A,21647C,FFFED3,B34277,FFFA27,2F9F4B,2CB0C5,40665B,FFA2B0,1BFB74*15
#DEPH 8 1137766381 1000 0 0 0 A 1B2164 FFF3 FD3334 1BFA75 34C151 776DFD FB1B00 E76BF2 255A1 D196A 21647C FFFED3 B34277 FFFA27 2F9F4B 2CB0C5 40665B FFA2B0 1BFB74 &89
$PMTK001,710,3*36
$[AGT],GSET=0
$[AGT],rm,6,rt,3
$[AGT],receive pmtk
$PMTK015,28212371,4,1291,PMTK710,09,001000,000000,000000,000000,000003,582166,000044,077F08,58FE54,37581F,284BA2,FE4C00,4FB079,09AFA1,0D2205,21667C,FFFB53,AE2BDB,000326,ECC41C,23D34D,56C871,FFA4D5,58F3C8*13
#DEPH 9 1137766381 1000 0 0 0 3 582166 44 77F08 58FE54 37581F 284BA2 FE4C00 4FB079 9AFA1 D2205 21667C FFFB53 AE2BDB 326 ECC41C 23D34D 56C871 FFA4D5 58F3C8 &D8
$PMTK001,710,3*36
$[AGT],GSET=0
$[AGT],rm,6,rt,3
$[AGT],receive pmtk
$PMTK015,28212373,4,1291,PMTK710,10,001000,000000,000000,000000,0000EA,6B2166,00001C,FA0E8C,6B0F23,29CD48,3AE9C4,0D4304,528732,0E0AA1,0D99B9,21667C,FFE9AC,10B156,003028,5D78E0,21570C,EAACC8,FFA946,6B0FF8*19
#DEPH 16 1137766381 1000 0 0 0 EA 6B2166 1C FA0E8C 6B0F23 29CD48 3AE9C4 D4304 528732 E0AA1 D99B9 21667C FFE9AC 10B156 3028 5D78E0 21570C EAACC8 FFA946 6B0FF8 &9C
$PMTK001,710,3*36
$[AGT],GSET=0
$[AGT],rm,6,rt,3
$[AGT],receive pmtk
$PMTK015,28212374,4,1291,PMTK710,15,000100,000000,000000,000000,0000E7,742166,00FFEF,BD8958,74F111,334E83,AC4C17,F2B30B,C798E2,1771A1,0D8F54,21667C,00D7FD,A3533A,FFA326,22A601,1205B5,199FB8,FFAA9D,74FCA8*69
#DEPH 21 1137766381 100 0 0 0 E7 742166 FFEF BD8958 74F111 334E83 AC4C17 F2B30B C798E2 1771A1 D8F54 21667C D7FD A3533A FFA326 22A601 1205B5 199FB8 FFAA9D 74FCA8 &3C
$PMTK001,710,3*36
$[AGT],GSET=0
$[AGT],rm,6,rt,3
$[AGT],receive pmtk
$PMTK015,28212375,4,1291,PMTK710,17,001000,000000,000000,000000,0000D5,172166,00FFEF,EB74E4,17FE32,3AA6EC,C7EB98,FE4F05,58EBD7,0959A1,0DD23A,21667C,003253,F0BDCA,005926,8E8D63,236795,730A82,FFA1AD,17F1CC*1A
#DEPH 23 1137766381 1000 0 0 0 D5 172166 FFEF EB74E4 17FE32 3AA6EC C7EB98 FE4F05 58EBD7 959A1 DD23A 21667C 3253 F0BDCA 5926 8E8D63 236795 730A82 FFA1AD 17F1CC &0C
$PMTK001,710,3*36
$[AGT],GSET=0
$[AGT],rm,6,rt,3
$[AGT],receive pmtk
$PMTK015,28212376,4,1291,PMTK710,1A,001000,000000,000000,000000,00000F,062166,00FF70,E252A4,061094,30EA71,36642A,0E6E00,62CCD5,0E5FA1,0DA05C,21667C,0017A9,01FEAB,FFF727,235C64,1EC7F7,AFCB48,FFA670,06127C*62
#DEPH 26 1137766381 1000 0 0 0 F 62166 FF70 E252A4 61094 30EA71 36642A E6E00 62CCD5 E5FA1 DA05C 21667C 17A9 1FEAB FFF727 235C64 1EC7F7 AFCB48 FFA670 6127C &DC
$PMTK001,710,3*36
$[AGT],GSET=0
$[AGT],rm,6,rt,3
$[AGT],receive pmtk
$PMTK015,28212377,4,1291,PMTK710,1B,001000,000000,000000,000000,000003,202166,00001F,076C90,20FA87,336421,7B49B2,FB2001,94CB68,02C0A1,0D0A9A,21667C,0003D3,C52DCF,001927,83EB96,2CE508,89C263,FFA2FF,20FA80*15
#DEPH 27 1137766381 1000 0 0 0 3 202166 1F 76C90 20FA87 336421 7B49B2 FB2001 94CB68 2C0A1 D0A9A 21667C 3D3 C52DCF 1927 83EB96 2CE508 89C263 FFA2FF 20FA80 &30
$PMTK001,710,3*36
$[AGT],GSET=0
$[AGT],rm,6,rt,3
$[AGT],receive pmtk
$PMTK015,28212378,4,1291,PMTK710,1F,001000,000000,000000,000000,0000E3,162165,00FFF2,256CDC,1602EB,2B04AB,086EC9,026E04,460F4D,1A56A1,0D82C4,21657C,FFB47F,EFD3AE,FFEC27,A449CD,1261ED,DD41BD,FFAC14,16ECDC*67
#DEPH 31 1137766381 1000 0 0 0 E3 162165 FFF2 256CDC 1602EB 2B04AB 86EC9 26E04 460F4D 1A56A1 D82C4 21657C FFB47F EFD3AE FFEC27 A449CD 1261ED DD41BD FFAC14 16ECDC &F6
$PMTK001,710,3*36
$[AGT],GSET=0
$[AGT],rm,6,rt,3
$[AGT],receive pmtk
$PMTK015,28212378,4,1291,PMTK710,20,001000,000000,000000,000000,0000F8,0E2166,000074,0C3050,0E049E,377EBC,F63C2C,041405,CFFE81,118DA1,0D0099,21667C,00442C,78954D,FFAC26,911941,1A5A08,C99EC4,FFA602,0E2034*1D
#DEPH 32 1137766381 1000 0 0 0 F8 E2166 74 C3050 E049E 377EBC F63C2C 41405 CFFE81 118DA1 D0099 21667C 442C 78954D FFAC26 911941 1A5A08 C99EC4 FFA602 E2034 &84
$PMTK001,710,3*36
$[AGT],GSET=0
$[AGT],rm,6,rt,3
$[AGT],receive pmtk
$PMTK015,28212379,4,1291,PMTK711,01,59,412901,4E0E13,FD4E00,A10CDC,FECCB9,134ABF,066F64,01000C*44
$PMTK001,711,3*37
$[AGT],GSET=0
$[AGT],rm,6,rt,3
$[AGT],receive pmtk
$PMTK015,28212380,4,1301,PMTK711,02,59,427DA8,4E0032,FD3E00,A10D46,FD0D76,A7494D,1AF3CF,4E0014*3C
$PMTK001,711,3*37
$[AGT],GSET=0
$[AGT],rm,6,rt,3
$[AGT],receive pmtk
$PMTK015,28212380,4,1301,PMTK711,03,59,430275,4E0AE0,FD5A00,A10DDA,2933E7,77E513,76F10E,FDFFF8*4A
$PMTK001,711,3*37
$[AGT],GSET=0
$[AGT],rm,6,rt,3
$[AGT],receive pmtk
$PMTK015,28212381,4,1301,PMTK711,05,59,452594,4E027B,FD4C00,A10D5D,28C889,13C808,7E69B6,EC0024*39
$PMTK001,711,3*37
$[AGT],GSET=0
$[AGT],rm,6,rt,3
$[AGT],receive pmtk
$PMTK015,28212381,4,1301,PMTK711,06,59,460222,4E0DF9,FD4E00,A10CA2,FE74A1,A47038,360CE2,11005C*38
$PMTK001,711,3*37
$[AGT],GSET=0
$[AGT],rm,6,rt,3
$[AGT],receive pmtk
$PMTK015,28212382,4,1301,PMTK711,07,59,474A10,4E10A6,FD5500,A10D08,7F84FC,92C78A,EA01F4,3D001C*4F
$PMTK001,711,3*37
$[AGT],GSET=0
$[AGT],rm,6,rt,3
$[AGT],receive pmtk
$PMTK015,28212383,4,1301,PMTK711,08,59,480E86,4E0C96,FD3000,A10CAA,D3A319,C56C2F,8F3100,FD0004*4B
$PMTK001,711,3*37
$[AGT],GSET=0
$[AGT],rm,6,rt,3
$[AGT],receive pmtk
$PMTK015,28212383,4,1301,PMTK711,09,59,490506,4E0866,FD3600,A10CB2,539E2D,4CE73F,5D4C00,070054*4D
$PMTK001,711,3*37
$[AGT],GSET=0
$[AGT],rm,6,rt,3
$[AGT],receive pmtk
$PMTK015,28212384,4,1301,PMTK711,0A,59,4A08B7,4E0B0C,FD5900,A10D1C,29090E,885C2B,B168E1,06FFEC*35
$PMTK001,711,3*37
$[AGT],GSET=0
$[AGT],rm,6,rt,3
$[AGT],receive pmtk
$PMTK015,28212384,4,1301,PMTK711,0B,59,4B84EB,4EE186,FD0600,A10CA6,EFCBB0,3CFDDB,EED416,AD0010*3F
$PMTK001,711,3*37
$[AGT],GSET=0
$[AGT],rm,6,rt,3
$[AGT],receive pmtk
$PMTK015,28212385,4,1301,PMTK711,0C,59,4C2F3A,4E1F25,FD6A00,A10C02,AB3E4C,1A4346,DB4409,2F0038*4D
$PMTK001,711,3*37
$[AGT],GSET=0
$[AGT],rm,6,rt,3
$[AGT],receive pmtk
$PMTK015,28212385,4,1301,PMTK711,0D,59,4D2637,4E1333,FD4400,A10D00,58766B,50F274,10DDEF,E8FFE8*44
$PMTK001,711,3*37
$[AGT],GSET=0
$[AGT],rm,6,rt,3
$[AGT],receive pmtk
$PMTK015,28212386,4,1301,PMTK711,0E,59,4E4402,4E0E4A,FD3E00,A10D40,56FC2D,B0955A,5B8B51,00FFFC*4B
$PMTK001,711,3*37
$[AGT],GSET=0
$[AGT],rm,6,rt,3
$[AGT],receive pmtk
$PMTK015,28212387,4,1301,PMTK711,0F,59,4F41DE,4EF898,FD2100,A10DC4,5198BA,13586D,3AF5B6,D9000C*43
$PMTK001,711,3*37
$[AGT],GSET=0
$[AGT],rm,6,rt,3
$[AGT],receive pmtk
$PMTK015,28212388,4,1301,PMTK711,10,59,504549,4E1F7A,FD6900,A10D45,AC01F0,0CF60F,85D7DF,FA0024*3D
$PMTK001,711,3*37
$[AGT],GSET=0
$[AGT],rm,6,rt,3
$[AGT],receive pmtk
$PMTK015,28212388,4,1301,PMTK711,11,59,5159CF,4E152B,FD3C00,A10C9E,D5B6A2,B031CC,5E2591,E5001C*4E
$PMTK001,711,3*37
$[AGT],GSET=0
$[AGT],rm,6,rt,3
$[AGT],receive pmtk
$PMTK015,28212389,4,1301,PMTK711,12,59,528792,4EF48E,FD3E00,A10CD3,2807C0,B1ED25,9D75A5,3E0034*3E
$PMTK001,711,3*37
$[AGT],GSET=0
$[AGT],rm,6,rt,3
$[AGT],receive pmtk
$PMTK015,28212389,4,1301,PMTK711,13,59,535C47,4E1348,FD3A00,A1191D,D7B686,1B80AD,EC64C9,BB0008*43
$PMTK001,711,3*37
$[AGT],GSET=0
$[AGT],rm,6,rt,3
$[AGT],receive pmtk
$PMTK015,28212390,4,1311,PMTK711,14,59,542889,4EF565,FD3F00,A10D12,25E97B,35DAE4,3FD018,330020*30
$PMTK001,711,3*37
$[AGT],GSET=0
$[AGT],rm,6,rt,3
$[AGT],receive pmtk
$PMTK015,28212391,4,1311,PMTK711,15,59,55BCA5,4EFBBC,FD3900,A10D04,FD9364,B5243B,C14EED,BDFFF0*4C
$PMTK001,711,3*37
$[AGT],GSET=0
$[AGT],rm,6,rt,3
$[AGT],receive pmtk
$PMTK015,28212391,4,1311,PMTK711,16,59,563E14,4EF327,FD3A00,A11857,280FEF,AD7AA0,745493,35FFE8*4A
$PMTK001,711,3*37
$[AGT],GSET=0
$[AGT],rm,6,rt,3
$[AGT],receive pmtk
$PMTK015,28212392,4,1311,PMTK711,17,59,575587,4E0283,FD2E00,A10D60,53E084,95768F,2A6AD8,EBFFEC*4B
$PMTK001,711,3*37
$[AGT],GSET=0
$[AGT],rm,6,rt,3
$[AGT],receive pmtk
$PMTK015,28212392,4,1311,PMTK711,18,59,582239,4E05A0,FD4600,A10CAC,7DAF19,0E3171,1157C6,FE0010*48
$PMTK001,711,3*37
$[AGT],GSET=0
$[AGT],rm,6,rt,3
$[AGT],receive pmtk
$PMTK015,28212393,4,1311,PMTK711,19,59,592935,4E178D,FD6100,A10C32,A93A25,1C4000,C2090E,F2FFC0*4F
$PMTK001,711,3*37
$[AGT],GSET=0
$[AGT],rm,6,rt,3
$[AGT],receive pmtk
$PMTK015,28212393,4,1311,PMTK711,1A,59,5A0643,4E0BD6,FD5000,A10D3E,A8F2A8,F851A8,AE3D64,E1FF9C*32
$PMTK001,711,3*37
$[AGT],GSET=0
$[AGT],rm,6,rt,3
$[AGT],receive pmtk
$PMTK015,28212394,4,1311,PMTK711,1B,59,5B1959,4E11DA,FD3700,A10C9E,D3B535,087975,5F411B,070030*32
$PMTK001,711,3*37
$[AGT],GSET=0
$[AGT],rm,6,rt,3
$[AGT],receive pmtk
$PMTK015,28212394,4,1311,PMTK711,1C,59,5CA3DB,4E1E9C,FD6900,A10CAF,AC3701,BDB64E,7C7FE0,41002C*3A
$PMTK001,711,3*37
$[AGT],GSET=0
$[AGT],rm,6,rt,3
$[AGT],receive pmtk
$PMTK015,28212394,4,1311,PMTK711,1D,59,5D084B,4E15C7,FD3C00,A10C91,D61AD2,E81626,C7514C,550014*36
$PMTK001,711,3*37
$[AGT],GSET=0
$[AGT],rm,6,rt,3
$[AGT],receive pmtk
$PMTK015,28212395,4,1311,PMTK711,1E,59,5E0DA8,4E0763,FD4900,A10CC1,816329,7C4388,EC2B3C,0B0038*32
$PMTK001,711,3*37
$[AGT],GSET=0
$[AGT],rm,6,rt,3
$[AGT],receive pmtk
$PMTK015,28212396,4,1311,PMTK711,1F,59,5F4464,4E13D0,FD5B00,A10D17,7FE0DB,EDEE13,E8BBA5,25000C*34
$PMTK001,711,3*37
$[AGT],GSET=0
$[AGT],rm,6,rt,3
$[AGT],receive pmtk
$PMTK015,28212397,4,1311,PMTK711,20,59,605D02,4E02B9,FD4C00,A10C99,2C6915,08D3A6,FAA240,0C0090*4E
$PMTK001,711,3*37
$[AGT],GSET=0
$[AGT],rm,6,rt,3
$[AGT],receive pmtk
$PMTK015,28212398,4,1311,PMTK713,24.975740,121.327990,100.0,537.6,537.6,0,990.5,39*3A
#DBTP 1011 1 10 2497574 12132799 100 1881 138081995 1137766381  &41
$PMTK001,713,3*35
$[AGT],GSET=0
$[AGT],rm,6,rt,3
$[AGT],receive pmtk
$PMTK015,28212399,4,1311,PMTK715,13,-1,-1,1,56,-8,-4,11*05
$PMTK001,715,3*33
$[AGT],GSET=0
$[AGT],rm,6,rt,3
$[AGT],receive pmtk
$PMTK015,28212399,4,1311,PMTK716,6,-1,228,96,17,159,3,17*29
$PMTK013,Err,716,Tot=933888,Range[0-602112]*74
$PMTK001,716,2*31
028213.100,HBD,IF1,TIM,DSP,u1ChnNum,37,u2DataSize,57
028213.100,HBD,IF1,COM,BinDecX,65065
028213.100,HBD,IF1,TIM,DSP,u1ChnNum,48,u2DataSize,57
028213.100,HBD,IF1,COM,BinDecX,65065
028213.100,HBD,IF1,GPS,TkDltIn,1011,1016,5
028213.102,HBD,IF1,TIM,NWloc,fgfirstUseNW,0,case,0,NWAID,0,NWUSE,0
028213.102,HBD,IF1,AGP,BOOST,Posdiff:171.371246,1.697146,num:0,PosConverge,0,BoostRemT,18.000

#MZYQ.C@1B3&17
$LOC_Cache_BIT,00000002*7D
028213.102,HBD,IF1,AGP,AGPSMGN,Posdiff:171.371246,1.697146,num:0,PosConverge,0,AGPSRemT,15.078

#XPda.B@BH3&49

#MZYQ.C@1C3&18

#MZYQ.@B1TVK5H7NRLa<&FB

#MZYQ.AH1HG4&57
028213.104,HBD,IF1,AGP,AGPSMGN,AGPSMode:3,AGPSTimer:0.923
$PMTK015,28213103,10,2011,AMode,3,ATimer,0.923,Remain,15.077*46
028213.104,HBD,IF1,AGP,AGPSMGN,DOP.H :4.890918,PosCon:0,[189.046280,28.134573,97.632454]
$PMTK013,CHK,Loc,Dif_m,42.9*58
$PMTK013,2011,INF,TA,ENTRY,TS,10,TOW,138082.995000000,CB,-0.000398754,AGPSM,1*1C
$PMTK013,2011,INF,TA,CTk,2011,CPage,3,CSF,4,CSFT,4.995,SFNumSent,0*67
$PMTK013,2011,INF,TA,NPage,3,NSF,5,NSFTow,138084.000000000,NZCNT,23015,NSFTk,3015*7E
$PMTK013,2011,INF,TA,TAEnableList*70
$PMTK015,28213103,5,2011,TA_Aiding*6F
$PMTK015,28213103,6,2011,NACQ,4,NBS,4,NSFS,0,NEXS,0*6C
$HBD,INF,RTC,F,0,Y,16,M,1,D,25,H,14,M,21,Sec,5,Sub,31170,T,2004,SM,7543*07
$DBts1,TSOK,0,WNSet,1,TOWS,10,WN,1881,BAcc,69.355,TAcc,268142.094,*5E
$DBts2,TTK,2011,TOW,138082.995000000,B,-0.000398754,D,0.000001285,*20
028213.104,HBD,IF1,ALO,CdmPvtU,
$HBD,INF,RTC,F,0,Y,16,M,1,D,25,H,14,M,21,Sec,5,Sub,31170,T,2004,SM,7543*07
$GNGGA,142105.995,2458.5325,N,12119.6837,E,1,4,4.89,121.2,M,15.0,M,,*4B
$GPGSA,A,3,27,08,16,09,,,,,,,,,4.98,4.89,0.96*0E
$GLGSA,A,3,,,,,,,,,,,,,4.98,4.89,0.96*11
$GPGSV,3,1,12,08,72,313,31.8,27,53,022,33.5,11,40,198,,16,33,059,29.6*64
$GPGSV,3,2,12,23,30,225,,07,29,322,,09,29,266,30.0,193,22,148,*58
$GPGSV,3,3,12,01,20,186,,26,15,082,,22,01,122,,30,01,319,*75
$GLGSV,2,1,6,83,84,294,,80,60,072,,73,40,346,,84,31,214,*5B
$GLGSV,2,2,6,82,30,026,,79,13,126,*57
$GNRMC,142105.995,A,2458.5325,N,12119.6837,E,3.297,326.69,250116,,,A*4A
$GNVTG,326.69,T,,M,3.297,N,6.110,K,A*22
$GNACCURACY,13.8*2C
$PMTKDGP,0*4D
$PMTKDBG,2011,0,1,0,1,0,0,0,1,0,1,0,0,0,0,0,0,0,0,1,1,1,1,1,0,0,0,0,0,0,0,0,0,0026,0014,0002,0004,0004,0000,0000,0000,0.0000,1.2850,0.0000,0.0000,0.0000,0.0000,*4D
$PMTKDB2,0C1D,0000,0000,0000,0000,0000,0000,0700,0191.13,1284.84,12850.57,268142.10,0000.10,-398.75,00-0.28,0000.00,*2E
$PMTKEPH,40,-1.2.4,3,-7.2.4,8,9,-11.2.4,14,16,21,22,23,26,27,29,-30.2.4,31,32,-65.2.4,-66.2.4,-67.2.4,-68.2.4,-69.2.4,-70.2.4,-71.2.4,-72.2.4,-73.2.4,-74.2.4,-75.2.4,-76.2.4,-77.2.4,-78.2.4,-79.2.4,-80.2.4,-82.2.4,-83.2.4,-84.2.4,-85.2.4,-86.2.4,-87.2.4,-88.2.4*69
$PMTKALM,32,1,2,3,5,6,7,8,9,10,11,12,13,14,15,16,17,18,19,20,21,22,23,24,25,26,27,28,29,30,31,32,193*51

#WXM[.?0A2C4E6G8I:K<M>O@QBSDUFWHYJ[L]N_PaRcTeVgXiZk\m^o`qbsdufwhyj{l}npy&39
#NMQR.A0GI3D5FHMI^Q]QOePfR\TUVW`lpc\dg_`cbxe{{{ii}q^xyqrwuxy{Ȼν԰ǳŶȹмӿ&1F
#NMQR.A0GJ3D5FHMI^Q]QOePfRhTUVW`a^`]agg`cbxdjkoijlo^qqqrzuux|x}}ôƸȺϽ¾԰ȳŶȹмӿ&A8
#NMQR.A0GK3D5FHMI^Q]QOePfhYjkVWk][n\]th`bbxik{jikl}^qyqruux~zöźȹν԰óŶɹмӿ&CE
#NMQR.A0HB3D5FHMI^Q]QOePfRXTUVW_ln[\n^t`cbxdvi{iknmu^wqrtux~µǵȵȹ˻԰ƳŶȹмӿ&1B
#NMQR.A0HC3D5FHMI^Q]QOePfhhjkVW^Y^]rsoq`cbxmzzkiim^xqrzuxzx|ƸȻϺ԰ǳŶȹмӿ&02
#NMQR.A0HD3D5FHMI^Q]QOePfRSTUVWala_rpfq`cbxjhjgijt~o^upqrzuxz|ĴȻν԰ȳŶȹмӿ&C4
#NMQR.A0HE3D5FHMI^Q]QOePfR\TUVW]a^l\`_s`hbxdmnjhp|pnr^vuqs{wu|~ĻȾϼľ԰ĳŶȹмӿ&4B
#NMQR.A0HF3D5FHMI^Q]QOePfRZTUVW[ama\]qq`hbxliwlhml}v^uqrsu}}ÿϺо԰ɳŶȹмӿ&58
#NMQR.A0HG3D5FHMI^Q]QOePfRYTUVW_ap`\_of`gbxxjgxhpnrl^qru{~|óĵȿϾ԰³Ŷȹмӿ&0D
#NMQR.A0HH3D5FHMI^Q]QOePfReTUVW[l`c\ags`gbxg{lghqlo^oqqs{u{zŶȾƾ԰óŶȹмӿ&C7
#NMQR.A0HI3D5FHMI^Q]QOePfhgjkVW]aaa\^_``hbxiknjhopo^qtqrxu|yyĲȿž԰ĳŶȹмӿ&2F
#NMQR.A0HJ3D5FHMI^Q]QOePfTeTUVWjlmo^`t_`gbxdgxzhm|ot^qrvu|°ıĳʹϽϾ԰ɳŶȹмӿ&BB
#NMQR.A0HK3D5FHMI^Q]QOePfRYTUVW`Y\c\e_q`ibxizy|hmp}o^qrqswu}x|}ıǹοо԰³Ŷȹмӿ&09
#NMQR.A0IB3D5FHMI^Q]QOePfRdTUVWYlnn\`d_`hbxwnmphqnsu^uqsyvu|}{ǴŶȽοž԰óŶȹмӿ&5E
#NMQR.A0ID3D5FHMI^Q]QOePfRiTUVWjl^o\odavgbxeghph}osnn^xqr||}zɹȸͻҽ԰ųŶȹмӿ&34
#NMQR.A0IE3D5FHMI^Q]QOePfh[jkVWkamdqpt`vfbxfnizh|s}t^wtqr{|y{||ƻȹ̻Ӿ԰ųŶɹмӿ&57
#NMQR.A0IF3D5FHMI^Q]QOePfhSjkVWllklq`rfvfbxwxxoh{{l~q^tqr|{ǻȷȹϺҾ԰ĳŶɹмӿ&EC
#NMQR.A0IG3D5FHMI^Q]QOePfRhTUVWYl_^\cgpvgbxei|ih|qum^ppqr{{}}y{ïŴȹҿ԰ƳŶȹмӿ&D7
#NMQR.A0IH3D5FHMI^Q]QOePfReTUVW\]n_]etqvgbxlin}h|nv^tqqsx}}||øȹ԰ųŶɹмӿ&83
#NMQR.A0II3D5FHMI^Q]QOePfffjkVWn]^prcsevgbxenmkh|nnmp^pvqr|}}{ȳȻȹҿ԰ųŶɹмӿ&89
#NMQR.A0IJ3D5FHMI^Q]QOePfhgjkVWlYbnqrg_vgbxdwhlh|l^pqr|v}¶ĳȺϺ԰ĳŶɹмӿ&C6

#NM^Z.BB1DCEF6H8JKO<NNT@QBSD&0B
#\XOU.?0CI3GK6G8ON;RNP`@QBTYYVGY^^[LbN`iQkedjkWlksosu^rtycqw}wy|nqv{~&53
#\XOU.@0I2FI5F7NM:PMO_?PASVXUFX[]ZKaM_fPjdcijVkkjrlq]ptzbpuz|~z{~mpuz|&C3
#\XOU.A0BH3GG6G8ON;RNP`@QBTVWVGY[\[LbNhPjdcijVkjmmqn]stpbpvv|z~mpuz}&E2
#\XOU.B0J2FG5F7NM:RMO_?PASS\UFXXaZKaMeOicbhiUjikprq\ttvqaot|{}z~}l~oty|&DF
#\XOU.C0CD3D5F7H9\LLM>O@QBSDXFWHb\[abNcajgfkUnmqzZhpvrptrvwdvvgxiz{|}nprty{~&54
#\XOU.D0CE3D5F7H9\LLM>O@QBSDXFWHb\[abNcbjjijUknmnZhntuorqxzvexwhyj{|}~oqsuz|&7D
#\XOU.E0CH3FE6G8O:SQOP?PARCTE[GZIc]\bcOdcdidiVom~k[ioqqwswttufx{i{}nsuy{&C6
#\XOU.F0CH3D5F7H9\LLM>O@QBSDXFWHb\[abNcbdjhlUo|qrZhnqwxuuusxew{hyj{|}~oqsuz|&A1
#\XOU.@E1DDE5F7H9J;UNNO@QBSDUFZHYJa^addPeihmeiWmjmo\josrrvzy}zgi|m~rtvx}&7A
#\XOU.@F1DCK5F7H9J;UNNO@QBSDUFZHYJa^addPeihdgoWnmm|\joqvuzwx}vgizk|}~prtv{}&ED
#\XOU.@G1DDD5F7H9J;UNNO@QBSDUFZHYJa^addPeidkilWol|m\vrotusytegxiz{|}nprty{~&84
#\XOU.@H1DCI5F7H9J;UNNO@QBSDUFZHYJa^addPeidjmhWkjq\jqvuttwz|xgizk|}~prtv{}&F1
#\XOU.@I1DCL5F7H9J;UNNO@QBSDUFZHYJa^addPehkmfnWo{ls\jqpuyzvywvgizk|}~prtv{}&FD
#\XOU.AA1DDE5F7H9MM<_OOPARCTEVG]IZKb_beeQfjinglXjqt]kptstzyx{}hz{k}~puwy{&2F
#\XOU.AB1DCK5F7H9MM<VOOPARCTEVG]IZKb_beeQfjifgoXomkt]kprwtvt{}hzzkotvxz&CE
#\XOU.AF1B3D5F7H9JKLM>O@QBSDUFWHYJ[L]^_`QbSdUfWhijk\m^o`qbstuvgxizk|m~oq&32
#\XOU.AG1CD4E6G8I:]MMN?PARCTEYGXIc]\bcOddbkflVzy~l[tosvutxsdwwgxiz{|}nprty{~&6F
#\XOU.AH1I3D5F7H9\LLM>O@QBSDXFWHb\[abNcbiigjUynorZsmnwxqqvcu~fwhyz{|m~oqsxz}&3F
#\XOU.AI1C3D5F7H9\LLM>O@QBSDXFWHb\[abNcbfkilUf||lZlmmouvqsydv|gxiz{|}nprty{~&61
#\XOU.B@1EC4E6G8I:]MMN?PARCTEYGXIc]\bcOdbjlljV|q~~[urotxsyudvvgxiz{|}nprty{~&82
#\XOU.BG1DCJ5F7H9J;UNNO@QBSDUFZHYJa^addPeiekhhWlj~p\rquwt{{xew|hyj{|}~oqsuz|&C5
#\XOU.CH1DF4E6G8I:TMMN?PARCTEYGXIc]\bcOdcjkhlV{h~s[iotxpswu|ufxizk|}~prtv{}&CE

#NM`a.A@BC3E5F7H9J;L=N?PQRSTUVWHYJ[L&53
#NLPT.AG1CF4EFGK9GNJM>ONQRWDVV^XIZY\]N_^abcTidpiY&D0
#NLPT.G0BE3DEFJ8JJIO=NMPVSCUVYWHYX[\M^]`abSicklX&A3
#NLPT.@F1CF4EFGK9GNJP>ONQRVDV\WaIZY\]N_^abcTldhkY&D5
#NLPT.H0BE3DEFJ8FOIP=NMPRUCUVYXHYX[\M^]`abSkcjoX&A9
#NLPT.AB1C3&05
#NLPT.AC1C3&06
#NLPT.AF1D3&0A
#NLPT.AF1E3&0B
#NLPT.AAB2F4&37
#NLPT.A@H2F4&3C
#NLPT.AAA2D4&34
#NLPT.A@F2D4&38
#NLPT.A@I2D4&3B
#NLPT.AAB2E4&36
#NLPT.A@H2E4&3B
#NLPT.@A1C3&03
#NLPT.F0B2&D8
#NLPT.@0B2&D2
#NLPT.B@1C3&04

#NMMN.@0>DCFI6JQRM;NMOP@ZTSYZFXYIZK]]N`cibkfcopmYj[&5D
#KL_c.@0EDIDFK7INRK<RO?TATCTE^WX\J&43
#KL_c.F0EDKKNI7IKKS<RO?TATCTE^WX\J&56
#KL_c.G0EEIMHF7EKMTO=SP@UBTDUF_XY[K&7E
#KL_c.H0EDKMEG7EKROU=SP@UBTDUF_XY]K&86
#KL_c.@A1FFDMMJ8JKQQ=SP@UBUDUF_XY[K&78
#KL_c.@F1FEMIMN8FMNQM>TQAVCUEVG`YZ\L&AF
#KL_c.AB1FDMJJL8FQTN=SP@UBTDUF_XY]K&80
#KL_c.AC1FEMMMJ8FNMQS>TQAVCUEVG`YZ^L&B5
#KL_c.AF1FEGMLL8FMSNT>TQAVCUEVG`YZ^L&B6
#KL_c.AG1FFHJOJ8FNLOO>TQAVCUEVG`YZ\L&AB
#KL_c.B@1FDMEII8JNOM=SP@UBUDUF_XY]K&72
#KL_c.@ID2FLEIOP9GLTPS?URBTY[FWHYJc\]_O&4F
#KL_c.A@G2GKGOOO9QTN=SP@UBUDUF_XY[K&8F
#KL_c.A@I2GJMOII9GOUNU?URBWDWFWHaZ[_M&EC
#KL_c.A@H2GKJFJK9GLUVU?URBWDWFWHaZ[]M&E6
#KL_c.A@F2GKFLOM9GPSRV?URBWDWFWHaZ[_M&EE
#KL_c.AAB2GKJOGO9GMNPU?URBWDWFWHaZ[]M&DF
#KL_c.AAA2GKFMLH9KNPR>TQAVCVEVG`YZ\L&A8
#KLbg.?0BJ3FFG7P9LKS=PV@RSCVU\GY_J]]]NacQdciUmWqYk[ns^qpybuveywhz~l&30
#KLbg.@0C2EDG6IHL:&5E

#\Qpou/CI2DHEKN8K:K<M>O@RWZ[XFZ_ZJ_\acOdaeiTjnkiYorru^orcy|h|~m~rw|&68
#NP\U.AF1CDGLMMNQQM<aTTPQRCTEVGXIZKb__efQxykeV|jnl|p]tppzvcwuzj~qw~ŷʾǱϸο&49
#NP\U.AG1CDGLMMNQQM<aTTPQRCTEVGXIZK^]``fgRdzUmm{rj[nmxxbvw{zyyipw~ǿƯȶ&B0
#NP\U.AI1CDGLMLOQSQ<aTSPQRCTEVGXIZKb^tpdQjSijnyyiZqus`tszgnu|óļĭȴͻ&1A
#NP\U.BA1CDGLMMMIRR<aTTPQRCTEVGXIZK]c``ffRyz{hWjnp~^pvqtexx}lrxšȸʾүٶ&2E
#NLXZ.@C1BC4FNOI9N_NSQV@UgTWXXGnm^_\]NpaavcdUkooop|\rnrxvcuujq&F4
#NLXZ.@D1BC4FNOI9N`PQNP@UgSiYgGnm]p\]NpaavgdUkm~|l~\nxuvcy~}zjo&B3
#NLXZ.@E1BC4FNOI9NaPNbc@Ugi\^_Gnm\\\]NpaavvhUkhqq||\nqtxwcw|~j}~q&0E
#NLXZ.@F1BC4FNOI9OKPRRX@UgTj\_Gnm`d\]NpaavgiUwzhjk\upb{y}i|}p&CA
#NLXZ.@G1BC4FNOI9OLQVae@UgTYWgGnm]n\]NpaaulyUzlzo{n\nrqcyx|yj}~q&04
#NLXZ.@H1BC4FNOI9OMTTWQ@UgiX]lGnm]p\]NpaauwgUhohp|\osxc}}|~j~}~q&05
$[AGT],GSET=1
$[AGT],rm,1,rt,7
$[AGT],fgFirstReq:0
$[AGT],bitmap,old: 108,new: 108
$[AGT],fsm,wm,3
$[AGT],skip
028214.113,HBD,IF1,TIM,DSP,u1ChnNum,37,u2DataSize,57
028214.113,HBD,IF1,COM,BinDecX,65065
028214.113,HBD,IF1,TIM,DSP,u1ChnNum,48,u2DataSize,57
028214.115,HBD,IF1,COM,BinDecX,65065
028214.115,HBD,IF1,GPS,TkDltIn,2011,2016,5
$QEPO_Request*05
$[AGT],GSET=2
$[AGT],rm,1,rt,10
$[AGT],set Qepo req
$[AGT],TSETe=2
$[AGT],inco
$[AGT],rm,0
$[AGT],remd == 0

#MZYQ.DB1B3&1A
028214.123,HBD,IF1,TIM,NWloc,fgfirstUseNW,0,case,0,NWAID,0,NWUSE,0
028214.133,HBD,IF1,AGP,BOOST,Posdiff:214.057892,1.293218,num:0,PosConverge,0,BoostRemT,16.995
$LOC_Cache_BIT,00000002*7D
028214.133,HBD,IF1,AGP,AGPSMGN,Posdiff:214.057892,1.293218,num:0,PosConverge,0,AGPSRemT,14.048

#XPda.C@BH3&4A

#MZYQ.@B1XTZ5H7NZR_<&18

#MZYQ.AH1HG4&57
028214.133,HBD,IF1,AGP,AGPSMGN,AGPSMode:3,AGPSTimer:1.953
$PMTK015,28214133,10,3036,AMode,3,ATimer,1.953,Remain,14.047*42
028214.133,HBD,IF1,AGP,AGPSMGN,DOP.H :1.632590,PosCon:0,[77.111702,19.353598,61.761356]
$PMTK013,3036,INF,TA,ENTRY,TS,10,TOW,138084.000000000,CB,-0.000397411,AGPSM,1*16
$PMTK013,3036,INF,TA,CTk,3036,CPage,3,CSF,5,CSFT,0.020,SFNumSent,0*65
$PMTK013,3036,INF,TA,NPage,4,NSF,1,NSFTow,138090.000000000,NZCNT,23016,NSFTk,9015*75
$PMTK013,3036,INF,TA,TAEnableList*74
$PMTK015,28214133,5,3036,TA_Aiding*6F
$PMTK015,28214133,6,3036,NACQ,6,NBS,6,NSFS,0,NEXS,0*6C
$HBD,INF,RTC,F,0,Y,16,M,1,D,25,H,14,M,21,Sec,6,Sub,31302,T,3008,SM,8270*06
$DBts1,TSOK,0,WNSet,1,TOWS,10,WN,1881,BAcc,41.564,TAcc,268133.875,*51
$DBts2,TTK,3016,TOW,138084.000000000,B,-0.000397411,D,0.000001284,*29
028214.133,HBD,IF1,ALO,CdmPvtU,
$HBD,INF,RTC,F,0,Y,16,M,1,D,25,H,14,M,21,Sec,6,Sub,31302,T,3008,SM,8270*06
$GNGGA,142107.000,2458.5393,N,12119.6792,E,1,6,1.63,134.7,M,15.0,M,,*43
$GPGSA,A,3,27,08,16,09,23,26,,,,,,,1.88,1.63,0.94*0C
$GLGSA,A,3,,,,,,,,,,,,,1.88,1.63,0.94*16
$GPGSV,3,1,12,08,72,313,33.2,27,53,022,33.6,11,40,198,,16,33,059,31.6*66
$GPGSV,3,2,12,23,30,225,26.5,07,29,322,,09,29,266,31.3,193,22,148,*45
$GPGSV,3,3,12,01,20,186,,26,15,082,30.2,22,01,122,,30,01,319,*6A
$GLGSV,2,1,6,83,84,294,,80,60,072,,73,40,346,,84,31,214,*5B
$GLGSV,2,2,6,82,30,026,,79,13,126,*57
$GNRMC,142107.000,A,2458.5393,N,12119.6792,E,2.512,334.67,250116,,,A*46
$GNVTG,334.67,T,,M,2.512,N,4.656,K,A*23
$GNACCURACY,8.9*17
$PMTKDGP,0*4D
$PMTKDBG,3016,0,1,0,1,0,0,0,1,0,0,0,0,0,0,0,0,0,0,1,1,1,1,1,0,0,0,0,0,0,0,0,0,0026,0014,0002,0006,0006,0000,0000,0000,0.0000,1.2841,0.0000,0.0000,0.0000,0.0000,*4A
$PMTKDB2,0C1E,0000,0000,0000,0000,0000,0000,0700,0079.50,0000.00,12841.94,268133.88,0000.09,-397.41,00-0.28,0000.00,*24
$PMTKEPH,40,-1.2.4,3,-7.2.4,8,9,-11.2.4,14,16,21,22,23,26,27,29,-30.2.4,31,32,-65.2.4,-66.2.4,-67.2.4,-68.2.4,-69.2.4,-70.2.4,-71.2.4,-72.2.4,-73.2.4,-74.2.4,-75.2.4,-76.2.4,-77.2.4,-78.2.4,-79.2.4,-80.2.4,-82.2.4,-83.2.4,-84.2.4,-85.2.4,-86.2.4,-87.2.4,-88.2.4*69
$PMTKALM,32,1,2,3,5,6,7,8,9,10,11,12,13,14,15,16,17,18,19,20,21,22,23,24,25,26,27,28,29,30,31,32,193*51

#WXM[.?0A2C4E6G8I:K<M>O@QBSDUFWHYJ[L]N_PaRcTeVgXiZk\m^o`qbsdufwhyj{l}npy&39

#NM^Z.BB1ECEK6H8JKQ<NNT@QBSD&13
#\XOU.?0CI3GL6G8ON;QNPb@QBUWYVGZ\^[LbNagQkedjkWimorqvo_ryxdrx~x~||}orx}&5B
#\XOU.@0I2FJ5F7NM:PMOa?PATT\UFYYaZKaM`_PjdcijVhlnstnu^xvsycqv{}{}nqv{~&1B
#\XOU.A0BH3GI6G8ON;RNP`@QBTZUFX^YJ`L^dOicbhiUgkmknrq]puxbpvvyz~}mpuz}&12
#\XOU.B0J2FH5F7NM:QMO_?PATSXUFYX]ZKaM_bPjdcijVhlnksuv^xvvtcqv~}ynqv{~&4D
#\XOU.C0CD3D5F7H9\LLM>O@QBSDXFWHb\[abN`deiiigVhlps[iqptsszyxew|hyj{|}~oqsuz|&79
#\XOU.D0CE3GF6G8ON;TRP`@QBVZUFZ^YJ`LaNhbaghTfjlorrp\uxaou{}zzyloty|&D4
#\XOU.E0DB3D5F7H9\LLM>O@QBSDXFWHb\[abN`deidheV|ql|[uqrrwtyydv{gyzl}~qsuw|~&4D
#\XOU.F0CH3GH6G8ON;TNP`@QBV\UFZ`YJ`LdNhbaghTfjknqpn\quvtaouyuxl~oty|&55
#\XOU.G0BC3D5F7H9\LLM>O@QBSDXFWHb\[abN`dfjllfVy{qo[ssqsyuvsdw|gxiz{|}nprty{~&77
#\XOU.H0H2C4E6G8[KKL=N?PARCWEVGa[Z`aM_cegkceUyllnZruupqxuzcvyfwhyz{|m~oqsxz}&3B
#\XOU.@@1C3D5F7H9\LLM>O@QBSDXFWHb\[abN`dffdfhV}~}[mmqttwz{texxhyj{|}~oqsuz|&AB
#\XOU.@E1DDE5F7H9J;UNNO@QBSDUFZHYJa^adePeikhjnWlz}\josvwrwtxxgyyj}nsuwy~&D2
#\XOU.@F1DDD5F7H9J;UNNO@QBSDUFZHYJa^adePeiggehWn}jm\uvptv{utewwhyj{|}~oqsuz|&AA
#\XOU.@G1DCI5F7H9J;UNNO@QBSDUFZHYJa^adePeigfhkWj|sq\jqvwtwyv}~gyyj{l}~qsuw|~&25
#\XOU.@H1DCL5F7H9J;UNNO@QBSDUFZHYJa^adePeidhlgWojnq\jqqrsvsyvxgyyj{l}~qsuw|~&FA
#\XOU.A@1DCK5F7H9MM<VOOPARCTEVG]IZKb_befQfjkijgX}jr]kpsqsuw|wyhz~k~otvxz&ED
#\XOU.AA1DDE5O7H9KS<_OQRARCTEVG]I[Kb_befQfjlilpXo~nr]kptszwvx}hzkpuwz|&73
#\XOU.AC1DDE5L7H9LL<VOQRARCTEVG]I[Kb_befQfjlkgkXqrt]kptwzu|wyhzk}puwz|&7B
#\XOU.AD1DCK5F7H9J;UNNO@QBSDUFZHYJa^adePeijimjWm~kk\jorpyyxw~xgy{j{l}~qsuw|~&1D
#\XOU.AF1B3D5F7H9JKLM>O@QBSDUFWHYJ[L]^_`QbSdUfWhijk\m^o`qbstuvgxizk|m~oq&32
#\XOU.BG1DCJ5F7H9J;UNNO@QBSDUFZHYJa^adePeihfmmWlij~\roxpuwtvewwhyj{|}~oqsuz|&B0
#\XOU.CH1CLG5F7H9J;SNNO@QBSDUF]HYJd^]cdPbfckjfmX|nmt]kpqvxzuuzwhzk|m~rtvx}&1D

#NM`a.B@BH3E5F7H9J;L=N?PQRSTUVWHYJ[L&59
#NLPT.AG1CF4EFGK9GLJO>ONQUXD[X]HYX]_M^]`acSecnlX&B0
#NLPT.G0BE3DEFJ8KHP<MLOQSBYV[FWVZ`K\[^`aQcameV&50
#NLPT.@F1CF4EFGK9JIR=NMPQYC]YVW^IZYdfN_^bcjTfmelrZ&33
#NLPT.H0BE3DEFJ8FOIU=NMPYRCZ]]GUYX^dM^]dccSfckoX&CC
#NLPT.AB1C3&05
#NLPT.AC1CF4EFGK9GRJT>ONQTYDY[_\I[Ya]N`^bfiTfkehpZ&29
#NLPT.B@1C3&04
#NLPT.AF1CF4EFGK9GMUKR?POU\\EZXXaJ\ZaaO`_gllUghfkm[&67
#NLPT.@A1C3&03
#NLPT.F0B2&D8
#NLPT.@0B2&D2
#NLPT.AAB2F4&37
#NLPT.AAA2D4&34
#NLPT.A@F2D4&38
#NLPT.A@I2D4&3B
#NLPT.A@H2E4&3B
#NLPT.AAB2E4&36
#NLPT.AAB2F4&37
#NLPT.A@H2F4&3C

#NMMN.@0>DCFH6JQQK;OMOU@ZTSYZFXYIZK]]N`cibkhcfghYj[&4A
#KL_c.@0BFHHFIH8JOSN=QX@UBUDUF_XY]K&7C
#KL_c.F0BFHJNFP8JLLS=QX@UBUDUF_XY]K&8C
#KL_c.G0BFIIEJJ8FLNUP>RYAVCUEVG`YZ\L&B2
#KL_c.H0BFHKEGK8FLSQM>RYAVCUEVG`YZ^L&B2
#KL_c.@A1CGIMOOQ9KLRT>RYAVCVEVG`YZ\L&C3
#KL_c.@F1CGILKPH9GNOQV?SZBWDVFWHaZ[]M&EA
#KL_c.AB1CGHLLLQ9GRTU>RYAVCUEVG`YZ^L&C3
#KL_c.AC1CGILOOM9GONRT?SZBWDVFWHaZ[_M&F1
#KL_c.AF1CGIFONP9GNTOR?SZBWDVFWHaZ[_M&F0
#KL_c.AG1CGJGMGN9GOMPO?SZBWDVFWHaZ[]M&DE
#KL_c.B@1CGHLGKP9KOPM>RYAVCVEVG`YZ^L&B1
#KL_c.@ID2DHENLHK:HMUQQ@T[CUZ\GXIZKd]^`P&78
#KL_c.A@G2GKJKKJ9QTN=QX@UBUDUF_XY[K&8B
#KL_c.A@I2GKFJNM9GOUNQ?SZBWDWFWHaZ[_M&EC
#KL_c.A@H2GKLKOO9GLUVS?SZBWDWFWHaZ[]M&FA
#KL_c.A@F2GKIHJP9GPSRV?SZBWDWFWHaZ[_M&F1
#KL_c.AAB2GKMJMI9GMNPT?SZBWDWFWHaZ[]M&E2
#KL_c.AAA2GKIIGM9KNPS>RYAVCVEVG`YZ\L&AE
#KLbg.?0BJ3FFG7P9LKS=PV@RSCVU\GY_J]]]NacQdciUmWqYk[ns^qpybuveywhz~l&30
#KLbg.@0C2EDG6IHL:&5E

#\Qpou/E1CGIGF7H9J;L=N?QV[S]EWZYI\\`fNadafSimjlXnsno]nqbx{g{}l}qv{&25
#NP\U.BB1CDGLMMJJNT<aTTPQRCTEVGXIZKq__efQigTxigmiZlqw`tyzg}~nt{ÿ²ξǰʷϾ&B2
#NLXZ.@I1BC4FNOI9ONQ`RU@UgTWY^Gnm]l\]NpabkdxUznzorq\nwpc|{j}~q&00
#NLXZ.A@1BC4FNOI9OONUVX@UgiY[[Gnm]q\]NpaavdfUhl}rq}\psvcwwyj~}~q&C6
#NLXZ.AA1BC4FNOI9OP^`_S@UgifgjGnm]d\]NpaavchU|{qlpo\sqttcvzjq&71
#NLXZ.AB1BC4FNOI9OQObOR@UgiWW^Gnm]l\]NpabjhkUhoh\~vrc{y{{{j~q&0F
#NLXZ.AC1BC4FNOI9ORQRVV@UgSV]XGnm\p\]NpaavidUkj}irn\vsvvzrcv|jq&F9
#NLXZ.AD1BC4FNOI9OSNOQX@UgSYfVGnm^a\]NpaautwUm{yks\qpwrbtuz}}i|}p&8E
$[AGT],GSET=2
$[AGT],rm,1,rt,7
$[AGT],fgFirstReq:0
$[AGT],bitmap,old: 108,new: 108
$[AGT],inco
$[AGT],srm,1,dsm,4,tp,7,length,12
$[AGT],tp,264,wn,1881,tw,138084,si,12
$[AGT],rm,2
$[AGT],state:7
$[AGT],wn:1881, tw:138084
$[AGT],ergt
$[AGT],
$[AGT],Esgt 1137715200
$[AGT],epegt
$[AGT],gfisiz()
$[AGT],egtEf,1140307200
$Rdon
$[AGT],res,1137766884,sst,1137715200,egsn,1140307200
$[AGT],wk,epo
$[AGT],s,1,m,1
$[AGT],idle
$@#$^ [AGNT] pEd
$[AGT],opmode GLO(1),GEL(0),DB(0)
$[AGT],tw,138084,gs,1137766884
$[AGT],eextd
$[AGT]start verify
$[AGT],gfisiz()
$[AGT]FileType:GPS+GLO
$[AGT],
$[AGT],epegt
$[AGT],gfisiz()
$[AGT],Extract epo done
$[AGT],GSET=2
$[AGT],rm,4,rt,8
$[AGT],inco
$[AGT],srm,4,dsm,4,tp,8,length,12
$[AGT],tp,264,wn,1881,tw,138084,si,12
$[AGT],rm,3
$[AGT],state:6
$[AGT],wn:1881,tw:138084
$[AGT],BGAI
$[AGT],0,av:80,b_sky:1
$[AGT],1,av:86,b_sky:0
$[AGT],2,av:118,b_sky:0
$[AGT],3,av:0,b_sky:1
$[AGT],4,av:86,b_sky:0
$[AGT],5,av:86,b_sky:0
$[AGT],6,av:86,b_sky:1
$[AGT],7,av:86,b_sky:0
$[AGT],8,av:88,b_sky:0
$[AGT],9,av:68,b_sky:0
$[AGT],10,av:80,b_sky:1
$[AGT],11,av:118,b_sky:0
$[AGT],12,av:0,b_sky:0
$[AGT],13,av:70,b_sky:0
$[AGT],14,av:116,b_sky:0
$[AGT],15,av:70,b_sky:0
$[AGT],16,av:82,b_sky:0
$[AGT],17,av:68,b_sky:0
$[AGT],18,av:84,b_sky:0
$[AGT],19,av:86,b_sky:0
$[AGT],20,av:66,b_sky:0
$[AGT],21,av:68,b_sky:0
$[AGT],22,av:120,b_sky:0
$[AGT],23,av:66,b_sky:0
$[AGT],24,av:68,b_sky:0
$[AGT],25,av:70,b_sky:0
$[AGT],26,av:86,b_sky:0
$[AGT],27,av:82,b_sky:0
$[AGT],28,av:120,b_sky:0
$[AGT],29,av:86,b_sky:1
$[AGT],30,av:70,b_sky:0
$[AGT],31,av:120,b_sky:0
$[AGT],Eend:1, Send:1, ct:4
$[AGT],wkbee
$[AGT],s,1,m,2
$[AGT],idle
$@#$^ [AGNT] sBi
028214.141,HBD,IF1,MSG,AidEPO,SV,1,path_2NG,ValidEPO,0,u4CurrGpsSecs,1137766884,u4GpsSecs,1137758400,seq,45,NAseq,45,Age_Epo,14,Naage,14,NaValidGEPO,1
028214.141,HBD,IF1,MSG,AidEPO,SV,2,path_2NG,ValidEPO,0,u4CurrGpsSecs,1137766884,u4GpsSecs,1137758400,seq,45,NAseq,45,Age_Epo,14,Naage,14,NaValidGEPO,1
028214.141,HBD,IF1,MSG,AidEPO,SV,3,path_2NG,ValidEPO,0,u4CurrGpsSecs,1137766884,u4GpsSecs,1137758400,seq,45,NAseq,45,Age_Epo,14,Naage,14,NaValidGEPO,1
028214.141,HBD,IF1,MSG,AidEPO,SV,4,path_2NG,ValidEPO,1,u4CurrGpsSecs,1137766884,u4GpsSecs,1137758400,seq,45,NAseq,0,Age_Epo,14,Naage,0,NaValidGEPO,0
028214.141,HBD,IF1,MSG,AidEPO,SV,5,path_2NG,ValidEPO,0,u4CurrGpsSecs,1137766884,u4GpsSecs,1137758400,seq,45,NAseq,45,Age_Epo,14,Naage,14,NaValidGEPO,1
028214.141,HBD,IF1,MSG,AidEPO,SV,6,path_2NG,ValidEPO,0,u4CurrGpsSecs,1137766884,u4GpsSecs,1137758400,seq,45,NAseq,45,Age_Epo,14,Naage,14,NaValidGEPO,1
028214.141,HBD,IF1,MSG,AidEPO,SV,7,path_2NG,ValidEPO,0,u4CurrGpsSecs,1137766884,u4GpsSecs,1137758400,seq,45,NAseq,45,Age_Epo,14,Naage,14,NaValidGEPO,1
028214.141,HBD,IF1,MSG,AidEPO,SV,8,path_2NG,ValidEPO,0,u4CurrGpsSecs,1137766884,u4GpsSecs,1137758400,seq,45,NAseq,45,Age_Epo,14,Naage,14,NaValidGEPO,1
028214.141,HBD,IF1,MSG,AidEPO,SV,9,path_2NG,ValidEPO,0,u4CurrGpsSecs,1137766884,u4GpsSecs,1137758400,seq,45,NAseq,45,Age_Epo,14,Naage,14,NaValidGEPO,1
028214.141,HBD,IF1,MSG,AidEPO,SV,10,path_2NG,ValidEPO,0,u4CurrGpsSecs,1137766884,u4GpsSecs,1137758400,seq,45,NAseq,45,Age_Epo,14,Naage,14,NaValidGEPO,1
028214.141,HBD,IF1,MSG,AidEPO,SV,11,path_2NG,ValidEPO,0,u4CurrGpsSecs,1137766884,u4GpsSecs,1137758400,seq,45,NAseq,45,Age_Epo,14,Naage,14,NaValidGEPO,1
028214.141,HBD,IF1,MSG,AidEPO,SV,12,path_2NG,ValidEPO,0,u4CurrGpsSecs,1137766884,u4GpsSecs,1137758400,seq,45,NAseq,45,Age_Epo,14,Naage,14,NaValidGEPO,1
028214.141,HBD,IF1,MSG,AidEPO,SV,13,path_2NG,ValidEPO,0,u4CurrGpsSecs,1137766884,u4GpsSecs,1137758400,seq,45,NAseq,45,Age_Epo,14,Naage,14,NaValidGEPO,1
028214.141,HBD,IF1,MSG,AidEPO,SV,14,path_2NG,ValidEPO,0,u4CurrGpsSecs,1137766884,u4GpsSecs,1137758400,seq,45,NAseq,45,Age_Epo,14,Naage,14,NaValidGEPO,1
028214.141,HBD,IF1,MSG,AidEPO,SV,15,path_2NG,ValidEPO,0,u4CurrGpsSecs,1137766884,u4GpsSecs,1137758400,seq,45,NAseq,45,Age_Epo,14,Naage,14,NaValidGEPO,1
028214.141,HBD,IF1,MSG,AidEPO,SV,16,path_2NG,ValidEPO,0,u4CurrGpsSecs,1137766884,u4GpsSecs,1137758400,seq,45,NAseq,45,Age_Epo,14,Naage,14,NaValidGEPO,1
028214.141,HBD,IF1,MSG,AidEPO,SV,17,path_2NG,ValidEPO,0,u4CurrGpsSecs,1137766884,u4GpsSecs,1137758400,seq,45,NAseq,45,Age_Epo,14,Naage,14,NaValidGEPO,1
028214.141,HBD,IF1,MSG,AidEPO,SV,18,path_2NG,ValidEPO,0,u4CurrGpsSecs,1137766884,u4GpsSecs,1137758400,seq,45,NAseq,45,Age_Epo,14,Naage,14,NaValidGEPO,1
028214.141,HBD,IF1,MSG,AidEPO,SV,19,path_2NG,ValidEPO,0,u4CurrGpsSecs,1137766884,u4GpsSecs,1137758400,seq,45,NAseq,45,Age_Epo,14,Naage,14,NaValidGEPO,1
028214.141,HBD,IF1,MSG,AidEPO,SV,20,path_2NG,ValidEPO,0,u4CurrGpsSecs,1137766884,u4GpsSecs,1137758400,seq,45,NAseq,45,Age_Epo,14,Naage,14,NaValidGEPO,1
028214.141,HBD,IF1,MSG,AidEPO,SV,21,path_2NG,ValidEPO,0,u4CurrGpsSecs,1137766884,u4GpsSecs,1137758400,seq,45,NAseq,45,Age_Epo,14,Naage,14,NaValidGEPO,1
028214.141,HBD,IF1,MSG,AidEPO,SV,22,path_2NG,ValidEPO,0,u4CurrGpsSecs,1137766884,u4GpsSecs,1137758400,seq,45,NAseq,45,Age_Epo,14,Naage,14,NaValidGEPO,1
028214.143,HBD,IF1,MSG,AidEPO,SV,23,path_2NG,ValidEPO,0,u4CurrGpsSecs,1137766884,u4GpsSecs,1137758400,seq,45,NAseq,45,Age_Epo,14,Naage,14,NaValidGEPO,1
028214.143,HBD,IF1,MSG,AidEPO,SV,24,path_2NG,ValidEPO,0,u4CurrGpsSecs,1137766884,u4GpsSecs,1137758400,seq,45,NAseq,45,Age_Epo,14,Naage,14,NaValidGEPO,1
028214.143,HBD,IF1,MSG,AidEPO,SV,25,path_2NG,ValidEPO,0,u4CurrGpsSecs,1137766884,u4GpsSecs,1137758400,seq,45,NAseq,45,Age_Epo,14,Naage,14,NaValidGEPO,1
028214.143,HBD,IF1,MSG,AidEPO,SV,26,path_2NG,ValidEPO,0,u4CurrGpsSecs,1137766884,u4GpsSecs,1137758400,seq,45,NAseq,45,Age_Epo,14,Naage,14,NaValidGEPO,1
028214.143,HBD,IF1,MSG,AidEPO,SV,27,path_2NG,ValidEPO,0,u4CurrGpsSecs,1137766884,u4GpsSecs,1137758400,seq,45,NAseq,45,Age_Epo,14,Naage,14,NaValidGEPO,1
028214.143,HBD,IF1,MSG,AidEPO,SV,28,path_2NG,ValidEPO,0,u4CurrGpsSecs,1137766884,u4GpsSecs,1137758400,seq,45,NAseq,45,Age_Epo,14,Naage,14,NaValidGEPO,1
028214.145,HBD,IF1,MSG,AidEPO,SV,29,path_2NG,ValidEPO,0,u4CurrGpsSecs,1137766884,u4GpsSecs,1137758400,seq,45,NAseq,45,Age_Epo,14,Naage,14,NaValidGEPO,1
028214.145,HBD,IF1,MSG,AidEPO,SV,30,path_2NG,ValidEPO,0,u4CurrGpsSecs,1137766884,u4GpsSecs,1137758400,seq,45,NAseq,45,Age_Epo,14,Naage,14,NaValidGEPO,1
028214.145,HBD,IF1,MSG,AidEPO,SV,31,path_2NG,ValidEPO,0,u4CurrGpsSecs,1137766884,u4GpsSecs,1137758400,seq,45,NAseq,45,Age_Epo,14,Naage,14,NaValidGEPO,1
028214.145,HBD,IF1,MSG,AidEPO,SV,32,path_2NG,ValidEPO,2,u4CurrGpsSecs,1137766884,u4GpsSecs,1137758400,seq,45,NAseq,0,Age_Epo,14,Naage,0,NaValidGEPO,0
028215.105,HBD,IF1,TIM,DSP,u1ChnNum,37,u2DataSize,57
028215.105,HBD,IF1,COM,BinDecX,65065
028215.105,HBD,IF1,GPS,TkDltIn,3016,3047,31
028215.107,HBD,IF1,TIM,NWloc,fgfirstUseNW,0,case,0,NWAID,0,NWUSE,0
028215.107,HBD,IF1,AGP,BOOST,Posdiff:3.129061,0.851290,num:6,PosConverge,1,BoostRemT,15.995
$Boost, flag on*64
$LOC_Cache_BIT,00000002*7D
028215.107,HBD,IF1,AGP,AGPSMGN,Posdiff:3.129061,0.851290,num:0,PosConverge,0,AGPSRemT,13.072
028215.107,HBD,IF1,TIM,NWloc,Core_Save,fgHaveNWloc,1,fgHaveSaved,0
028215.107,HBD,IF1,TIM,NWloc,NWloc_match,0,oldest_gpssec_index,2,num_NV_NWlocData,6
028215.107,HBD,IF1,TIM,NWloc,Core_Save,NV_index,0,fgUsage,1

#XPda.D@BH3&4B

#MZYQ.@B1CFML6I8O\`L=&19

#MZYQ.AH1HG4&57
028215.111,HBD,IF1,AGP,AGPSMGN,AGPSMode:3,AGPSTimer:2.931
$PMTK015,28215111,10,4026,AMode,3,ATimer,2.931,Remain,13.069*49
028215.111,HBD,IF1,AGP,AGPSMGN,DOP.H :1.633468,PosCon:0,[47.812199,12.972514,46.651394]
$PMTK013,4026,INF,TA,ENTRY,TS,10,TOW,138085.000000000,CB,-0.000396119,AGPSM,1*1D
$PMTK013,4026,INF,TA,CTk,4026,CPage,3,CSF,5,CSFT,1.010,SFNumSent,0*67
$PMTK013,4026,INF,TA,NPage,4,NSF,1,NSFTow,138090.000000000,NZCNT,23016,NSFTk,9015*73
$PMTK013,4026,INF,TA,TAEnableList*72
$PMTK015,28215111,5,4026,TA_Aiding*68
$PMTK015,28215111,6,4026,NACQ,6,NBS,6,NSFS,0,NEXS,0*6B
$HBD,INF,RTC,F,0,Y,16,M,1,D,25,H,14,M,21,Sec,7,Sub,31339,T,4009,SM,10649*3E
$DBts1,TSOK,0,WNSet,1,TOWS,10,WN,1881,BAcc,29.209,TAcc,268122.188,*58
$DBts2,TTK,4016,TOW,138085.000000000,B,-0.000396119,D,0.000001283,*24
028215.111,HBD,IF1,GPS,UpdtNVS,
028215.111,HBD,IF1,GPS,NVFile,Opened
028215.111,HBD,IF1,GPS,UpdtNVC,
028215.113,HBD,IF1,GPS,UpdtNVE,
028215.113,HBD,IF1,ALO,CdmPvtU,
$HBD,INF,RTC,F,0,Y,16,M,1,D,25,H,14,M,21,Sec,7,Sub,31339,T,4009,SM,10649*3E
$GNGGA,142108.000,2458.5398,N,12119.6783,E,1,6,1.63,138.2,M,15.0,M,,*4E
$GPGSA,A,3,27,08,16,09,23,26,,,,,,,1.88,1.63,0.94*0C
$GLGSA,A,3,,,,,,,,,,,,,1.88,1.63,0.94*16
$GPGSV,3,1,12,08,72,313,31.3,27,53,022,32.9,11,40,198,,16,33,059,29.4*60
$GPGSV,3,2,12,23,30,225,27.4,07,29,322,,09,29,266,30.2,193,22,148,*45
$GPGSV,3,3,12,01,20,186,,26,15,082,29.9,22,01,122,,30,01,319,*69
$GLGSV,2,1,6,83,84,294,,80,60,072,,73,40,346,,84,31,214,*5B
$GLGSV,2,2,6,82,30,026,,79,13,126,*57
$GNRMC,142108.000,A,2458.5398,N,12119.6783,E,1.654,333.31,250116,,,A*44
$GNVTG,333.31,T,,M,1.654,N,3.065,K,A*24
$GNACCURACY,7.0*11
$PMTKDGP,0*4D
$PMTKDBG,4016,0,1,0,1,0,0,0,1,0,0,0,0,0,0,0,0,0,0,1,1,1,1,1,0,0,0,0,0,0,0,0,1,0026,0035,0002,0006,0006,0000,0000,0000,0.0000,1.2829,0.0000,0.0000,0.0000,0.0000,*41
$PMTKDB2,0C1E,0000,0000,0000,0000,0000,0000,0700,0049.54,0000.00,12829.03,268122.18,0000.05,-396.12,00-0.28,0000.00,*21
$PMTKEPH,40,-1.2.4,3,-7.2.4,8,9,-11.2.4,14,16,21,22,23,26,27,29,-30.2.4,31,32,-65.2.4,-66.2.4,-67.2.4,-68.2.4,-69.2.4,-70.2.4,-71.2.4,-72.2.4,-73.2.4,-74.2.4,-75.2.4,-76.2.4,-77.2.4,-78.2.4,-79.2.4,-80.2.4,-82.2.4,-83.2.4,-84.2.4,-85.2.4,-86.2.4,-87.2.4,-88.2.4*69
$PMTKALM,32,1,2,3,5,6,7,8,9,10,11,12,13,14,15,16,17,18,19,20,21,22,23,24,25,26,27,28,29,30,31,32,193*51

#WXM[.?0A2C4E6G8I:K<M>O@QBSDUFWHYJ[L]N_PaRcTeVgXiZk\m^o`qbsdufwhyj{l}npy&39

#NM^Z.BB1FCEK6H8JKQ<NNT@QBSD&14
#\XOU.?0CI3GK6G8ON;RNPb@QBVVWVG[[\[LbNabQkedjlWqmpktu^vcqw}w|z}nqw|&4D
#\XOU.@0I2FH5F7NM:QMOa?PAUTTUFZYYZKaM_fPjdcikVplqnms]nwubpuz|~{}{mpuz}&E4
#\XOU.A0BH3GG6G8ON;SNPb@QBTUYVGYZ^[LbNhPjdcikVplisrn]ubpvvxy{mpv{~&32
#\XOU.B0J2FG5F7NM:QMO_?PAT\ZUFYa_ZKaM_aPjdcikVplimts]psbpu}|}mpuz}&77
#\XOU.C0H2C4E6G8[KKL=N?PARCWEVGa[Z`bMgceebeTxjg|Yqtsrurqsbuxevgxyz{l}nprwy|~&08
#\XOU.D0CE3GE6G8ON;TRP`@QBTW]VGY\b[LbNePjdcikVpljmqs]wxsbpv|~{z{|mpuz}&C1
#\XOU.E0DB3K5F7KK:]MMN?PARCTE[GXIc]\bdOidgihgVlqm[usvpurvsdv{gu}l}~qsuw|~&56
#\XOU.F0CH3GH6G8ON;RNP`@QBTWWVGY\\[LbN`fQkedjlWqlonrm^rxcqw{wzz{nqv{~&45
#\XOU.G0B2C4E6G8[KKL=N?PARCWEVGa[Z`bMgcbgdgT{{zzYkkosuvyvtcvvf{}yj{|}~oqsuz|&F4
#\XOU.H0BC3D5F7H9\LLM>O@QBSDXFWHb\[acNhdhfkfUxy~kZrrqvourtcv{fwhyz{|m~oqsxz}&4D
#\XOU.@@1C3FH6G8LR;]RPQ@QBSDUF\HZJd^]cePjfejhfW}lk|\nnrwtsuwwfyyiw||otvz|&E9
#\XOU.@E1DCI5F7H9MM<_OOPARCTEVG]IZKb_begQfjhfjmXjls~]krwwwxw|xhzk}puwy{&26
#\XOU.@F1DDE5F7H9J;UNNO@QBSDUFZHYJa^adfPeikhjmWl{}r\josvvu{x~|gy|j{l}~qsuw|~&38
#\XOU.@G1DCL5F7H9J;UNNO@QBSDUFZHYJa^adfPeidhlfWol{l\jqqqzy{w{~gy|j{l}~qsuw|~&20
#\XOU.@H1DDD5F7H9LL<VOOPARCTEVG]I[Kb_begQfjhgfgX|ksp]vxryxtzufxiw|~nsuxz&E6
#\XOU.@I1DCJ5GH8I:LL=WPRSBSDUFWH^J]Lc`cfhRgkjhpnYntrr^urus|y{~gyyjxotvy{&38
#\XOU.A@1DCI5F7H9J;UNNO@QBSDUFZHYJa^adfPeigfhiWj~\jqvwtwyv}~gyyj|otvxz&F1
#\XOU.AA1DDE5L7H9KS<_OQRARCTEVG]I[Kb_begQfjliloX{}ks]kptrz|uwz{hzkpuwz|&9F
#\XOU.AB1DCJ5F7H9J;UNNO@QBSDUFZHYJa^adfPeihihoWkl\roxpuwtvewwhz|m~rtvx}&92
#\XOU.AC1DDD5F7H9J;UNNO@QBSDUFZHYJa^adfPeiggehWn|rq\uvqqrvxzewyh{{m~rtvx}&8C
#\XOU.AD1DCK5F7H9J;UNNO@QBSDUFZHYJa^adfPeijimiWmjk\jorpxvwwwvgy}j{l}~qsuw|~&11
#\XOU.AF1CLG5F7H9J;^NNO@QBSDUFZHYJd^]cePikihmoW|q\joqpqxt}zxgyj{l}~qsuw|~&27
#\XOU.BG1DCL5F7H9J;UNNO@QBSDUFZHYJa^adfPeidffnWonnk\jqqqzy{w{~gy{j{l}~qsuw|~&15
#\XOU.CH1B3D5F7H9JKLM>O@QBSDUFWHYJ[L]^_`QbSdUfWhijk\m^o`qbstuvgxizk|m~oq&36

#NM`a.C@BH3E5F7H9J;L=N?PQRSTUVWHYJ[L&5A
#NLPT.AG1CF4EFGK9GMJP>ONQTVD[X]HYX\\M^]`hgSecnoX&B9
#NLPT.G0BE3DEFJ8IHT<MLOPQBY\[FWV\cK\[^`fQdahlV&62
#NLPT.@F1CF4EFGK9RIS=NMQWRCU[V`HYXc\M^]aejSjcljX&CE
#NLPT.H0BE3DEFJ8FJIR=NMPQUCZ]]GXW^_L]\_ciRebkmW&93
#NLPT.F0B2&D8
#NLPT.AC1CF4EFGK9LIP=NMPTYCU[V`HZX]`M^]ffcSkcihX&C0
#NLPT.B@1D3&05
#NLPT.AF1CF4EFGK9GTJN>ONTW[DVWZ[I[Y]^N_^fhlTjdkqY&FD
#NLPT.@0D2&D4
#NLPT.@A1C3&03
#NLPT.@0C2&D3
#NLPT.A@F2E4&39
#NLPT.AAB2F4&37
#NLPT.A@I2D4&3B
#NLPT.AAA2E4&35
#NLPT.A@G2E4&3A
#NLPT.A@F2F4&3A
#NLPT.AAB2E4&36
#NLPT.A@G2F4&3B
#NLPT.AAA2F4&36
#NLPT.A@H2D4&3A
#NLPT.@ID2D4&3E

#NMMN.@0>DCFF6JQPL;PMOU@ZTSY[FXYIZK]]N`cibkicfghYj[&4B
#KL_c.@0JFEJHH7INRQ<PN?TATCTE^WX\J&4E
#KL_c.F0JFHHFF7IKKR<PN?TATCTE^WX\J&48
#KL_c.G0JGFIIH7EKMTN=QO@UBTDUF_XY[K&7D
#KL_c.H0JFHIFH7EKROU=QO@UBTDUF_XY]K&85
#KL_c.@A1KGKIOG8JKRL=QO@UBUDUF_XY[K&79
#KL_c.@F1KGJENN8FMNPS>RPAVCUEVG`YZ\L&B2
#KL_c.AB1KFJFKO8FQSP=QO@UBTDUF_XY]K&82
#KL_c.AC1KGJINI8FNMQP>RPAVCUEVG`YZ^L&AF
#KL_c.AF1KGDIML8FMSNN>RPAVCUEVG`YZ^L&AE
#KL_c.AG1KHEGFJ8FNLOM>RPAVCUEVG`YZ\L&9E
#KL_c.B@1KFIKJP8JNOL=QO@UBUDUF_XY]K&7F
#KL_c.@ID2KMLFGH9GLTOU?SQBTY[FWHYJc\]_O&47
#KL_c.A@G2GKJKKJ9QTN=QO@UBUDUF_XY[K&82
#KL_c.A@I2GKFJNK9GOUNN?SQBWDWFWHaZ[_M&DE
#KL_c.A@H2GKLKON9GLUVR?SQBWDWFWHaZ[]M&EF
#KL_c.A@F2GKIHJO9GPSRU?SQBWDWFWHaZ[_M&E6
#KL_c.AAB2GKMJMH9GMNPS?SQBWDWFWHaZ[]M&D7
#KL_c.AAA2GKIIGN9KNPV>RPAVCVEVG`YZ\L&A9
#KLbg.?0BJ3FFG7P9LKS=PV@RSCVU\GY_J]]]NacQdciUmWqYk[ns^qpybuveywhz~l&30
#KLbg.@0C2EDG6IHL:&5E

#\Qpou/DE2DGNNG8J:K<M>O@RW[TYF[ZYJ_^bfOdbgjTjlmhYoqtr^orcz|h|~m~rw|&67
#NLXZ.AE1BC4FNOI9OTNVQS@UgT[]iGnm`\\]NpaauffUwpkzlp\nrcwvxj~q&06
#NLXZ.AF1BC4FNOI9O\LSRQ@UgSfi[Gnm_[\]NpaavfyUwo~k{s\vtqzcy~}j}q&39
#NLXZ.AG1BC4FNOI9O]MVSX@UgTUi_Gnm]b\]NpaaulyUzjznmp\uuxwvbxywxi{|o&50
#NLXZ.AH1BC4FNOI9O^]Pb`@UgTi^iGnm`d\]NpaautzUwzkpjm\vuc{}yj}}~q&4A
#NLXZ.AI1BC4FNOI9O_LUR`@UgTYh\Gnm]n\]NpaauleUzmiz~m\vpvsxc|{x|j}~q&CC
#NLXZ.B@1BC4FNOI9O`La_W@UgS[[YGnm^d\]NpaauveUnhnllt\tssyzcx{j|}p&A0
$[AGT],GSET=3
$[AGT],rm,1,rt,1
$[AGT],fsm,wm,2
$[AGT],rv PMTKRQTEPH,1881,138085,5,1,4,7,11,30
$[AGT],GSET=3
$[AGT],rm,1,rt,7
$[AGT],fgFirstReq:0
$[AGT],bitmap,old: 108,new: 108
$[AGT],skip re_agps_req
$[AGT],GSET=3
$[AGT],rm,4,rt,9
$[AGT],inco
$[AGT],sel SI
$[AGT],rm,4
$[AGT],state:4
$[AGT],state:4
$[AGT],wkssi
$[AGT],s,1,m,3
$[AGT],idle
$[AGT],clear epo req
028216.105,HBD,IF1,TIM,DSP,u1ChnNum,37,u2DataSize,57
028216.105,HBD,IF1,COM,BinDecX,65065
028216.105,HBD,IF1,GPS,TkDltIn,4016,4028,12
028216.105,HBD,IF1,TIM,NWloc,fgfirstUseNW,0,case,0,NWAID,0,NWUSE,0
028216.107,HBD,IF1,AGP,BOOST,Posdiff:12.925619,0.800656,num:6,PosConverge,1,BoostRemT,14.995
$Boost, flag on*64
$LOC_Cache_BIT,00000002*7D
028216.107,HBD,IF1,AGP,AGPSMGN,Posdiff:12.925619,0.800656,num:0,PosConverge,0,AGPSRemT,12.073
028216.107,HBD,IF1,TIM,NWloc,Core_Save,fgHaveNWloc,0,fgHaveSaved,1

#MZYQ.AE1E3&1D

#XPda.E@CC3&48

#MZYQ.@B1CJLI6I8O^NP=&0D

#MZYQ.AH1HG4&57
028216.107,HBD,IF1,AGP,AGPSMGN,AGPSMode:3,AGPSTimer:3.927
